{"version": 0.6, "generator": "Overpass API 0.7.58.5 b0c4acbb", "osm3s": {"timestamp_osm_base": "2022-09-06T12:57:09Z", "copyright": "The data included in this document is from www.openstreetmap.org. The data is made available under ODbL."}, "elements": [{"type": "node", "id": 580793191, "lat": 35.68774, "lon": 139.742716, "tags": {"shop": "clothes"}}, {"type": "node", "id": 1385607894, "lat": 35.6703628, "lon": 139.7487999, "tags": {"name": "\u30a4\u30bf\u30ea\u30a2\u30f3\u9774\u5e97", "opening_hours:signed": "no", "shop": "shoes"}}, {"type": "node", "id": 3121899299, "lat": 35.6829716, "lon": 139.7416203, "tags": {"name": "\u30ec\u30c7\u30a3\u30fc\u30b9\u30b7\u30e7\u30c3\u30d7 \u30a2 \u30d7\u30ec\u30b9\u30c8", "name:en": "A PRESTO", "shop": "clothes"}}, {"type": "node", "id": 3121900297, "lat": 35.6830048, "lon": 139.741615, "tags": {"name": "\u7406\u5bb9\u5ba4 \u9577\u8c37\u5ddd", "shop": "hairdresser"}}, {"type": "node", "id": 4547666648, "lat": 35.6876204, "lon": 139.7421532, "tags": {"shop": "jewelry"}}, {"type": "node", "id": 4547666656, "lat": 35.6872159, "lon": 139.7416984, "tags": {"name": "CUT SALON TAKAHASHI", "shop": "hairdresser"}}, {"type": "node", "id": 4548444516, "lat": 35.6872438, "lon": 139.741732, "tags": {"name": "DQ&Co", "shop": "variety_store"}}, {"type": "node", "id": 4548444518, "lat": 35.6873195, "lon": 139.7417669, "tags": {"name": "\u30a8\u30b9\u30d1\u30fc\u30b9", "second_hand": "yes", "shop": "clothes"}}, {"type": "node", "id": 7161523705, "lat": 35.6864018, "lon": 139.7399875, "tags": {"name": "STELLAR", "shop": "hairdresser"}}, {"type": "node", "id": 7161544249, "lat": 35.6849174, "lon": 139.7374439, "tags": {"name": "welcia", "shop": "chemist"}}, {"type": "node", "id": 9130956139, "lat": 35.6763904, "lon": 139.7370307, "tags": {"name": "\u30b0\u30ec\u30a4\u30b9\u30d5\u30eb\u30d0\u30fc\u30d0\u30fc", "shop": "hairdresser"}}, {"type": "node", "id": 9234278555, "lat": 35.6757244, "lon": 139.7373324, "tags": {"level": "1", "name": "Tukka", "shop": "hairdresser"}}, {"type": "node", "id": 9882287585, "lat": 35.676969, "lon": 139.7375003, "tags": {"level": "0", "name": "\u82f1\u56fd\u5c4b", "shop": "clothes"}}]}