{"version": 0.6, "generator": "Overpass API 0.7.58.5 b0c4acbb", "osm3s": {"timestamp_osm_base": "2022-09-06T16:43:38Z", "copyright": "The data included in this document is from www.openstreetmap.org. The data is made available under ODbL."}, "elements": [{"type": "node", "id": 26472157, "lat": 40.4108266, "lon": -3.7093691}, {"type": "node", "id": 26472158, "lat": 40.4112592, "lon": -3.7092922}, {"type": "node", "id": 26472160, "lat": 40.4109284, "lon": -3.710357}, {"type": "node", "id": 26472161, "lat": 40.411361, "lon": -3.7102801}, {"type": "node", "id": 26472719, "lat": 40.4097328, "lon": -3.7010866, "tags": {"addr:city": "Madrid", "addr:country": "ES", "addr:housenumber": "44", "addr:postcode": "28012", "addr:street": "Calle del Ave Mar\u00eda", "amenity": "pub", "name": "Caf\u00e9 Melo's"}}, {"type": "node", "id": 167301835, "lat": 40.4096055, "lon": -3.6926831, "tags": {"addr:city": "Madrid", "addr:country": "ES", "addr:housenumber": "127", "addr:postcode": "28012", "addr:street": "Calle de Atocha", "amenity": "fast_food", "brand": "McDonald's", "brand:wikidata": "Q38076", "brand:wikipedia": "es:McDonald's", "cuisine": "burger", "name": "McDonald's", "takeaway": "yes", "wheelchair": "no"}}, {"type": "node", "id": 167301867, "lat": 40.4093955, "lon": -3.6917429, "tags": {"created_by": "JOSM", "name": "Quiosco Prado", "shop": "kiosk"}}, {"type": "node", "id": 167301883, "lat": 40.4094668, "lon": -3.6927037, "tags": {"name": "kiosco - estanco", "shop": "kiosk"}}, {"type": "node", "id": 167301896, "lat": 40.4094884, "lon": -3.6938073, "tags": {"amenity": "bar"}}, {"type": "node", "id": 167301910, "lat": 40.4104639, "lon": -3.6956565, "tags": {"amenity": "fast_food", "wheelchair": "no"}}, {"type": "node", "id": 167301919, "lat": 40.4109882, "lon": -3.6966965, "tags": {"amenity": "pub", "name": "Gujarat", "old_name": "Bar Castilla"}}, {"type": "node", "id": 167301935, "lat": 40.4110395, "lon": -3.6967784, "tags": {"name": "Tienda de Alimentaci\u00f3n", "name:es": "Tienda de Alimentaci\u00f3n", "shop": "convenience"}}, {"type": "node", "id": 167301964, "lat": 40.4116383, "lon": -3.6979403, "tags": {"amenity": "bar"}}, {"type": "node", "id": 167301973, "lat": 40.4115676, "lon": -3.6978097, "tags": {"amenity": "restaurant", "name": "Fuente de la Fama", "website": "http://www.restaurantefuentedelafama.com/es/"}}, {"type": "node", "id": 167302012, "lat": 40.4109761, "lon": -3.6961428, "tags": {"name": "Casa Pajuelo", "shop": "deli"}}, {"type": "node", "id": 167302029, "lat": 40.4108575, "lon": -3.6957127, "tags": {"amenity": "pub", "created_by": "JOSM", "name": "Casablanca"}}, {"type": "node", "id": 167302052, "lat": 40.4111815, "lon": -3.6957132, "tags": {"amenity": "restaurant", "name": "A Ca\u00f1ada", "survey:date": "2022-07-23", "wheelchair": "no"}}, {"type": "node", "id": 170951624, "lat": 40.4046885, "lon": -3.7019897, "tags": {"addr:city": "Madrid", "addr:country": "ES", "addr:housenumber": "55", "addr:postcode": "28012", "addr:street": "Calle de Embajadores", "amenity": "cafe", "brand": "Granier", "brand:wikidata": "Q102311169", "cuisine": "coffee_shop", "name": "Granier", "shop": "bakery"}}, {"type": "node", "id": 170951699, "lat": 40.4051443, "lon": -3.7015311, "tags": {"brand": "Dia & Go", "brand:wikidata": "Q925132", "brand:wikipedia": "es:Supermercados DIA", "name": "Dia & Go", "old_name": "Dia MARKET", "shop": "convenience"}}, {"type": "node", "id": 170951714, "lat": 40.4047549, "lon": -3.7014847, "tags": {"amenity": "restaurant", "name": "A Ca\u00f1ada"}}, {"type": "node", "id": 170952448, "lat": 40.4061261, "lon": -3.6980734, "tags": {"name": "Chinos - alimentaci\u00f3n", "shop": "convenience"}}, {"type": "node", "id": 244755788, "lat": 40.4101569, "lon": -3.7008624, "tags": {"amenity": "pub", "name": "Los Gamos"}}, {"type": "node", "id": 244755792, "lat": 40.4102862, "lon": -3.7008582, "tags": {"amenity": "restaurant", "created_by": "JOSM", "name": "Preity Raj", "note": "Restaurante Hind\u00fa"}}, {"type": "node", "id": 244755796, "lat": 40.4105707, "lon": -3.7007429, "tags": {"amenity": "pub", "name": "La Aguja"}}, {"type": "node", "id": 244757864, "lat": 40.4109653, "lon": -3.7004479, "tags": {"addr:city": "Madrid", "addr:housenumber": "17", "addr:postcode": "28012", "addr:street": "Calle del Ave Mar\u00eda", "amenity": "restaurant", "contact:website": "http://sidreriaacanada.com/", "cuisine": "regional", "name": "A Ca\u00f1ada", "old_name": "Bar Viriato"}}, {"type": "node", "id": 244757871, "lat": 40.4111374, "lon": -3.700326, "tags": {"addr:city": "Madrid", "addr:housenumber": "15", "addr:postcode": "28012", "addr:street": "Calle del Ave Mar\u00eda", "amenity": "restaurant", "contact:website": "http://www.rajamahal.es/", "cuisine": "indian", "name": "Raja Mahal"}}, {"type": "node", "id": 244757875, "lat": 40.4110886, "lon": -3.700589, "tags": {"amenity": "restaurant", "name": "Moharaj", "old_name": "Rani Mahal"}}, {"type": "node", "id": 244761676, "lat": 40.4108202, "lon": -3.7005322, "tags": {"addr:city": "Madrid", "addr:country": "ES", "addr:postcode": "28012", "addr:street": "Calle del Ave Mar\u00eda", "amenity": "restaurant", "cuisine": "pizza", "name": "Nap", "old_name": "SinPecado"}}, {"type": "node", "id": 244761679, "lat": 40.4107264, "lon": -3.7008747, "tags": {"amenity": "restaurant", "name": "Bombay Palace"}}, {"type": "node", "id": 244761689, "lat": 40.4101321, "lon": -3.6995485, "tags": {"amenity": "pub", "old_name": "Bangal\u00e1"}}, {"type": "node", "id": 244761692, "lat": 40.4096555, "lon": -3.7009094, "tags": {"addr:city": "Madrid", "addr:housenumber": "39", "addr:postcode": "28012", "addr:street": "Calle del Ave Mar\u00eda", "amenity": "pub", "name": "La Inquilina"}}, {"type": "node", "id": 244761696, "lat": 40.4093708, "lon": -3.7009194, "tags": {"amenity": "restaurant"}}, {"type": "node", "id": 244761700, "lat": 40.4094201, "lon": -3.7009059, "tags": {"addr:city": "Madrid", "addr:housenumber": "43", "addr:postcode": "28012", "addr:street": "Calle del Ave Mar\u00eda", "amenity": "pub", "contact:facebook": "vivachapataMadrid", "email": "vivachapatalavapies@hotmail.com", "name": "Viva Chapata", "phone": "+34 915 30 10 93", "website": "https://vivachapata.es/", "wheelchair": "no", "wheelchair:description": "Escal\u00f3n a la entrada."}}, {"type": "node", "id": 244763842, "lat": 40.4093334, "lon": -3.7010845, "tags": {"amenity": "pub", "name": "Shisha-Teter\u00eda Babilonia"}}, {"type": "node", "id": 244763856, "lat": 40.4105463, "lon": -3.6993951, "tags": {"amenity": "pub", "name": "El 15"}}, {"type": "node", "id": 244763860, "lat": 40.4106867, "lon": -3.6995223, "tags": {"addr:city": "Madrid", "addr:country": "ES", "addr:housenumber": "20", "addr:postcode": "28012", "addr:street": "Calle de los Tres Peces", "alt_name": "El Aperitivo", "amenity": "restaurant", "bar": "yes", "cuisine": "tapas", "name": "El Aperitivo del Coraz\u00f3n", "opening_hours": "Mo-Su 07:00-02:00", "phone": "+34 915 28 00 43"}}, {"type": "node", "id": 244763863, "lat": 40.4107804, "lon": -3.6994987, "tags": {"amenity": "cafe", "name": "El Despertar", "website": "http://www.cafeeldespertar.com/"}}, {"type": "node", "id": 244766781, "lat": 40.4115173, "lon": -3.6996972, "tags": {"amenity": "cafe", "name": "El Colmo", "old_name": "Kappa"}}, {"type": "node", "id": 244766784, "lat": 40.4115848, "lon": -3.6995961, "tags": {"amenity": "pub", "name": "F.M."}}, {"type": "node", "id": 244766788, "lat": 40.4114924, "lon": -3.6994308, "tags": {"addr:city": "Madrid", "addr:housenumber": "3", "addr:postcode": "28012", "addr:street": "Calle de la Torrecilla del Leal", "amenity": "restaurant", "contact:phone": "+34 915 28 25 42", "contact:website": "http://www.mesonobarquino.es/", "name": "O'Barqui\u00f1o"}}, {"type": "node", "id": 244766792, "lat": 40.4117686, "lon": -3.6995763}, {"type": "node", "id": 244766796, "lat": 40.4117492, "lon": -3.700322, "tags": {"addr:city": "Madrid", "addr:country": "ES", "addr:housenumber": "8", "addr:postcode": "28012", "addr:street": "Calle del Ave Mar\u00eda", "amenity": "restaurant", "cuisine": "italian;creative", "name": "La Temeraria"}}, {"type": "node", "id": 244767593, "lat": 40.4116655, "lon": -3.700364, "tags": {"amenity": "restaurant", "name": "El Dinosaurio", "old_name": "Teter\u00eda Puerta de Damasco"}}, {"type": "node", "id": 244767595, "lat": 40.4115875, "lon": -3.7003917, "tags": {"amenity": "pub", "name": "Bodegas Alfaro"}}, {"type": "node", "id": 266390473, "lat": 40.4127776, "lon": -3.7076389, "tags": {"amenity": "pub", "name": "San Bruno"}}, {"type": "node", "id": 612920897, "lat": 40.4087536, "lon": -3.6929385, "tags": {"amenity": "cafe", "brand": "Starbucks", "brand:wikidata": "Q37158", "brand:wikipedia": "en:Starbucks", "cuisine": "coffee_shop", "name": "Starbucks", "official_name": "Starbucks Coffee", "survey:date": "2022-07-22", "takeaway": "yes"}}, {"type": "node", "id": 612921363, "lat": 40.4090335, "lon": -3.6925909, "tags": {"amenity": "fast_food", "brand": "Taco Bell", "brand:wikidata": "Q752941", "brand:wikipedia": "en:Taco Bell", "cuisine": "tex-mex", "name": "Taco Bell", "takeaway": "yes"}}, {"type": "node", "id": 622204631, "lat": 40.4125936, "lon": -3.7045819, "tags": {"addr:city": "Madrid", "addr:housenumber": "16", "addr:postcode": "28012", "addr:street": "Plaza de Tirso de Molina", "brand": "Lidl", "brand:wikidata": "Q151954", "brand:wikipedia": "en:Lidl", "foot": "yes", "level": "0", "name": "Lidl", "opening_hours": "Mo-Sa 09:00-23:00; Su 10:00-23:00", "operator": "LiDL", "shop": "supermarket", "wheelchair": "limited"}}, {"type": "node", "id": 622204635, "lat": 40.4095795, "lon": -3.7023086, "tags": {"addr:city": "Madrid", "addr:country": "ES", "addr:housenumber": "46", "addr:postcode": "28012", "addr:street": "Calle de Lavapi\u00e9s", "amenity": "restaurant", "cuisine": "indian", "name": "Anarkoli", "phone": "+34914676000", "source": "survey"}}, {"type": "node", "id": 622204638, "lat": 40.4083576, "lon": -3.7010047, "tags": {"addr:city": "Madrid", "addr:country": "ES", "addr:housenumber": "2", "addr:postcode": "28012", "addr:street": "Calle de Valencia", "brand": "Carrefour Market", "brand:wikidata": "Q2689639", "brand:wikipedia": "fr:Carrefour Market", "level": "0", "name": "Carrefour Market", "opening_hours": "24/7", "opening_hours:covid19": "Mo-Fr 09:00-19:00; Sa,Su 09:00-15:00", "operator": "Carrefour", "shop": "supermarket", "website": "https://www.carrefour.es/_includes/redirect.aspx?tcmUri=tcm:5-4164", "wheelchair": "yes"}}, {"type": "node", "id": 622204639, "lat": 40.4081287, "lon": -3.6980834, "tags": {"amenity": "restaurant", "name": "Achuri"}}, {"type": "node", "id": 622204646, "lat": 40.4089962, "lon": -3.6997158, "tags": {"addr:city": "Madrid", "addr:country": "ES", "addr:housenumber": "11", "addr:postcode": "28012", "addr:street": "Calle de Argumosa", "amenity": "restaurant", "cuisine": "spanish", "name": "La Buga del Lobo"}}, {"type": "node", "id": 632467169, "lat": 40.4047895, "lon": -3.7057289}, {"type": "node", "id": 632467170, "lat": 40.4047322, "lon": -3.7059422}, {"type": "node", "id": 668468365, "lat": 40.4060991, "lon": -3.6981652, "tags": {"amenity": "restaurant", "name": "Restaurante \"El Cartel\""}}, {"type": "node", "id": 942770846, "lat": 40.408608, "lon": -3.6928819, "tags": {"addr:city": "Madrid", "addr:country": "ES", "addr:housenumber": "8", "addr:postcode": "28012", "addr:street": "Plaza del Emperador Carlos V", "amenity": "restaurant", "cuisine": "spanish", "name": "El Brillante", "opening_hours": "Mo-Su 06:30-00:30", "phone": "+34 915 28 6966", "website": "http://www.barelbrillante.es", "wheelchair": "no"}}, {"type": "node", "id": 974786923, "lat": 40.4099203, "lon": -3.7010793, "tags": {"addr:city": "Madrid", "addr:country": "ES", "addr:housenumber": "42", "addr:postcode": "28012", "addr:street": "Calle del Ave Mar\u00eda", "drink:club-mate": "retail", "name": "Planeta Vegano", "shop": "convenience", "website": "https://www.planetavegano.com/"}}, {"type": "node", "id": 988698209, "lat": 40.4131935, "lon": -3.7075758, "tags": {"addr:city": "Madrid", "addr:country": "ES", "addr:postcode": "28005", "addr:state": "Madrid", "addr:street": "Plaza Segovia Nueva", "brand": "Dia & Go", "brand:wikidata": "Q925132", "brand:wikipedia": "es:Supermercados DIA", "name": "Dia & Go", "old_name": "DIA Maxi;Dia Market", "shop": "convenience"}}, {"type": "node", "id": 1007387968, "lat": 40.4058129, "lon": -3.7079461, "tags": {"brand": "Dia", "brand:wikidata": "Q925132", "brand:wikipedia": "es:DIA (supermercados)", "name": "Dia", "shop": "supermarket"}}, {"type": "node", "id": 1010972136, "lat": 40.411457, "lon": -3.6990693, "tags": {"amenity": "bar", "name": "M\u00e1s coraz\u00f3n", "recycling:cans": "yes", "recycling:glass": "yes", "recycling:paper": "yes"}}, {"type": "node", "id": 1010993672, "lat": 40.4122872, "lon": -3.7012279, "tags": {"brand": "Dia", "brand:wikidata": "Q925132", "brand:wikipedia": "es:DIA (supermercados)", "name": "Dia", "shop": "supermarket", "wheelchair": "yes"}}, {"type": "node", "id": 1108148051, "lat": 40.4057397, "lon": -3.705086}, {"type": "node", "id": 1108148187, "lat": 40.4057864, "lon": -3.7050706}, {"type": "node", "id": 1108148284, "lat": 40.4057989, "lon": -3.705135}, {"type": "node", "id": 1108148400, "lat": 40.4057522, "lon": -3.7051504}, {"type": "node", "id": 1108148451, "lat": 40.4057776, "lon": -3.7050237}, {"type": "node", "id": 1108148629, "lat": 40.4057612, "lon": -3.7051984}, {"type": "node", "id": 1108148762, "lat": 40.4058151, "lon": -3.7050613}, {"type": "node", "id": 1108148888, "lat": 40.4057262, "lon": -3.7051589}, {"type": "node", "id": 1108148907, "lat": 40.4058272, "lon": -3.7051259}, {"type": "node", "id": 1108148927, "lat": 40.4057141, "lon": -3.7050943}, {"type": "node", "id": 1108149214, "lat": 40.4057309, "lon": -3.7050388}, {"type": "node", "id": 1108149337, "lat": 40.405808, "lon": -3.7051833}, {"type": "node", "id": 1178442295, "lat": 40.4103182, "lon": -3.7076364, "tags": {"addr:city": "Madrid", "addr:housenumber": "5", "addr:postcode": "28005", "addr:street": "Calle de la Ruda", "amenity": "restaurant", "cuisine": "mediterranean;spanish;regional;local", "name": "Malacat\u00edn", "opening_hours": "We-Sa 11:00-00:30; Su-Tu 11:00-17:30", "phone": "+34913655241", "website": "http://www.malacatin.com", "wheelchair": "no", "wheelchair:description": "Escal\u00f3n de 15 cm"}}, {"type": "node", "id": 1178447836, "lat": 40.4110137, "lon": -3.7048963, "tags": {"addr:city": "Madrid", "addr:country": "ES", "addr:housenumber": "18", "addr:postcode": "28012", "addr:street": "Calle del Mes\u00f3n de Paredes", "amenity": "pub", "name": "Marbella"}}, {"type": "node", "id": 1178486749, "lat": 40.4100481, "lon": -3.7064176, "tags": {"shop": "convenience"}}, {"type": "node", "id": 1178492356, "lat": 40.4118363, "lon": -3.7072181, "tags": {"name": "Nanyea", "shop": "convenience"}}, {"type": "node", "id": 1178501995, "lat": 40.4083754, "lon": -3.7030814, "tags": {"amenity": "bar", "name": "Re Tapas", "survey:date": "2022-07-23"}}, {"type": "node", "id": 1180035455, "lat": 40.4106324, "lon": -3.7059609, "tags": {"addr:city": "Madrid", "addr:country": "ES", "addr:housenumber": "19", "addr:postcode": "28012", "addr:street": "Calle de la Encomienda", "amenity": "restaurant", "cuisine": "tapas", "diet:vegan": "only", "name": "La Encomienda", "opening_hours": "Mo-Sa 13:30-00:30; Su 11:00-00:30", "phone": "+34910291300", "reservation": "yes", "shop": "convenience", "website": "http://laencomienda.es"}}, {"type": "node", "id": 1180102005, "lat": 40.4109033, "lon": -3.707633, "tags": {"addr:city": "Madrid", "addr:housenumber": "4", "addr:postcode": "28005", "addr:street": "Calle de las Maldonadas", "amenity": "restaurant", "name": "Carol House", "wheelchair": "no", "wheelchair:description": "Escalon > 7cm"}}, {"type": "node", "id": 1186377852, "lat": 40.4120231, "lon": -3.7050231}, {"type": "node", "id": 1191045117, "lat": 40.4101325, "lon": -3.7063121, "tags": {"amenity": "cafe", "name": "Pav\u00f3n"}}, {"type": "node", "id": 1191046039, "lat": 40.4117813, "lon": -3.7053261, "tags": {"amenity": "bar", "name": "Mariano"}}, {"type": "node", "id": 1191046494, "lat": 40.4111122, "lon": -3.7048589, "tags": {"addr:housenumber": "13", "addr:street": "Calle del Mes\u00f3n de Paredes", "amenity": "restaurant", "name": "Taberna Antonio S\u00e1nchez", "phone": "+34 91 539 78 26", "website": "https://www.tabernaantoniosanchez.com/?lang=es", "wikidata": "Q6137752"}}, {"type": "node", "id": 1191047689, "lat": 40.4104966, "lon": -3.7068462, "tags": {"shop": "kiosk"}}, {"type": "node", "id": 1191049130, "lat": 40.4113326, "lon": -3.7079597, "tags": {"amenity": "cafe", "name": "San Mill\u00e1n"}}, {"type": "node", "id": 1326816940, "lat": 40.4105154, "lon": -3.707697}, {"type": "node", "id": 1326816974, "lat": 40.4104052, "lon": -3.707709}, {"type": "node", "id": 1326817014, "lat": 40.4104985, "lon": -3.7076659}, {"type": "node", "id": 1326817036, "lat": 40.4105828, "lon": -3.7076333}, {"type": "node", "id": 1326817079, "lat": 40.4105491, "lon": -3.7076804}, {"type": "node", "id": 1326907763, "lat": 40.4103603, "lon": -3.7075056, "tags": {"amenity": "restaurant", "name": "La China Mandarina", "old_name": "Rinc\u00f3n Oriental"}}, {"type": "node", "id": 1326907764, "lat": 40.4108009, "lon": -3.7076291, "tags": {"name": "Plaza Lavapi\u00e9s", "old_name": "Moda Xu Da", "shop": "greengrocer"}}, {"type": "node", "id": 1326907766, "lat": 40.4109173, "lon": -3.7079535, "tags": {"disused:shop": "clothes", "name": "Alimentaci\u00f3n y Bazar", "old_name": "Da Bu Tong", "shop": "convenience"}}, {"type": "node", "id": 1326907770, "lat": 40.4103806, "lon": -3.7076199, "tags": {"addr:city": "Madrid", "addr:country": "ES", "addr:housenumber": "2", "addr:postcode": "28005", "addr:street": "Calle de la Ruda", "shop": "bakery", "wheelchair": "no"}}, {"type": "node", "id": 1326907771, "lat": 40.4109462, "lon": -3.7080342, "tags": {"addr:housenumber": "7", "addr:street": "Calle de las Maldonadas", "amenity": "restaurant", "disused:shop": "clothes", "name": "Origen", "old_name": "Xiaoliang"}}, {"type": "node", "id": 1326907774, "lat": 40.4107542, "lon": -3.7074989, "tags": {"addr:city": "Madrid", "addr:housenumber": "1", "addr:postcode": "28005", "addr:street": "Calle de las Maldonadas", "amenity": "cafe", "name": "Cruz", "smoking": "no", "wheelchair": "limited", "wheelchair:description": "Ba\u00f1o inaccessible, barra demasiada alta"}}, {"type": "node", "id": 1326907775, "lat": 40.4106629, "lon": -3.7074954, "tags": {"amenity": "restaurant", "name": "La Barca del Patio", "old_name": "Duland Textil", "website": "https://www.labarcadelpatio.es/"}}, {"type": "node", "id": 1326907776, "lat": 40.4108664, "lon": -3.7085915, "tags": {"addr:city": "Madrid", "addr:housenumber": "69", "addr:postcode": "28005", "addr:street": "Calle de Toledo", "brand": "Carrefour Express", "brand:wikidata": "Q2940190", "brand:wikipedia": "fr:Carrefour Express", "contact:website": "http://www.carrefour.es/tiendas-carrefour/supermercados/carrefour-express/Carrefour_Expres_calle_toledo_madrid.aspx", "name": "Carrefour Express", "old_name": "Ferreter\u00eda Hoyos", "operator": "Groupe Carrefour", "operator:wikidata": "Q3117359", "operator:wikipedia": "fr:Groupe Carrefour", "shop": "convenience"}}, {"type": "node", "id": 1326907779, "lat": 40.4108979, "lon": -3.7078995, "tags": {"addr:city": "Madrid", "addr:housenumber": "5", "addr:postcode": "28005", "addr:street": "Calle de las Maldonadas", "amenity": "pub", "disused:amenity": "restaurant", "name": "La Tienda de la Cerveza", "old_name": "El Patio Andaluz;Casa Rodr\u00edguez", "opening_hours": "Tu-Fr 11:00-14:00,17:00-21:00; Sa,Su 10:30-14:30", "phone": "+34 910279081", "real_ale": "yes"}}, {"type": "node", "id": 1327533383, "lat": 40.4111236, "lon": -3.7080273}, {"type": "node", "id": 1327625370, "lat": 40.4111073, "lon": -3.7074118, "tags": {"amenity": "restaurant", "name": "Cascorro", "old_name": "Complementos Renu", "old_name_1": "No Pasa Nada"}}, {"type": "node", "id": 1327625383, "lat": 40.411009, "lon": -3.7079077, "tags": {"addr:city": "Madrid", "addr:country": "ES", "addr:housenumber": "8", "addr:postcode": "28005", "addr:street": "Calle de las Maldonadas", "name": "Marisquer\u00eda", "shop": "seafood", "wheelchair": "yes"}}, {"type": "node", "id": 1329671720, "lat": 40.410562, "lon": -3.7088396, "tags": {"name": "Los Andes", "shop": "convenience"}}, {"type": "node", "id": 1329671725, "lat": 40.4104908, "lon": -3.708171, "tags": {"name": "V\u00edctor Jos\u00e9 Aguilera", "shop": "convenience"}}, {"type": "node", "id": 1329671726, "lat": 40.4100488, "lon": -3.7088348, "tags": {"amenity": "restaurant", "cuisine": "chinese", "name": "Solofirme", "smoking": "no"}}, {"type": "node", "id": 1329671734, "lat": 40.4096809, "lon": -3.7086337, "tags": {"amenity": "restaurant", "cuisine": "regional", "name": "Mes\u00f3n del Rastro", "smoking": "no"}}, {"type": "node", "id": 1329671738, "lat": 40.4097854, "lon": -3.7087205, "tags": {"addr:city": "Madrid", "addr:housenumber": "7", "addr:postcode": "28005", "addr:street": "Calle L\u00f3pez Silva", "amenity": "fast_food", "name": "Asador de pollos Navarro", "wheelchair": "limited", "wheelchair:description": "Escal\u00f3n de 5 cm y mostrador alto"}}, {"type": "node", "id": 1329671739, "lat": 40.4103944, "lon": -3.7078876, "tags": {"amenity": "cafe", "name": "San Tana", "smoking": "no"}}, {"type": "node", "id": 1329671762, "lat": 40.4106751, "lon": -3.7087326, "tags": {"amenity": "restaurant", "cuisine": "regional", "name": "Los Tiernos", "old_name": "Onis", "smoking": "no"}}, {"type": "node", "id": 1329861135, "lat": 40.4121488, "lon": -3.7080352, "tags": {"amenity": "restaurant", "cuisine": "regional", "name": "Cantalejo", "smoking": "no"}}, {"type": "node", "id": 1329861138, "lat": 40.4122248, "lon": -3.7081255, "tags": {"amenity": "restaurant", "cuisine": "regional", "name": "La Latina", "smoking": "no"}}, {"type": "node", "id": 1329909010, "lat": 40.4119683, "lon": -3.7073879}, {"type": "node", "id": 1329909018, "lat": 40.4115679, "lon": -3.7076879}, {"type": "node", "id": 1329909036, "lat": 40.4120685, "lon": -3.7074091}, {"type": "node", "id": 1329909095, "lat": 40.4119436, "lon": -3.7074835}, {"type": "node", "id": 1329909108, "lat": 40.4115285, "lon": -3.7077133}, {"type": "node", "id": 1329909115, "lat": 40.4114914, "lon": -3.7076529}, {"type": "node", "id": 1329909143, "lat": 40.4115898, "lon": -3.7074564}, {"type": "node", "id": 1329909147, "lat": 40.4115929, "lon": -3.7074149}, {"type": "node", "id": 1329909187, "lat": 40.4114793, "lon": -3.7077151, "tags": {"entrance": "main"}}, {"type": "node", "id": 1329909235, "lat": 40.4119684, "lon": -3.7074567}, {"type": "node", "id": 1329909249, "lat": 40.4115645, "lon": -3.7077145}, {"type": "node", "id": 1329909254, "lat": 40.4120645, "lon": -3.7075176}, {"type": "node", "id": 1329909264, "lat": 40.4115867, "lon": -3.7075908}, {"type": "node", "id": 1329909279, "lat": 40.4115285, "lon": -3.7073139}, {"type": "node", "id": 1457528577, "lat": 40.4077371, "lon": -3.6963231, "tags": {"addr:city": "Madrid", "addr:housenumber": "39", "addr:postcode": "28012", "addr:street": "Calle de Argumosa", "amenity": "cafe", "cuisine": "breakfast;crepe;tea;cake;coffee_shop", "name": "La Libre", "survey:date": "2022-07-23"}}, {"type": "node", "id": 1495392982, "lat": 40.4080907, "lon": -3.6976117, "tags": {"amenity": "restaurant", "cuisine": "indian", "name": "Fant\u00e1stico"}}, {"type": "node", "id": 1517405727, "lat": 40.4088976, "lon": -3.6990671, "tags": {"amenity": "bar", "name": "Il Morto Che Parla"}}, {"type": "node", "id": 1517405734, "lat": 40.4090165, "lon": -3.6936473, "tags": {"addr:city": "Madrid", "addr:housenumber": "5", "addr:postcode": "28012", "addr:street": "Calle de S\u00e1nchez Bustillo", "amenity": "restaurant", "contact:email": "atencioncliente@pinocchio.es", "contact:phone": "+34 91 468 73 73", "contact:website": "http://www.pinocchio.es/", "cuisine": "italian", "name": "Trattoria Pinocchio", "wheelchair": "limited"}}, {"type": "node", "id": 1517405742, "lat": 40.4089409, "lon": -3.6992747, "tags": {"addr:city": "Madrid", "addr:housenumber": "38", "addr:postcode": "28012", "addr:street": "Calle del Salitre", "amenity": "pub", "email": "barchinaskilavapies@gmail.com", "name": "Chinaski Lavapi\u00e9s", "opening_hours": "Mo-We 18:00-00:00; Th 18:00-01:00; Fr 18:00-02:00; Sa 13:00-02:00; Su 13:00-00:00", "phone": "+34 911 28 31 77", "real_ale": "yes", "website": "https://www.chinaskilavapies.com/"}}, {"type": "node", "id": 1517405743, "lat": 40.4091828, "lon": -3.6940348, "tags": {"addr:city": "Madrid", "addr:housenumber": "3", "addr:postcode": "28012", "addr:street": "Calle del Doctor Mata", "amenity": "restaurant", "contact:website": "http://www.elsanabria.es/en/", "cuisine": "regional", "name": "Sanabria", "wheelchair": "limited"}}, {"type": "node", "id": 1535864087, "lat": 40.4083556, "lon": -3.6995524, "tags": {"addr:city": "Madrid", "addr:housenumber": "9", "addr:postcode": "28012", "addr:street": "Calle de Argumosa", "alt_name": "Soidemersol", "amenity": "restaurant", "name": "El Econ\u00f3mico", "opening_hours": "Mo-Su 09:00-12:30,13:00-16:30,20:00-24:00"}}, {"type": "node", "id": 1548386547, "lat": 40.4078927, "lon": -3.7045348, "tags": {"addr:street": "Calle de Mira el Sol", "amenity": "restaurant", "cuisine": "vietnamese", "name": "Tam Coc"}}, {"type": "node", "id": 1556708351, "lat": 40.4094202, "lon": -3.7041097, "tags": {"addr:city": "Madrid", "addr:country": "ES", "addr:housenumber": "1", "addr:postcode": "28012", "addr:street": "Calle de los Cabestreros", "amenity": "restaurant", "cuisine": "senegalese", "name": "Baobab"}}, {"type": "node", "id": 1556708383, "lat": 40.4092708, "lon": -3.709648, "tags": {"amenity": "pub", "name": "La Cabra en el Tejado"}}, {"type": "node", "id": 1556708387, "lat": 40.4110987, "lon": -3.7027101, "tags": {"amenity": "bar", "name": "Marimba", "old_name": "Taque?"}}, {"type": "node", "id": 1556708398, "lat": 40.4118145, "lon": -3.7031148, "tags": {"addr:city": "Madrid", "addr:country": "ES", "addr:housenumber": "6", "addr:postcode": "28012", "addr:street": "Calle de Lavapi\u00e9s", "amenity": "restaurant", "contact:phone": "+34 915 28 99 78", "cuisine": "pizza", "name": "Pizzer\u00eda Della Cabeza", "website": "http://www.pizzeriadellacabeza.es"}}, {"type": "node", "id": 1556708412, "lat": 40.4074131, "lon": -3.6963435, "tags": {"addr:city": "Madrid", "addr:housenumber": "28", "addr:postcode": "28012", "addr:street": "Calle de Argumosa", "amenity": "cafe", "description": "Cat shelter with a combined small cafe (\"cat cafe\") where visitors and have drinks and enjoy the company of cats.", "name": "La Gatoteca", "phone": "+34 916 225831", "website": "https://www.lagatoteca.es/"}}, {"type": "node", "id": 1556708416, "lat": 40.4093029, "lon": -3.7018185, "tags": {"shop": "greengrocer"}}, {"type": "node", "id": 1556708422, "lat": 40.4096781, "lon": -3.7077827, "tags": {"addr:city": "Madrid", "addr:housenumber": "14", "addr:postcode": "28005", "addr:street": "Calle de las Amazonas", "amenity": "bar", "name": "Santurce", "wheelchair": "limited", "wheelchair:description": "Planta lisa, escalon 7 cm"}}, {"type": "node", "id": 1556708425, "lat": 40.4101809, "lon": -3.702376, "tags": {"shop": "greengrocer"}}, {"type": "node", "id": 1556708435, "lat": 40.4109383, "lon": -3.7028415, "tags": {"shop": "greengrocer"}}, {"type": "node", "id": 1556708439, "lat": 40.4114307, "lon": -3.7029998, "tags": {"shop": "greengrocer"}}, {"type": "node", "id": 1558636931, "lat": 40.4124253, "lon": -3.700367, "tags": {"addr:city": "Madrid", "addr:country": "ES", "addr:housenumber": "27", "addr:postcode": "28012", "addr:street": "Calle de la Magdalena", "name": "Acid Bakehouse", "old_name": "La Recoba", "shop": "bakery", "survey:date": "2022-07-23"}}, {"type": "node", "id": 1558636959, "lat": 40.4125838, "lon": -3.69987}, {"type": "node", "id": 1558636960, "lat": 40.4125819, "lon": -3.6997974}, {"type": "node", "id": 1558636963, "lat": 40.4126474, "lon": -3.6998027}, {"type": "node", "id": 1572572775, "lat": 40.4114951, "lon": -3.7029897, "tags": {"amenity": "biergarten", "name": "Madritallica", "old_name": "Attack"}}, {"type": "node", "id": 1572572826, "lat": 40.4088323, "lon": -3.6989418, "tags": {"amenity": "bar", "name": "Bar San Lorenzo", "wheelchair": "limited"}}, {"type": "node", "id": 1619574634, "lat": 40.408015, "lon": -3.6974589, "tags": {"amenity": "restaurant", "cuisine": "indian", "name": "Delhi Darbar", "survey:date": "2022-07-23"}}, {"type": "node", "id": 1619574635, "lat": 40.4080031, "lon": -3.6973775, "tags": {"addr:city": "Madrid", "addr:housenumber": "29", "addr:postcode": "28012", "addr:street": "Calle de Argumosa", "amenity": "cafe", "name": "Casa de Las Tostas"}}, {"type": "node", "id": 1619574640, "lat": 40.4061701, "lon": -3.698953, "tags": {"amenity": "restaurant", "cuisine": "pizza", "name": "Pizzer\u00eda La Diavoletta"}}, {"type": "node", "id": 1619574649, "lat": 40.4069704, "lon": -3.6950056, "tags": {"amenity": "restaurant", "cuisine": "chinese", "name": "Shangyuan"}}, {"type": "node", "id": 1645108300, "lat": 40.4103222, "lon": -3.7026112, "tags": {"amenity": "pub", "name": "Agave Azul", "old_name": "Andy's"}}, {"type": "node", "id": 1645108302, "lat": 40.4093171, "lon": -3.7008642, "tags": {"amenity": "cafe", "name": "Caf\u00e9 de Barbieri", "wikidata": "Q20908859"}}, {"type": "node", "id": 1645108307, "lat": 40.4125509, "lon": -3.7032669, "tags": {"amenity": "bar", "name": "C\u00f3mete el Mundo", "old_name": "La Tapa del Mundo"}}, {"type": "node", "id": 1645108309, "lat": 40.4103444, "lon": -3.7024668, "tags": {"addr:city": "Madrid", "addr:country": "ES", "addr:housenumber": "27", "addr:postcode": "28012", "addr:street": "Calle de Lavapi\u00e9s", "amenity": "restaurant", "name": "La Victoria", "old_name": "Momtaz Mohol", "opening_hours": "14:00-17:00,20:00-24:00", "phone": "+34 915275783", "source": "survey"}}, {"type": "node", "id": 1645108311, "lat": 40.4097832, "lon": -3.7024206, "tags": {"addr:city": "Madrid", "addr:housenumber": "42", "addr:postcode": "28012", "addr:street": "Calle de Lavapi\u00e9s", "amenity": "restaurant", "contact:phone": "+34 915281599", "cuisine": "indian", "email": "info@shaplaindianrestaurant.com", "internet_access": "wlan", "name": "Shapla", "opening_hours": "Mo-Su 12:00-00:30", "source": "survey", "website": "http://shaplaindianrestaurant.com"}}, {"type": "node", "id": 1645108312, "lat": 40.409339, "lon": -3.7020612, "tags": {"amenity": "restaurant", "cuisine": "indian", "name": "Calcuta", "source": "survey"}}, {"type": "node", "id": 1645108313, "lat": 40.4087713, "lon": -3.7008603, "tags": {"amenity": "restaurant", "cuisine": "indian", "name": "Raj Puth", "name:en": "Raj Puth"}}, {"type": "node", "id": 1645108314, "lat": 40.4088084, "lon": -3.7015193, "tags": {"amenity": "fast_food", "cuisine": "pizza", "name": "Fratelli d'Italia", "phone": "+34915275431", "takeaway": "only"}}, {"type": "node", "id": 1645108315, "lat": 40.4095321, "lon": -3.7020366, "tags": {"amenity": "fast_food", "cuisine": "kebab"}}, {"type": "node", "id": 1669117644, "lat": 40.4071316, "lon": -3.6999115, "tags": {"amenity": "bar", "name": "La Mancha"}}, {"type": "node", "id": 1669117650, "lat": 40.408338, "lon": -3.6994385, "tags": {"amenity": "pub", "name": "La Playa de Lavapi\u00e9s", "survey:date": "2022-07-23"}}, {"type": "node", "id": 1669117654, "lat": 40.4103918, "lon": -3.7025087, "tags": {"amenity": "pub", "name": "La Redicha"}}, {"type": "node", "id": 1669117683, "lat": 40.4080258, "lon": -3.6991619, "tags": {"amenity": "restaurant", "diet:vegetarian": "only", "name": "La Funda Mental"}}, {"type": "node", "id": 2053711103, "lat": 40.4117997, "lon": -3.7037506, "tags": {"addr:city": "Madrid", "addr:country": "ES", "addr:housenumber": "6", "addr:postcode": "28012", "addr:street": "Calle de San Pedro M\u00e1rtir", "amenity": "restaurant", "cuisine": "spanish", "name": "Badila"}}, {"type": "node", "id": 2053711106, "lat": 40.4108769, "lon": -3.7049558, "tags": {"amenity": "restaurant"}}, {"type": "node", "id": 2078115441, "lat": 40.407222, "lon": -3.694024, "tags": {"addr:city": "Madrid", "amenity": "cafe", "cuisine": "spanish", "name": "Pando Cafeter\u00eda", "outdoor_seating": "yes", "smoking": "separated", "takeaway": "yes", "wheelchair": "limited"}}, {"type": "node", "id": 2078116017, "lat": 40.407124, "lon": -3.693938, "tags": {"addr:city": "Madrid", "amenity": "fast_food", "brand": "Burger King", "brand:wikidata": "Q177054", "brand:wikipedia": "en:Burger King", "cuisine": "burger", "drive_through": "no", "name": "Burger King", "takeaway": "yes", "wheelchair": "limited"}}, {"type": "node", "id": 2246509892, "lat": 40.410196, "lon": -3.697543, "tags": {"amenity": "restaurant", "contact:phone": "+34 915 27 49 30", "contact:website": "https://almacafebar.wordpress.com/", "cuisine": "spanish", "internet_access": "wlan", "internet_access:fee": "yes", "name": "Caf\u00e9 Bar Alma", "toilets:wheelchair": "no", "wheelchair": "yes"}}, {"type": "node", "id": 2261314940, "lat": 40.4106999, "lon": -3.6978462, "tags": {"addr:city": "Madrid", "addr:country": "ES", "addr:housenumber": "9", "addr:postcode": "28012", "addr:street": "Calle de San Eugenio", "amenity": "bar", "name": "Vin\u00edcola Mentridana", "source": "+34 915 27 87 60"}}, {"type": "node", "id": 2294985270, "lat": 40.4105514, "lon": -3.7080953, "tags": {"addr:city": "Madrid", "addr:country": "ES", "addr:housenumber": "12", "addr:postcode": "28005", "addr:street": "Calle de la Ruda", "name": "25 Olivas", "old_name": "La Tienda de la Cerveza", "shop": "convenience", "wheelchair": "no"}}, {"type": "node", "id": 2449728805, "lat": 40.4125848, "lon": -3.7036451, "tags": {"amenity": "restaurant", "name": "La Carpa", "wheelchair": "yes"}}, {"type": "node", "id": 2449728808, "lat": 40.4119982, "lon": -3.7050916, "tags": {"amenity": "ice_cream", "name": "Sienna"}}, {"type": "node", "id": 2449728809, "lat": 40.4125695, "lon": -3.7042471, "tags": {"name": "Don Fruta", "shop": "greengrocer", "wheelchair": "limited"}}, {"type": "node", "id": 2449728811, "lat": 40.4121225, "lon": -3.7044957, "tags": {"addr:city": "Madrid", "addr:housenumber": "7", "addr:postcode": "28012", "addr:street": "Plaza de Tirso de Molina", "amenity": "restaurant", "contact:phone": "+34 914 29 50 30", "email": "laparriladegalicia@hotmail.com", "name": "La Parrilla de Galicia", "old_name": "Asador Arizmendi", "website": "http://www.asadorarizmendi.com"}}, {"type": "node", "id": 2449728812, "lat": 40.4122196, "lon": -3.704069}, {"type": "node", "id": 2449728814, "lat": 40.4125686, "lon": -3.7041644, "tags": {"amenity": "restaurant", "name": "Apolo", "wheelchair": "no"}}, {"type": "node", "id": 2450643181, "lat": 40.4116766, "lon": -3.7079484, "tags": {"name": "Caramelos Paco", "shop": "confectionery"}}, {"type": "node", "id": 2459216465, "lat": 40.4063078, "lon": -3.7110089, "tags": {"amenity": "fast_food", "cuisine": "kebab", "name": "Antep Kebap"}}, {"type": "node", "id": 2459216466, "lat": 40.4063416, "lon": -3.7109738, "tags": {"amenity": "cafe", "name": "El Pescador"}}, {"type": "node", "id": 2461314623, "lat": 40.4079487, "lon": -3.6970064, "tags": {"addr:city": "Madrid", "addr:housenumber": "33", "addr:postcode": "28012", "addr:street": "Calle de Argumosa", "amenity": "pub", "contact:facebook": "https://www.facebook.com/CerveceriaElPedal/", "email": "cerveceriaelpedal@gmail.com", "name": "El Pedal", "opening_hours": "Mo-Th 17:00-01:00; Fr 17:00-02:30; Sa 11:00-02:30; Su 10:00-23:00", "real_ale": "yes"}}, {"type": "node", "id": 2544272006, "lat": 40.4125888, "lon": -3.6996872, "tags": {"addr:city": "Madrid", "addr:housenumber": "44", "addr:postcode": "28012", "addr:street": "Calle de Atocha", "amenity": "fast_food", "brand": "Burger King", "brand:wikidata": "Q177054", "brand:wikipedia": "es:Burger King", "cuisine": "asian;burger;japanese", "name": "Burger King", "name:en": "Take Wok", "name:es": "Take Wok", "old_name": "Burger King", "takeaway": "yes", "wheelchair": "limited"}}, {"type": "node", "id": 2546770617, "lat": 40.41016, "lon": -3.6942012, "tags": {"addr:city": "Madrid", "addr:country": "ES", "addr:housenumber": "115", "addr:postcode": "28012", "addr:street": "Calle de Atocha", "amenity": "restaurant", "name": "Roxy bar", "wheelchair": "yes", "wheelchair:description": "Small step at the entrance. You can reach the bathrooms and they are spacious but are not adapted. In this place wheelchair people meet"}}, {"type": "node", "id": 2546771941, "lat": 40.4104968, "lon": -3.6979978, "tags": {"addr:city": "Madrid", "addr:country": "ES", "addr:housenumber": "1", "addr:postcode": "28012", "addr:street": "Calle de Zurita", "amenity": "cafe", "name": "Santa Isabel", "opening_hours": "Mo-Th 08:00-02:00; Fr-Sa 08:00-02:30", "wheelchair": "limited"}}, {"type": "node", "id": 2546771942, "lat": 40.4098277, "lon": -3.6989709, "tags": {"amenity": "food_court", "name": "Sug. Ignacio SL", "opening_hours": "Mo-Fr 09:30-14:00, 16:30-19:30; Sa 10:00-14:00", "wheelchair": "limited"}}, {"type": "node", "id": 2546777610, "lat": 40.4111209, "lon": -3.6986832, "tags": {"addr:city": "Madrid", "addr:country": "ES", "addr:postcode": "28012", "addr:street": "Calle de Santa Isabel", "amenity": "bar", "name": "Bar el H\u00f3rreo", "wheelchair": "limited"}}, {"type": "node", "id": 2546777612, "lat": 40.4107052, "lon": -3.6993496, "tags": {"addr:city": "Madrid", "addr:housenumber": "22", "addr:postcode": "28012", "addr:street": "Calle de los Tres Peces", "amenity": "cafe", "contact:phone": "+34 685 88 66 40", "contact:website": "https://www.nomadecafe.co/tienda-online/", "name": "Nomade Cafe", "opening_hours": "10:00-00:00", "wheelchair": "yes"}}, {"type": "node", "id": 2546777613, "lat": 40.4122258, "lon": -3.6991251, "tags": {"amenity": "restaurant", "name": "Museo del Jam\u00f3n", "name:es": "Museo del Jam\u00f3n", "name:ru": "\u041c\u0443\u0437\u0435\u0439 \u0445\u0430\u043c\u043e\u043d\u0430", "name:zh": "\u706b\u817f\u535a\u7269\u9928\uff08\u963f\u6258\u67e5\u5e97\uff09", "opening_hours": "Mo-Sa 08:00-02:00", "wheelchair": "limited"}}, {"type": "node", "id": 2546794612, "lat": 40.4103045, "lon": -3.6945137, "tags": {"addr:city": "Madrid", "addr:country": "ES", "addr:housenumber": "115", "addr:postcode": "28012", "addr:street": "Calle de Atocha", "amenity": "restaurant", "name": "Azahar", "phone": "+34 910121491", "wheelchair": "limited", "wheelchair:description": "The entry meets regulatory measures. The bathrooms are in the basement"}}, {"type": "node", "id": 2546794615, "lat": 40.4102621, "lon": -3.6944184, "tags": {"addr:city": "Madrid", "addr:country": "ES", "addr:housenumber": "111", "addr:postcode": "28012", "addr:street": "Calle de Atocha", "amenity": "restaurant", "name": "Jinode", "wheelchair": "limited", "wheelchair:description": "Easy entry. The first room is spacious. To access to the other lounges and bathrooms there are several steps."}}, {"type": "node", "id": 2546794632, "lat": 40.4104087, "lon": -3.6947574, "tags": {"addr:city": "Madrid", "addr:country": "ES", "addr:housenumber": "111", "addr:postcode": "28012", "addr:street": "Calle de Atocha", "opening_hours": "10:30-23:30", "shop": "convenience", "wheelchair": "no"}}, {"type": "node", "id": 2555393279, "lat": 40.4096495, "lon": -3.6937563}, {"type": "node", "id": 2556174850, "lat": 40.4094834, "lon": -3.7022293, "tags": {"addr:city": "Madrid", "addr:housenumber": "46", "addr:postcode": "28012", "addr:street": "Calle de Lavapi\u00e9s", "amenity": "restaurant", "contact:phone": "+34 915 27 91 08", "contact:website": "http://www.tajmahalrestauranteindio.es/es/", "cuisine": "indian", "name": "Taj Mahal"}}, {"type": "node", "id": 2584073568, "lat": 40.4062821, "lon": -3.7014976, "tags": {"addr:city": "Madrid", "addr:country": "ES", "addr:housenumber": "81", "addr:postcode": "28012", "addr:street": "Calle del Mes\u00f3n de Paredes", "amenity": "bar", "name": "Donde da la vuelta el viento", "phone": "+34 91 017 7240", "website": "http://www.dondedalavueltaelviento.com"}}, {"type": "node", "id": 2649377343, "lat": 40.4103086, "lon": -3.7017065, "tags": {"addr:city": "Madrid", "addr:housenumber": "6", "addr:postcode": "28012", "addr:street": "Calle de San Carlos", "amenity": "bar", "name": "Bodegas Lo M\u00e1ximo"}}, {"type": "node", "id": 2692358624, "lat": 40.406098, "lon": -3.7078743, "tags": {"amenity": "bar", "name": "Gourmet", "old_name": "Paco y Miguel"}}, {"type": "node", "id": 2697521935, "lat": 40.4072097, "lon": -3.703938, "tags": {"amenity": "pub", "name": "La Embajada de Embajadores", "phone": "+34 910262741"}}, {"type": "node", "id": 2701952591, "lat": 40.4103465, "lon": -3.6977557, "tags": {"addr:city": "Madrid", "addr:housenumber": "38", "addr:postcode": "28012", "addr:street": "Calle de Santa Isabel", "amenity": "restaurant", "contact:facebook": "https://www.facebook.com/lacaletabernagaditana", "contact:phone": "+34 645 388 077", "contact:website": "http://www.lacaletagaditana.es/la_caleta_taberna_gaditana/la_Caleta.html", "cuisine": "regional", "name": "La Caleta"}}, {"type": "node", "id": 2701952592, "lat": 40.4108793, "lon": -3.6990942, "tags": {"addr:city": "Madrid", "addr:country": "ES", "addr:housenumber": "21", "addr:postcode": "28012", "addr:street": "Calle de los Tres Peces", "amenity": "restaurant", "cuisine": "spanish;regional;fish", "name": "La Caleta"}}, {"type": "node", "id": 2755071743, "lat": 40.4099113, "lon": -3.7070297, "tags": {"addr:city": "Madrid", "addr:housenumber": "11", "addr:postcode": "28005", "addr:street": "Plaza de Cascorro", "amenity": "restaurant", "capacity": "40", "cuisine": "coffee_shop", "email": "info@martinacocina.es", "name": "MartinaCocina", "phone": "+34910834380", "smoking": "outside", "website": "https://www.martinacocina.es/", "wheelchair": "no", "wheelchair:description": "Escalon > 7cm"}}, {"type": "node", "id": 2877835224, "lat": 40.4114128, "lon": -3.7090054, "tags": {"addr:city": "Madrid", "addr:street": "Plaza de la Cebada", "amenity": "bar", "contact:phone": "+34 639 400 954", "name": "Lorena", "old_name": "Dehesa de los Pedroches"}}, {"type": "node", "id": 2883851302, "lat": 40.41015, "lon": -3.69945, "tags": {"amenity": "restaurant", "cuisine": "regional", "old_name": "Mes\u00f3n El Prado"}}, {"type": "node", "id": 2883860601, "lat": 40.410602, "lon": -3.7082429, "tags": {"amenity": "restaurant", "cuisine": "regional", "name": "Del Velero"}}, {"type": "node", "id": 2954345624, "lat": 40.4132321, "lon": -3.7011589}, {"type": "node", "id": 2955144544, "lat": 40.411872, "lon": -3.7050083}, {"type": "node", "id": 2955144548, "lat": 40.4118797, "lon": -3.7048345}, {"type": "node", "id": 2955144551, "lat": 40.4119066, "lon": -3.7050393}, {"type": "node", "id": 2955144555, "lat": 40.4120035, "lon": -3.7051099}, {"type": "node", "id": 2955144558, "lat": 40.412033, "lon": -3.7049725}, {"type": "node", "id": 2955144559, "lat": 40.4120336, "lon": -3.704977}, {"type": "node", "id": 2955144568, "lat": 40.4122759, "lon": -3.703793}, {"type": "node", "id": 2955144600, "lat": 40.4125644, "lon": -3.6993435}, {"type": "node", "id": 2955144610, "lat": 40.4126304, "lon": -3.6993106}, {"type": "node", "id": 2971949914, "lat": 40.4090817, "lon": -3.692505, "tags": {"amenity": "restaurant", "brand": "Lizarr\u00e1n", "brand:wikidata": "Q1866620", "brand:wikipedia": "de:Lizarran", "cuisine": "spanish", "name": "Lizarr\u00e1n"}}, {"type": "node", "id": 2971950524, "lat": 40.4119891, "lon": -3.7042108}, {"type": "node", "id": 2971950530, "lat": 40.4120215, "lon": -3.7041407}, {"type": "node", "id": 2971950635, "lat": 40.4120456, "lon": -3.7042082}, {"type": "node", "id": 2971950637, "lat": 40.4120619, "lon": -3.7041723}, {"type": "node", "id": 2971950639, "lat": 40.4120709, "lon": -3.7042281}, {"type": "node", "id": 2971950642, "lat": 40.4120876, "lon": -3.7042892}, {"type": "node", "id": 2971950648, "lat": 40.4121636, "lon": -3.7043497}, {"type": "node", "id": 2971950654, "lat": 40.4122352, "lon": -3.7039905}, {"type": "node", "id": 2971950684, "lat": 40.4086584, "lon": -3.6928282, "tags": {"amenity": "restaurant", "brand": "100 Montaditos", "brand:wikidata": "Q8355805", "brand:wikipedia": "en:Cervecer\u00eda 100 Montaditos", "cuisine": "sandwich", "name": "100 Montaditos"}}, {"type": "node", "id": 3014676776, "lat": 40.4065217, "lon": -3.7061542, "tags": {"amenity": "bar", "name": "Gibraltar"}}, {"type": "node", "id": 3067686089, "lat": 40.4119165, "lon": -3.6995454}, {"type": "node", "id": 3117218229, "lat": 40.4061912, "lon": -3.6988754, "tags": {"brand": "Mercadona", "brand:wikidata": "Q377705", "brand:wikipedia": "en:Mercadona", "name": "Mercadona", "opening_hours": "Sa 09:00-15:00; Mo-Fr 09:00-21:30", "shop": "supermarket", "website": "https://www.mercadona.es", "wheelchair": "yes"}}, {"type": "node", "id": 3150475724, "lat": 40.4074166, "lon": -3.6957563, "tags": {"addr:city": "Madrid", "addr:housenumber": "43", "addr:postcode": "28012", "addr:street": "Calle de Argumosa", "amenity": "restaurant", "name": "Restaurante Reina Sof\u00eda", "phone": "+34 914 67 02 02", "source": "survey", "wheelchair": "yes"}}, {"type": "node", "id": 3186661577, "lat": 40.4078367, "lon": -3.7029863, "tags": {"addr:city": "Madrid", "addr:housenumber": "14", "addr:postcode": "28012", "addr:street": "Calle de Tribulete", "amenity": "cafe", "internet_access": "yes", "level": "4", "name": "Gau&Caf\u00e9", "smoking": "outside"}}, {"type": "node", "id": 3208935361, "lat": 40.4085209, "lon": -3.7074801, "tags": {"addr:city": "Madrid", "addr:housenumber": "10", "addr:postcode": "28005", "addr:street": "Calle Ribera de Curtidores", "amenity": "pub", "name": "Cervecer\u00eda Toma que toma", "wheelchair": "no", "wheelchair:description": "2 entradas inaccesibles"}}, {"type": "node", "id": 3209020961, "lat": 40.4096649, "lon": -3.7078323, "tags": {"addr:city": "Madrid", "addr:housenumber": "14", "addr:postcode": "28005", "addr:street": "Calle de las Amazonas", "name": "Aceitunas Jim\u00e9nez", "shop": "deli", "wheelchair": "no"}}, {"type": "node", "id": 3209505780, "lat": 40.4108851, "lon": -3.7075749, "tags": {"addr:city": "Madrid", "addr:housenumber": "2", "addr:postcode": "28005", "addr:street": "Calle de las Maldonadas", "shop": "convenience", "wheelchair": "no", "wheelchair:description": "Escalon > 7cm"}}, {"type": "node", "id": 3209505781, "lat": 40.4108612, "lon": -3.7074892, "tags": {"addr:city": "Madrid", "addr:country": "ES", "addr:housenumber": "2", "addr:postcode": "28005", "addr:street": "Calle de las Maldonadas", "amenity": "restaurant", "name": "Pan Ador\u00e9", "old_name": "Pan de Cielo", "website": "http://panadore.es/", "wheelchair": "no", "wheelchair:description": "Escalon > 7cm"}}, {"type": "node", "id": 3225103427, "lat": 40.4083463, "lon": -3.7027678, "tags": {"addr:city": "Madrid", "addr:housenumber": "20", "addr:postcode": "28012", "addr:street": "Calle de Sombrerete", "amenity": "cafe", "name": "Cafelito", "opening_hours": "Mo-Fr 08:00-21:00; Sa, Su 10:00-21:00"}}, {"type": "node", "id": 3235964308, "lat": 40.4091936, "lon": -3.7071715, "tags": {"addr:city": "Madrid", "addr:housenumber": "13", "addr:postcode": "28005", "addr:street": "Calle Ribera de Curtidores", "name": "Torre\u00f3n", "shop": "bakery", "wheelchair": "limited", "wheelchair:description": "2 puertas, una con menos accesibilidad"}}, {"type": "node", "id": 3235986182, "lat": 40.4088325, "lon": -3.7071926, "tags": {"addr:city": "Madrid", "addr:housenumber": "17", "addr:postcode": "28005", "addr:street": "Calle Ribera de Curtidores", "shop": "convenience", "wheelchair": "no", "wheelchair:description": "Escalones"}}, {"type": "node", "id": 3236026336, "lat": 40.4095776, "lon": -3.7081765, "tags": {"addr:city": "Madrid", "addr:housenumber": "11", "addr:postcode": "28005", "addr:street": "Plaza General Vara del Rey", "amenity": "bar", "name": "La Plaza", "wheelchair": "no", "wheelchair:description": "Escalon > 7cm"}}, {"type": "node", "id": 3236026339, "lat": 40.4093943, "lon": -3.7086984, "tags": {"addr:city": "Madrid", "addr:housenumber": "10", "addr:postcode": "28005", "addr:street": "Plaza General Vara del Rey", "shop": "bakery", "wheelchair": "no", "wheelchair:description": "Escalon > 7cm"}}, {"type": "node", "id": 3236026340, "lat": 40.409597, "lon": -3.7087901, "tags": {"addr:city": "Madrid", "addr:housenumber": "10", "addr:postcode": "28005", "addr:street": "Calle de L\u00f3pez Silva", "amenity": "bar", "name": "Casa \u00c1lvarez", "wheelchair": "limited", "wheelchair:description": "Acceso ba\u00f1o dificil"}}, {"type": "node", "id": 3236026342, "lat": 40.4101687, "lon": -3.7090453, "tags": {"addr:city": "Madrid", "addr:housenumber": "4", "addr:postcode": "28005", "addr:street": "Calle de L\u00f3pez Silva", "amenity": "bar", "contact:phone": "+34620581291", "name": "La Flamenca 3.0", "old_name": "La Flamenca", "wheelchair": "no"}}, {"type": "node", "id": 3250253216, "lat": 40.4105601, "lon": -3.7076377}, {"type": "node", "id": 3250253219, "lat": 40.4105813, "lon": -3.7076275}, {"type": "node", "id": 3250253268, "lat": 40.4119519, "lon": -3.7074917}, {"type": "node", "id": 3250253273, "lat": 40.4119697, "lon": -3.7074916}, {"type": "node", "id": 3250253285, "lat": 40.4120635, "lon": -3.7075359}, {"type": "node", "id": 3250280709, "lat": 40.4115709, "lon": -3.7071538}, {"type": "node", "id": 3250280710, "lat": 40.4115892, "lon": -3.7071942}, {"type": "node", "id": 3250280711, "lat": 40.4116051, "lon": -3.707034}, {"type": "node", "id": 3250280718, "lat": 40.411749, "lon": -3.707065}, {"type": "node", "id": 3255241665, "lat": 40.4097192, "lon": -3.6930722, "tags": {"amenity": "cafe", "name": "Bar Sahoima"}}, {"type": "node", "id": 3267122624, "lat": 40.4114195, "lon": -3.7080763, "tags": {"amenity": "restaurant", "brand": "100 Montaditos", "brand:wikidata": "Q8355805", "brand:wikipedia": "en:Cervecer\u00eda 100 Montaditos", "cuisine": "sandwich", "name": "100 Montaditos"}}, {"type": "node", "id": 3268259831, "lat": 40.4081204, "lon": -3.6980296, "tags": {"addr:city": "Madrid", "addr:country": "ES", "addr:housenumber": "23", "addr:postcode": "28012", "addr:street": "Calle de Argumosa", "amenity": "pub", "cuisine": "spanish;breakfast;tapas", "internet_access": "wlan", "name": "Bar Revuelta", "name:en": "Bar Revuelta", "name:es": "Bar Revuelta"}}, {"type": "node", "id": 3275112454, "lat": 40.4107933, "lon": -3.7037128, "tags": {"addr:city": "Madrid", "addr:country": "ES", "addr:housenumber": "3", "addr:postcode": "28012", "addr:street": "Traves\u00eda de la Comadre", "shop": "confectionery"}}, {"type": "node", "id": 3275117056, "lat": 40.4095063, "lon": -3.7041665, "tags": {"addr:city": "Madrid", "addr:housenumber": "4", "addr:postcode": "28012", "addr:street": "Calle de los Cabestreros", "amenity": "restaurant", "cuisine": "mexican", "name": "Antigua Taquer\u00eda", "source": "living there"}}, {"type": "node", "id": 3275120592, "lat": 40.4079325, "lon": -3.7041341, "tags": {"addr:city": "Madrid", "addr:housenumber": "39", "addr:postcode": "28012", "addr:street": "Calle de Embajadores", "amenity": "cafe", "cuisine": "spanish", "internet_access": "no", "name": "Peyma", "source": "survey"}}, {"type": "node", "id": 3275123668, "lat": 40.4062876, "lon": -3.7069104, "tags": {"addr:city": "Madrid", "addr:housenumber": "39", "addr:postcode": "28005", "addr:street": "Ribera de Curtidores", "name": "Taste of America", "opening_hours": "Mo-Sa 11:00-14:30, Mo-Sa 17:00-21:00, Su 11:00-15:00", "shop": "convenience", "source": "living there", "wheelchair": "limited"}}, {"type": "node", "id": 3275176089, "lat": 40.4072863, "lon": -3.7010846, "tags": {"addr:city": "Madrid", "addr:housenumber": "82", "addr:postcode": "28012", "addr:street": "Calle del Amparo", "amenity": "restaurant", "contact:facebook": "https://es-es.facebook.com/LosChuchisBar/", "cuisine": "international", "name": "Los Chuchis"}}, {"type": "node", "id": 3283878762, "lat": 40.4121787, "lon": -3.7053915, "tags": {"addr:city": "Madrid", "addr:country": "ES", "addr:housename": "Kiosko", "addr:housenumber": "5", "addr:postcode": "28012", "addr:street": "Plaza de Tirso de Molina", "shop": "kiosk"}}, {"type": "node", "id": 3283878768, "lat": 40.4089057, "lon": -3.701301, "tags": {"addr:city": "Madrid", "addr:country": "ES", "addr:postcode": "28012", "addr:street": "Plaza Lavapi\u00e9s", "shop": "kiosk"}}, {"type": "node", "id": 3365559335, "lat": 40.4106286, "lon": -3.6993993, "tags": {"addr:city": "Madrid", "addr:housenumber": "15", "addr:postcode": "28012", "addr:street": "Calle de la Torrecilla del Leal", "amenity": "bar", "contact:facebook": "https://www.facebook.com/elgatoverdelavapies/info?tab=overview", "name": "El Gato Verde", "phone": "+34 693 82 98 97"}}, {"type": "node", "id": 3365559336, "lat": 40.4105561, "lon": -3.6994856, "tags": {"addr:city": "Madrid", "addr:housenumber": "20", "addr:postcode": "28012", "addr:street": "Calle de la Torrecilla del Leal", "amenity": "bar", "name": "O Can Sentado"}}, {"type": "node", "id": 3423234234, "lat": 40.4048174, "lon": -3.7059726}, {"type": "node", "id": 3423234236, "lat": 40.4048605, "lon": -3.7059881}, {"type": "node", "id": 3423234241, "lat": 40.4049472, "lon": -3.706019}, {"type": "node", "id": 3423261325, "lat": 40.4107017, "lon": -3.706795, "tags": {"amenity": "pub", "name": "La Lata de Cascorro", "old_name": "Mes\u00f3n Cascorro"}}, {"type": "node", "id": 3427481353, "lat": 40.4087136, "lon": -3.7022259, "tags": {"addr:city": "Madrid", "addr:housenumber": "61", "addr:postcode": "28012", "addr:street": "Calle del Amparo", "amenity": "restaurant", "cuisine": "senegalese", "name": "Dakar"}}, {"type": "node", "id": 3428157024, "lat": 40.4073934, "lon": -3.7038731, "tags": {"shop": "kiosk"}}, {"type": "node", "id": 3428158019, "lat": 40.4111366, "lon": -3.7044463, "tags": {"addr:city": "Madrid", "addr:street": "Calle de la Esgrima", "shop": "seafood"}}, {"type": "node", "id": 3428158795, "lat": 40.4110713, "lon": -3.7045797, "tags": {"addr:city": "Madrid", "addr:street": "Calle de la Esgrima", "shop": "butcher", "wheelchair": "no"}}, {"type": "node", "id": 3428593590, "lat": 40.4123902, "lon": -3.703518}, {"type": "node", "id": 3542906085, "lat": 40.404511, "lon": -3.7023822, "tags": {"amenity": "pub", "name": "Cervecer\u00eda El Portillo"}}, {"type": "node", "id": 3564078343, "lat": 40.4106882, "lon": -3.7084933, "tags": {"addr:city": "Madrid", "addr:country": "ES", "addr:housenumber": "18", "addr:postcode": "28005", "addr:street": "Calle de la Ruda", "amenity": "pub", "name": "Bar La testarruda"}}, {"type": "node", "id": 3607622661, "lat": 40.4098926, "lon": -3.7025057, "tags": {"addr:city": "Madrid", "addr:housenumber": "40", "addr:postcode": "28012", "addr:street": "Calle de Lavapi\u00e9s", "amenity": "restaurant", "contact:phone": "+34 914684239", "cuisine": "indian", "name": "Shapla", "source": "survey", "website": "http://www.shaplaindianrestaurant.com"}}, {"type": "node", "id": 3614543003, "lat": 40.4114464, "lon": -3.7089162, "tags": {"addr:city": "Madrid", "addr:country": "ES", "addr:housenumber": "2", "addr:postcode": "28005", "addr:street": "Plaza de la Cebada", "amenity": "bar", "contact:phone": "(+34) 91 365 12 67", "name": "La Lina", "old_name": "Caf\u00e9 La Tourn\u00e9e"}}, {"type": "node", "id": 3614543683, "lat": 40.4131117, "lon": -3.7075774}, {"type": "node", "id": 3646061906, "lat": 40.407486, "lon": -3.7041481, "tags": {"amenity": "bar", "name": "El rinc\u00f3n guay"}}, {"type": "node", "id": 3646319859, "lat": 40.4092523, "lon": -3.7010949, "tags": {"addr:city": "Madrid", "addr:country": "ES", "addr:housenumber": "52", "addr:postcode": "28012", "addr:street": "Calle del Ave Mar\u00eda", "amenity": "bar", "name": "El Quijote"}}, {"type": "node", "id": 3646338430, "lat": 40.4108754, "lon": -3.7017624, "tags": {"addr:city": "Madrid", "addr:country": "ES", "addr:housenumber": "22", "addr:postcode": "28012", "addr:street": "Calle del Olivar", "amenity": "bar", "entrance": "main", "name": "Attack Bar", "website": "https://attack-bar.com/"}}, {"type": "node", "id": 3646383325, "lat": 40.4111151, "lon": -3.7028759, "tags": {"addr:city": "Madrid", "addr:country": "ES", "addr:housenumber": "16", "addr:postcode": "28012", "addr:street": "Calle de Lavapi\u00e9s", "amenity": "restaurant", "name": "Mad Mad Vegan", "phone": "+34 910 665 299"}}, {"type": "node", "id": 3649704430, "lat": 40.4052363, "lon": -3.7012806, "tags": {"amenity": "restaurant", "brand": "Foster's Hollywood", "brand:wikidata": "Q5864366", "brand:wikipedia": "es:Foster's Hollywood", "cuisine": "american", "name": "Foster's Hollywood", "opening_hours": "Mo-Su 13:00-17:00, Fr-Sa 20:30-01:00; Su-Th 20:30-00:00"}}, {"type": "node", "id": 3654613947, "lat": 40.4120091, "lon": -3.699363}, {"type": "node", "id": 3654613948, "lat": 40.4120144, "lon": -3.6993637}, {"type": "node", "id": 3654641203, "lat": 40.4078312, "lon": -3.6974766, "tags": {"brand": "Ahorram\u00e1s", "brand:wikidata": "Q58221883", "name": "Ahorram\u00e1s", "shop": "supermarket"}}, {"type": "node", "id": 3654641204, "lat": 40.4078483, "lon": -3.6975867, "tags": {"brand": "Dia", "brand:wikidata": "Q925132", "brand:wikipedia": "es:DIA (supermercados)", "name": "Dia", "shop": "supermarket"}}, {"type": "node", "id": 3656034273, "lat": 40.4131734, "lon": -3.7010166, "tags": {"addr:city": "Madrid", "addr:country": "ES", "addr:housenumber": "34", "addr:postcode": "28012", "addr:street": "Calle de Atocha"}}, {"type": "node", "id": 3658075038, "lat": 40.4090234, "lon": -3.7050256, "tags": {"addr:city": "Madrid", "addr:country": "ES", "addr:housenumber": "15", "addr:postcode": "28012", "addr:street": "Calle de los Cabestreros", "amenity": "bar", "name": "Label Bar"}}, {"type": "node", "id": 3671513868, "lat": 40.4122392, "lon": -3.699483}, {"type": "node", "id": 3671513869, "lat": 40.412279, "lon": -3.6996452, "tags": {"addr:city": "Madrid", "addr:country": "ES", "addr:postcode": "28012", "addr:street": "Plazuela de Ant\u00f3n Mart\u00edn", "amenity": "bar", "contact:facebook": "https://es-es.facebook.com/pages/Bar-La-Covadonga/176333999058231", "name": "La Covadonga"}}, {"type": "node", "id": 3671513870, "lat": 40.4115049, "lon": -3.6990954, "tags": {"addr:city": "Madrid", "addr:housenumber": "14", "addr:postcode": "28012", "addr:street": "Calle de Santa Isabel", "amenity": "bar", "contact:facebook": "https://es-es.facebook.com/TerralBarRestauranteImaginarioDeArtelibre", "contact:phone": "+34 914 68 61 39", "name": "Terral"}}, {"type": "node", "id": 3671513873, "lat": 40.4119276, "lon": -3.7059123}, {"type": "node", "id": 3671513874, "lat": 40.4121546, "lon": -3.7043948}, {"type": "node", "id": 3682315226, "lat": 40.4131738, "lon": -3.706326, "tags": {"addr:city": "Madrid", "addr:housenumber": "5", "addr:postcode": "28012", "addr:street": "Calle del Duque de Rivas", "amenity": "restaurant", "contact:phone": "+34 91 0619855", "contact:website": "https://www.facebook.com/elbusgastrobar", "name": "el b_US"}}, {"type": "node", "id": 3683540617, "lat": 40.4111418, "lon": -3.7071195, "tags": {"addr:city": "Madrid", "addr:postcode": "28012", "addr:street": "Plaza de Cascorro", "amenity": "restaurant", "cuisine": "mexican", "name": "Sahuaro", "old_name": "Bombay Blue", "phone": "+34 914 29 64 49", "website": "http://sahuaromadrid.com/"}}, {"type": "node", "id": 3683540618, "lat": 40.4105681, "lon": -3.7071593, "tags": {"addr:city": "Madrid", "addr:postcode": "28012", "addr:street": "Plaza de Cascorro", "amenity": "bar", "name": "Cervecer\u00eda Antigua del Cascorro"}}, {"type": "node", "id": 3695391151, "lat": 40.4090226, "lon": -3.6953055, "tags": {"addr:city": "Madrid", "addr:housenumber": "50", "addr:postcode": "28012", "addr:street": "Calle de Santa Isabel", "amenity": "restaurant", "contact:phone": "+34 91 5272269", "contact:website": "http://www.xn--lacaaonline-4db.es/", "name": "Laca\u00f1a", "wheelchair": "no"}}, {"type": "node", "id": 3695391152, "lat": 40.4095839, "lon": -3.6958949, "tags": {"addr:city": "Madrid", "addr:housenumber": "47", "addr:postcode": "28012", "addr:street": "Calle de Santa Isabel", "amenity": "restaurant", "contact:phone": "+34 914 67 48 85", "cuisine": "regional", "name": "Alces", "wheelchair": "limited"}}, {"type": "node", "id": 3695391153, "lat": 40.4096288, "lon": -3.6959942, "tags": {"addr:city": "Madrid", "addr:housenumber": "47", "addr:postcode": "28012", "addr:street": "Calle de Santa Isabel", "amenity": "bar", "name": "K\u00e1rdamom", "wheelchair": "yes"}}, {"type": "node", "id": 3695444229, "lat": 40.4097575, "lon": -3.6964233, "tags": {"addr:city": "Madrid", "addr:housenumber": "45", "addr:postcode": "28012", "addr:street": "Calle de Santa Isabel", "amenity": "bar", "contact:phone": "+34 917 528 625", "contact:website": "http://www.oliveto.es/", "name": "Oliveto"}}, {"type": "node", "id": 3695444230, "lat": 40.4100302, "lon": -3.6969732, "tags": {"addr:city": "Madrid", "addr:housenumber": "35", "addr:postcode": "28012", "addr:street": "Calle de Santa Isabel", "amenity": "bar", "contact:facebook": "https://es-es.facebook.com/pages/Taberna-El-Sur/160484570662848", "name": "M\u00e1s al Sur"}}, {"type": "node", "id": 3695444231, "lat": 40.4101947, "lon": -3.6972819, "tags": {"addr:city": "Madrid", "addr:housenumber": "27", "addr:postcode": "28012", "addr:street": "Calle de Santa Isabel", "amenity": "restaurant", "contact:phone": "+34 915271126", "contact:website": "https://sites.google.com/site/tabernatomatesverdes/", "name": "Tomates Verdes Fritos"}}, {"type": "node", "id": 3695444232, "lat": 40.4106112, "lon": -3.6979039, "tags": {"addr:city": "Madrid", "addr:housenumber": "17", "addr:postcode": "28012", "addr:street": "Calle de Santa Isabel", "amenity": "restaurant", "contact:facebook": "https://www.facebook.com/pages/La-Musa-de-Espronceda/183661231649836", "name": "La Musa de Espronceda", "wheelchair": "limited"}}, {"type": "node", "id": 3695444233, "lat": 40.4107039, "lon": -3.6980387, "tags": {"addr:city": "Madrid", "addr:housenumber": "15", "addr:postcode": "28012", "addr:street": "Calle de Santa Isabel", "amenity": "bar", "contact:facebook": "https://www.facebook.com/barbenteveo", "contact:phone": "+34 911 39 85 03", "name": "Bar Benteveo", "wheelchair": "no"}}, {"type": "node", "id": 3695444235, "lat": 40.4116328, "lon": -3.6992032, "tags": {"addr:city": "Madrid", "addr:housenumber": "12", "addr:postcode": "28012", "addr:street": "Calle de Santa Isabel", "amenity": "bar", "contact:phone": "+34 667 96 94 39", "name": "La Pe\u00f1a"}}, {"type": "node", "id": 3716657569, "lat": 40.4126561, "lon": -3.7038238, "tags": {"addr:city": "Madrid", "addr:street": "Calle Doctor Cortezo", "amenity": "restaurant", "cuisine": "spanish", "name": "Casa Granada"}}, {"type": "node", "id": 3771871138, "lat": 40.4131652, "lon": -3.7009967}, {"type": "node", "id": 3771871139, "lat": 40.4130948, "lon": -3.7010045}, {"type": "node", "id": 3771871140, "lat": 40.4130571, "lon": -3.7009016}, {"type": "node", "id": 3771871142, "lat": 40.4127402, "lon": -3.7009327}, {"type": "node", "id": 3771871143, "lat": 40.4127438, "lon": -3.7009925}, {"type": "node", "id": 3771871144, "lat": 40.4129125, "lon": -3.7009721}, {"type": "node", "id": 3771871145, "lat": 40.4129171, "lon": -3.7012193}, {"type": "node", "id": 3771872417, "lat": 40.4126084, "lon": -3.6998691}, {"type": "node", "id": 3771872669, "lat": 40.4130061, "lon": -3.7012011}, {"type": "node", "id": 3779498165, "lat": 40.4124328, "lon": -3.6979792}, {"type": "node", "id": 3779498181, "lat": 40.4123277, "lon": -3.6985129}, {"type": "node", "id": 3779498182, "lat": 40.4123098, "lon": -3.698493}, {"type": "node", "id": 3779498183, "lat": 40.4123015, "lon": -3.6982394}, {"type": "node", "id": 3779498184, "lat": 40.412305, "lon": -3.6980167}, {"type": "node", "id": 3779498187, "lat": 40.4125344, "lon": -3.6979461}, {"type": "node", "id": 3779509984, "lat": 40.411995, "lon": -3.6994328}, {"type": "node", "id": 3779509986, "lat": 40.4121598, "lon": -3.6994099}, {"type": "node", "id": 3779509988, "lat": 40.4122941, "lon": -3.6994947}, {"type": "node", "id": 3779509989, "lat": 40.4122908, "lon": -3.699394}, {"type": "node", "id": 3779509990, "lat": 40.4121975, "lon": -3.699396}, {"type": "node", "id": 3779509991, "lat": 40.4121944, "lon": -3.6993677}, {"type": "node", "id": 3779509992, "lat": 40.4121571, "lon": -3.6993713}, {"type": "node", "id": 3783519534, "lat": 40.4069045, "lon": -3.7079727, "tags": {"amenity": "bar", "name": "Skinazo"}}, {"type": "node", "id": 3783521458, "lat": 40.4080756, "lon": -3.7008754, "tags": {"addr:city": "Madrid", "addr:country": "ES", "addr:housenumber": "4", "addr:postcode": "28012", "addr:street": "Calle de Valencia", "amenity": "restaurant", "name": "Porto Mar\u00edn"}}, {"type": "node", "id": 3791776563, "lat": 40.4123217, "lon": -3.7000793}, {"type": "node", "id": 3791776571, "lat": 40.4119252, "lon": -3.6997189}, {"type": "node", "id": 3791776572, "lat": 40.4119433, "lon": -3.6995508}, {"type": "node", "id": 3791776573, "lat": 40.411823, "lon": -3.6997045}, {"type": "node", "id": 3791776574, "lat": 40.41182, "lon": -3.6995429}, {"type": "node", "id": 3791776575, "lat": 40.4118208, "lon": -3.6995351}, {"type": "node", "id": 3791776576, "lat": 40.4118247, "lon": -3.6995288}, {"type": "node", "id": 3791776577, "lat": 40.4118307, "lon": -3.6995282}, {"type": "node", "id": 3791776584, "lat": 40.4119119, "lon": -3.699717}, {"type": "node", "id": 3793321364, "lat": 40.4117692, "lon": -3.6996342}, {"type": "node", "id": 3794195960, "lat": 40.4121627, "lon": -3.7004808}, {"type": "node", "id": 3794195961, "lat": 40.412328, "lon": -3.7004871}, {"type": "node", "id": 3794195964, "lat": 40.4123012, "lon": -3.7004857}, {"type": "node", "id": 3794200501, "lat": 40.4121401, "lon": -3.7010637}, {"type": "node", "id": 3794200502, "lat": 40.4123122, "lon": -3.7010667}, {"type": "node", "id": 3794200510, "lat": 40.4122298, "lon": -3.7010666}, {"type": "node", "id": 3794200518, "lat": 40.4121283, "lon": -3.7015036}, {"type": "node", "id": 3794200519, "lat": 40.4123035, "lon": -3.7015049}, {"type": "node", "id": 3794200522, "lat": 40.4121651, "lon": -3.701503}, {"type": "node", "id": 3794200525, "lat": 40.4122026, "lon": -3.7015042}, {"type": "node", "id": 3794201623, "lat": 40.412139, "lon": -3.7011413}, {"type": "node", "id": 3798795734, "lat": 40.4119146, "lon": -3.7059582}, {"type": "node", "id": 3800703701, "lat": 40.4113088, "lon": -3.7097735, "tags": {"entrance": "main"}}, {"type": "node", "id": 3800707168, "lat": 40.4108445, "lon": -3.7095432, "tags": {"entrance": "yes"}}, {"type": "node", "id": 3800707169, "lat": 40.4108986, "lon": -3.7100681, "tags": {"entrance": "yes"}}, {"type": "node", "id": 3800707170, "lat": 40.411282, "lon": -3.7103862}, {"type": "node", "id": 3800707171, "lat": 40.4112879, "lon": -3.7103517, "tags": {"entrance": "main"}}, {"type": "node", "id": 3800707172, "lat": 40.4112926, "lon": -3.7103244}, {"type": "node", "id": 3800707173, "lat": 40.4113044, "lon": -3.7102902}, {"type": "node", "id": 3800707174, "lat": 40.4113083, "lon": -3.7103293}, {"type": "node", "id": 3800707175, "lat": 40.4113309, "lon": -3.7104021}, {"type": "node", "id": 3800707176, "lat": 40.4113365, "lon": -3.7102845}, {"type": "node", "id": 3800707177, "lat": 40.4113426, "lon": -3.7103352}, {"type": "node", "id": 3801339827, "lat": 40.4114931, "lon": -3.7053176}, {"type": "node", "id": 3801348257, "lat": 40.4118239, "lon": -3.704959}, {"type": "node", "id": 3801348856, "lat": 40.4115214, "lon": -3.7051736}, {"type": "node", "id": 3801349157, "lat": 40.4114824, "lon": -3.7053114}, {"type": "node", "id": 3802033569, "lat": 40.4063389, "lon": -3.7066962, "tags": {"amenity": "bar", "name": "Lusi"}}, {"type": "node", "id": 3811073759, "lat": 40.4110055, "lon": -3.6985248}, {"type": "node", "id": 3811073760, "lat": 40.4110073, "lon": -3.6985038}, {"type": "node", "id": 3830959657, "lat": 40.4057284, "lon": -3.6994297, "tags": {"brand": "Lidl", "brand:wikidata": "Q151954", "brand:wikipedia": "en:Lidl", "name": "Lidl", "opening_hours": "Mo-Sa 09:00-23:00; Su 10:00-15:00", "shop": "supermarket", "wheelchair": "yes"}}, {"type": "node", "id": 3907346126, "lat": 40.4108669, "lon": -3.709761}, {"type": "node", "id": 3966676550, "lat": 40.405256, "lon": -3.7061304}, {"type": "node", "id": 3966676551, "lat": 40.405283, "lon": -3.705807}, {"type": "node", "id": 3976330522, "lat": 40.4123063, "lon": -3.6979541}, {"type": "node", "id": 3976330523, "lat": 40.4071597, "lon": -3.6942182, "tags": {"addr:city": "Madrid", "addr:street": "Ronda de Atocha", "amenity": "restaurant", "cuisine": "regional", "name": "Olivo"}}, {"type": "node", "id": 3981547226, "lat": 40.4122071, "lon": -3.6982208, "tags": {"addr:city": "Madrid", "addr:housenumber": "2", "addr:postcode": "28014", "addr:street": "Calle de Morat\u00edn", "amenity": "restaurant", "contact:phone": "+34 91 429 02 45", "contact:website": "http://www.tabernaloschanquetes.es/", "cuisine": "regional", "name": "Taberna Los Chanquetes"}}, {"type": "node", "id": 3981547227, "lat": 40.4107889, "lon": -3.6993663, "tags": {"addr:city": "Madrid", "addr:housenumber": "15", "addr:postcode": "28012", "addr:street": "Calle de los Tres Peces", "amenity": "bar", "contact:facebook": "https://es-es.facebook.com/CasaPachuco/info/?tab=overview", "name": "Casa Pachuco"}}, {"type": "node", "id": 4005582086, "lat": 40.4065284, "lon": -3.7013382, "tags": {"amenity": "bar", "name": "La Mancha en Madrid"}}, {"type": "node", "id": 4005582087, "lat": 40.4064716, "lon": -3.7013774, "tags": {"amenity": "pub", "name": "Alabanda"}}, {"type": "node", "id": 4171725696, "lat": 40.4095504, "lon": -3.6938311}, {"type": "node", "id": 4171725697, "lat": 40.4093468, "lon": -3.6930678, "tags": {"addr:city": "Madrid", "addr:housenumber": "118", "addr:postcode": "28012", "addr:street": "Calle de Atocha", "amenity": "fast_food", "cuisine": "burger", "name": "Non Stop Burger"}}, {"type": "node", "id": 4171725698, "lat": 40.4092939, "lon": -3.6929476, "tags": {"addr:city": "Madrid", "addr:housenumber": "118", "addr:postcode": "28012", "addr:street": "Calle de Atocha", "alt_name": "Kentucky Fried Chicken", "amenity": "fast_food", "brand": "KFC", "brand:wikidata": "Q524757", "brand:wikipedia": "en:KFC", "contact:phone": "+34 915393163", "contact:website": "https://www.kfc.es/", "cuisine": "chicken", "name": "KFC", "takeaway": "yes"}}, {"type": "node", "id": 4171728988, "lat": 40.4091894, "lon": -3.6927097, "tags": {"addr:city": "Madrid", "addr:housenumber": "120", "addr:postcode": "28012", "addr:street": "Calle de Atocha", "amenity": "restaurant", "contact:website": "http://www.restaurantecasalucianomadrid.es/", "cuisine": "regional", "name": "Casa Luciano"}}, {"type": "node", "id": 4213760493, "lat": 40.4118347, "lon": -3.7078826, "tags": {"addr:city": "Madrid", "addr:housenumber": "51", "addr:postcode": "28005", "addr:street": "Calle de Toledo", "amenity": "restaurant", "contact:facebook": "https://www.facebook.com/GrillStop/", "contact:phone": "+34 650 86 13 44", "cuisine": "burger", "name": "Grill Stop"}}, {"type": "node", "id": 4237275474, "lat": 40.4101072, "lon": -3.7092689, "tags": {"amenity": "bar", "name": "La Paloma"}}, {"type": "node", "id": 4241029920, "lat": 40.4096112, "lon": -3.7060538, "tags": {"name": "\u00a1Ay Madre! La Fruta", "shop": "greengrocer"}}, {"type": "node", "id": 4333420091, "lat": 40.4061361, "lon": -3.7013996, "tags": {"addr:city": "Madrid", "addr:housenumber": "81", "addr:postcode": "28012", "addr:street": "Calle del Mes\u00f3n de Paredes", "amenity": "bar", "contact:facebook": "https://es-es.facebook.com/Loukanikos-Lavapi%C3%A9s-359201754182338/", "cuisine": "diner;burger", "diet:vegan": "yes", "diet:vegetarian": "only", "name": "Loukanikos", "opening_hours": "Mo-Su 19:00-24:00"}}, {"type": "node", "id": 4333435389, "lat": 40.4054878, "lon": -3.7014668, "tags": {"amenity": "bar", "name": "Borodin"}}, {"type": "node", "id": 4340466674, "lat": 40.4099742, "lon": -3.7022819, "tags": {"addr:city": "Madrid", "addr:housenumber": "31", "addr:postcode": "28012", "addr:street": "Calle de Lavapi\u00e9s", "name": "Sani Sapori", "opening_hours": "Th-Fr 10:00-23:00; Sa 10:00-00:00; Su 10:30-22:30; Mo 10:00-22:00; We 15:30-22:30", "shop": "ice_cream", "website": "http://www.sanisapori.es/"}}, {"type": "node", "id": 4346966690, "lat": 40.4080984, "lon": -3.7108349, "tags": {"addr:city": "Madrid", "addr:housenumber": "111-113", "addr:postcode": "28005", "addr:street": "Calle de Toledo", "amenity": "cafe", "name": "Cafeter\u00eda"}}, {"type": "node", "id": 4347008641, "lat": 40.4077491, "lon": -3.7112898, "tags": {"amenity": "bar", "name": "Los Caracoles"}}, {"type": "node", "id": 4366616389, "lat": 40.4098898, "lon": -3.7074762, "tags": {"name": "O'Rey", "shop": "pastry"}}, {"type": "node", "id": 4384317854, "lat": 40.4128105, "lon": -3.7037991, "tags": {"amenity": "restaurant", "name": "Nuevo Apolo"}}, {"type": "node", "id": 4384317860, "lat": 40.412781, "lon": -3.7039784, "tags": {"shop": "convenience"}}, {"type": "node", "id": 4387730200, "lat": 40.4125391, "lon": -3.702931, "tags": {"name": "Ya", "shop": "supermarket"}}, {"type": "node", "id": 4387730201, "lat": 40.4127689, "lon": -3.7034366, "tags": {"addr:city": "Madrid", "addr:country": "ES", "addr:housenumber": "20", "addr:postcode": "28012", "addr:street": "Calle de Relatores", "amenity": "restaurant", "name": "Yatiri"}}, {"type": "node", "id": 4390454893, "lat": 40.4121759, "lon": -3.7042894}, {"type": "node", "id": 4401968547, "lat": 40.4126847, "lon": -3.6998084}, {"type": "node", "id": 4434644593, "lat": 40.4060339, "lon": -3.698407, "tags": {"name": "Ib\u00e9ricos Alomar", "name:es": "Ib\u00e9ricos Alomar", "opening_hours": "Mo-Fr 09:15-15:00,17:30-21:00; Sa 10:00-15:00", "shop": "butcher"}}, {"type": "node", "id": 4434647992, "lat": 40.4059339, "lon": -3.6987538, "tags": {"amenity": "cafe", "name": "Chapiteau", "name:es": "Chapiteau"}}, {"type": "node", "id": 4448919991, "lat": 40.4076425, "lon": -3.6985095, "tags": {"addr:city": "Madrid", "addr:country": "ES", "addr:housenumber": "24", "addr:postcode": "28012", "addr:street": "Calle de la Sombrerer\u00eda", "amenity": "cafe", "cuisine": "tea;deli", "email": "info@magiayte.com", "internet_access": "wlan", "name": "Par\u00e9ntesis de olvido - Magia y T\u00e9", "name:en": "Par\u00e9ntesis de olvido - Magic and Tea", "name:es": "Par\u00e9ntesis de olvido - Magia y T\u00e9", "opening_hours": "Mo-Sa 10:30-14:30, 17:30-21:00", "phone": "+34 915277952", "website": "http://www.magiayte.com"}}, {"type": "node", "id": 4457143689, "lat": 40.4100811, "lon": -3.7074737, "tags": {"amenity": "pub", "name": "Bar La Ribera"}}, {"type": "node", "id": 4463481192, "lat": 40.4087908, "lon": -3.6927233, "tags": {"amenity": "fast_food", "internet_access": "wlan", "name": "Jamontanera", "shop": "butcher"}}, {"type": "node", "id": 4534853092, "lat": 40.4117321, "lon": -3.6984768, "tags": {"addr:city": "Madrid", "addr:country": "ES", "addr:housenumber": "5", "addr:postcode": "28012", "addr:street": "Calle de Santa Isabel", "amenity": "restaurant", "cuisine": "italian_pizza", "name": "La Saletta", "name:es": "La Saletta", "website": "https://www.lasalettafiaschetteria.com/"}}, {"type": "node", "id": 4543601593, "lat": 40.4080736, "lon": -3.7019252, "tags": {"amenity": "cafe", "name": "Pum Pum caf\u00e9", "name:es": "Pum Pum caf\u00e9"}}, {"type": "node", "id": 4546512977, "lat": 40.4093101, "lon": -3.6998817, "tags": {"addr:city": "Madrid", "addr:housenumber": "42", "addr:postcode": "28012", "addr:street": "Calle de Buenavista", "amenity": "restaurant", "cuisine": "burger", "diet:gluten_free": "yes", "diet:vegan": "only", "name": "La Oveja Negra - Taberna Vegana", "opening_hours": "Th-Sa 13:00-00:00; PH 13:00-18:00; We 13:00-17:30", "phone": "+34 655 33 64 74", "service_times": "13:30-16:30, 20:00-23:30", "smoking": "no", "website": "https://ovejavegana.com/"}}, {"type": "node", "id": 4605881300, "lat": 40.4084567, "lon": -3.7000624, "tags": {"amenity": "bar", "name": "Maldito Querer", "name:es": "Maldito Querer", "survey:date": "2022-07-23"}}, {"type": "node", "id": 4606174292, "lat": 40.4081673, "lon": -3.6998212, "tags": {"amenity": "restaurant", "name": "Casa de Asturias", "name:es": "Casa de Asturias"}}, {"type": "node", "id": 4606174293, "lat": 40.4081342, "lon": -3.6995451, "tags": {"amenity": "restaurant", "name": "Noche Blanca", "name:es": "Noche Blanca"}}, {"type": "node", "id": 4606349889, "lat": 40.408258, "lon": -3.6989204, "tags": {"name": "Etiqueta Negra", "name:es": "Fern\u00e1ndez & Gal\u00e1n", "shop": "butcher", "survey:date": "2022-07-23"}}, {"type": "node", "id": 4620140468, "lat": 40.4100791, "lon": -3.7026858, "tags": {"addr:city": "Madrid", "addr:housenumber": "34", "addr:postcode": "28012", "addr:street": "Calle de Lavapi\u00e9s", "amenity": "restaurant", "contact:phone": "+34 91 527 72 40", "contact:website": "https://sonaliindianrestaurant.com/", "cuisine": "indian", "name": "Sonali"}}, {"type": "node", "id": 4676173891, "lat": 40.4057319, "lon": -3.7005902, "tags": {"addr:city": "Madrid", "addr:country": "ES", "addr:housenumber": "8", "addr:postcode": "28012", "addr:street": "Ronda de Valencia", "amenity": "restaurant", "name": "Vips-Ginos", "old_name": "Tornalmoya", "wheelchair": "yes"}}, {"type": "node", "id": 4676192489, "lat": 40.405511, "lon": -3.7013991, "tags": {"name": "Alimentaci\u00f3n", "name:es": "Alimentaci\u00f3n", "shop": "convenience"}}, {"type": "node", "id": 4676999583, "lat": 40.4075543, "lon": -3.7099197, "tags": {"addr:city": "Madrid", "addr:housenumber": "11", "addr:postcode": "28005", "addr:street": "Calle Capit\u00e1n Salazar Mart\u00ednez", "amenity": "bar", "name": "Miami Hookah", "old_name": "El Vodevil;El Reloj de Sol"}}, {"type": "node", "id": 4676999584, "lat": 40.4075938, "lon": -3.7096735, "tags": {"addr:city": "Madrid", "addr:housenumber": "20", "addr:postcode": "28005", "addr:street": "Calle de la Arganzuela", "amenity": "bar", "contact:facebook": "https://www.facebook.com/Ataca-Paca-903291406452818/?rf=255647654609435", "name": "Ataca Paca"}}, {"type": "node", "id": 4677015749, "lat": 40.408682, "lon": -3.7103809, "tags": {"addr:city": "Madrid", "addr:housenumber": "107", "addr:postcode": "28005", "addr:street": "Calle de Toledo", "amenity": "bar", "name": "La Fuentecilla"}}, {"type": "node", "id": 4677015751, "lat": 40.4086148, "lon": -3.7104343, "tags": {"addr:city": "Madrid", "addr:housenumber": "109", "addr:postcode": "28005", "addr:street": "Calle de Toledo", "amenity": "fast_food", "cuisine": "kebab", "name": "Istanbul"}}, {"type": "node", "id": 4677015752, "lat": 40.4085945, "lon": -3.71045, "tags": {"addr:city": "Madrid", "addr:housenumber": "109", "addr:postcode": "28005", "addr:street": "Calle de Toledo", "shop": "convenience"}}, {"type": "node", "id": 4677015754, "lat": 40.4085393, "lon": -3.710493, "tags": {"addr:city": "Madrid", "addr:housenumber": "109", "addr:postcode": "28005", "addr:street": "Calle de Toledo", "amenity": "bar", "name": "La Paloma"}}, {"type": "node", "id": 4677015756, "lat": 40.4079069, "lon": -3.7109661, "tags": {"addr:city": "Madrid", "addr:housenumber": "115", "addr:postcode": "28005", "addr:street": "Calle de Toledo", "amenity": "restaurant", "cuisine": "chinese", "name": "Fan Hua"}}, {"type": "node", "id": 4677022770, "lat": 40.4078502, "lon": -3.7097974, "tags": {"addr:city": "Madrid", "addr:housenumber": "16", "addr:postcode": "28005", "addr:street": "Calle de la Arganzuela", "shop": "convenience"}}, {"type": "node", "id": 4677074988, "lat": 40.407784, "lon": -3.7110181, "tags": {"addr:city": "Madrid", "addr:housenumber": "117", "addr:postcode": "28005", "addr:street": "Calle de Toledo", "shop": "convenience"}}, {"type": "node", "id": 4678873297, "lat": 40.4122882, "lon": -3.6992894}, {"type": "node", "id": 4678874495, "lat": 40.4124114, "lon": -3.6990254, "tags": {"amenity": "restaurant", "name": "R\u00edas Altas"}}, {"type": "node", "id": 4678894690, "lat": 40.4123274, "lon": -3.6986907, "tags": {"amenity": "restaurant", "cuisine": "spanish;tapas", "name": "Stop Madrid", "name:en": "Stop Madrid"}}, {"type": "node", "id": 4678894691, "lat": 40.4119417, "lon": -3.6985447, "tags": {"name": "Pannus", "name:es": "Pannus", "shop": "bakery"}}, {"type": "node", "id": 4678894889, "lat": 40.4125494, "lon": -3.6993133}, {"type": "node", "id": 4680188691, "lat": 40.4112625, "lon": -3.6967156, "tags": {"name": "Panaria", "name:es": "Panaria", "shop": "bakery", "toilets:wheelchair": "yes", "wheelchair": "yes"}}, {"type": "node", "id": 4680188692, "lat": 40.4093666, "lon": -3.6931946, "tags": {"addr:city": "Madrid", "addr:country": "ES", "addr:housenumber": "116", "addr:postcode": "28012", "addr:street": "Calle de Atocha", "amenity": "restaurant", "cuisine": "turkish", "name": "Jalo", "name:es": "Jalo"}}, {"type": "node", "id": 4680223590, "lat": 40.4117599, "lon": -3.6981632, "tags": {"amenity": "fast_food", "brand": "Domino's", "brand:wikidata": "Q839466", "brand:wikipedia": "en:Domino's Pizza", "cuisine": "pizza", "name": "Domino's", "name:en": "Domino's Pizza", "takeaway": "yes"}}, {"type": "node", "id": 4680242490, "lat": 40.410739, "lon": -3.6962503, "tags": {"amenity": "restaurant", "name": "Coreano Han Gang", "name:es": "Coreano Han Gang"}}, {"type": "node", "id": 4680243989, "lat": 40.4103167, "lon": -3.6953327, "tags": {"amenity": "bar"}}, {"type": "node", "id": 4680244089, "lat": 40.4095098, "lon": -3.6935056, "tags": {"shop": "convenience", "survey:date": "2022-07-22"}}, {"type": "node", "id": 4703100726, "lat": 40.4116807, "lon": -3.703075, "tags": {"addr:city": "Madrid", "addr:housenumber": "8", "addr:postcode": "28012", "addr:street": "Calle de Lavapi\u00e9s", "amenity": "bar", "contact:facebook": "https://es-es.facebook.com/rincondelcabo/", "contact:phone": "+34 602 66 95 75", "name": "El Rinc\u00f3n del Cabo"}}, {"type": "node", "id": 4703100727, "lat": 40.4075794, "lon": -3.7041781, "tags": {"addr:city": "Madrid", "addr:housenumber": "60", "addr:postcode": "28012", "addr:street": "Calle de Embajadores", "amenity": "restaurant", "cuisine": "regional", "name": "O Candil de Lugo"}}, {"type": "node", "id": 4704024290, "lat": 40.4088321, "lon": -3.6994186, "tags": {"shop": "convenience"}}, {"type": "node", "id": 4704036991, "lat": 40.4089631, "lon": -3.7004832, "tags": {"amenity": "bar"}}, {"type": "node", "id": 4704037389, "lat": 40.4089552, "lon": -3.6993887, "tags": {"shop": "convenience"}}, {"type": "node", "id": 4711670702, "lat": 40.4089436, "lon": -3.7104214, "tags": {"addr:city": "Madrid", "addr:housenumber": "82", "addr:postcode": "28005", "addr:street": "Calle de Toledo", "amenity": "restaurant", "contact:phone": "+34 91 366 76 21", "contact:website": "http://basarriginclub.com/", "name": "Basarri"}}, {"type": "node", "id": 4725920292, "lat": 40.4115727, "lon": -3.7005695, "tags": {"addr:city": "Madrid", "addr:housenumber": "23", "addr:postcode": "28012", "addr:street": "Calle del Olmo", "amenity": "restaurant", "contact:facebook": "https://es-es.facebook.com/Maria-Bonita-Lavapies-447297745363191/", "contact:phone": "+34 610 08 75 87", "cuisine": "mexican", "name": "Mar\u00eda Bonita"}}, {"type": "node", "id": 4725920293, "lat": 40.4115583, "lon": -3.7014406, "tags": {"addr:city": "Madrid", "addr:housenumber": "3", "addr:postcode": "28012", "addr:street": "Calle del Olmo", "amenity": "pub", "contact:facebook": "https://es-es.facebook.com/Malatesta-154854107925524/", "contact:phone": "+34 628 03 68 13", "name": "Malatesta"}}, {"type": "node", "id": 4725920294, "lat": 40.4110452, "lon": -3.6995044, "tags": {"addr:city": "Madrid", "addr:country": "ES", "addr:housenumber": "12", "addr:postcode": "28012", "addr:street": "Calle de la Torrecilla del Leal", "amenity": "restaurant", "contact:facebook": "https://es-es.facebook.com/Taberna-El-Sur-160484570662848/", "contact:phone": "+34 915 27 83 40", "name": "Taberna El Sur", "opening_hours": "Mo-Su 11:00-24:00"}}, {"type": "node", "id": 4725920295, "lat": 40.4110994, "lon": -3.6994105, "tags": {"addr:city": "Madrid", "addr:housenumber": "9", "addr:postcode": "28012", "addr:street": "Calle de la Torrecilla del Leal", "amenity": "bar", "name": "Caf\u00e9 Dor\u00e9"}}, {"type": "node", "id": 4725967132, "lat": 40.4107424, "lon": -3.6980795, "tags": {"addr:city": "Madrid", "addr:housenumber": "15", "addr:postcode": "28012", "addr:street": "Calle de Santa Isabel", "name": "El Bazar de mi Barrio", "shop": "convenience", "wheelchair": "limited"}}, {"type": "node", "id": 4725967140, "lat": 40.4113431, "lon": -3.6973935, "tags": {"addr:city": "Madrid", "addr:housenumber": "76", "addr:postcode": "28012", "addr:street": "Calle de Atocha", "amenity": "restaurant", "contact:facebook": "https://es-es.facebook.com/tabernadeatocha76/", "cuisine": "regional", "name": "La Taberna de Atocha"}}, {"type": "node", "id": 4725967142, "lat": 40.4114439, "lon": -3.6975604, "tags": {"addr:city": "Madrid", "addr:country": "ES", "addr:housenumber": "74", "addr:postcode": "28012", "addr:street": "Calle de Atocha", "amenity": "restaurant", "cuisine": "regional", "name": "Sof\u00eda"}}, {"type": "node", "id": 4727650682, "lat": 40.4133494, "lon": -3.70764, "tags": {"addr:city": "Madrid", "addr:street": "Plaza Segovia Nueva", "amenity": "fast_food", "cuisine": "asian", "name": "Wok"}}, {"type": "node", "id": 4756823780, "lat": 40.4123041, "lon": -3.7035333, "tags": {"amenity": "cafe", "name": "La Barra del Teatro"}}, {"type": "node", "id": 4776957475, "lat": 40.4115932, "lon": -3.7074059}, {"type": "node", "id": 4785249721, "lat": 40.406913, "lon": -3.7086481, "tags": {"amenity": "pub", "cuisine": "regional;tapas", "name": "El Gastro Var"}}, {"type": "node", "id": 4785249821, "lat": 40.4082271, "lon": -3.7085353, "tags": {"addr:housenumber": "14", "addr:street": "Calle de Carlos Arniches", "amenity": "pub", "cuisine": "valencian", "name": "AlliOli Valencian food"}}, {"type": "node", "id": 4785282921, "lat": 40.4127317, "lon": -3.6993075, "tags": {"addr:city": "Madrid", "addr:country": "ES", "addr:housenumber": "35", "addr:postcode": "28014", "addr:street": "Calle del Le\u00f3n", "amenity": "restaurant", "cuisine": "italian_pizza", "name": "La Pizzateca", "opening_hours": "Mo-Su 13:00-16:30, 19:00-24:00"}}, {"type": "node", "id": 4788148348, "lat": 40.4113825, "lon": -3.7043834, "tags": {"addr:city": "Madrid", "addr:housenumber": "10-12", "addr:postcode": "28012", "addr:street": "Calle de la Espada", "amenity": "restaurant", "cuisine": "regional", "name": "A Lareira"}}, {"type": "node", "id": 4788148351, "lat": 40.4092906, "lon": -3.7028751, "tags": {"addr:city": "Madrid", "addr:country": "ES", "addr:housenumber": "36", "addr:postcode": "28012", "addr:street": "Calle del Amparo", "amenity": "restaurant", "name": "Bismillah"}}, {"type": "node", "id": 4809463355, "lat": 40.4101444, "lon": -3.6989426, "tags": {"addr:city": "Madrid", "addr:country": "ES", "addr:housenumber": "18", "addr:postcode": "28012", "addr:street": "Calle de Buenavista", "amenity": "restaurant", "cuisine": "argentinian", "email": "hola@losporfiados.com", "name": "Los Porfiados", "phone": "+34 91 084 2945", "website": "https://www.losporfiados.com/"}}, {"type": "node", "id": 4809467821, "lat": 40.4109729, "lon": -3.7006791, "tags": {"addr:city": "Madrid", "addr:country": "ES", "addr:housenumber": "20", "addr:postcode": "28012", "addr:street": "Calle del Ave Mar\u00eda", "delivery:covid19": "no", "email": "lavidatienesentidos@gmail.com", "name": "La vida tiene sentidos", "opening_hours": "Tu-Th 11:00-15:00,18:00-21:30; Fr,Sa 11:00-15:00,18:00-23:30; Su 11:00-15:00", "opening_hours:covid19": "Su 11:00-15:00; Tu-Th 11:00-15:00,18:00-21:30; Fr,Sa 11:00-15:00,18:00-23:30", "phone": "+34 91 025 84 14", "shop": "convenience", "takeaway:covid19": "yes", "website": "https://www.lavidatienesentidos.com/"}}, {"type": "node", "id": 4829131853, "lat": 40.4082157, "lon": -3.6986467, "tags": {"addr:city": "Madrid", "addr:country": "ES", "addr:housenumber": "17", "addr:postcode": "28012", "addr:street": "Calle de Argumosa", "amenity": "bar", "cuisine": "regional", "name": "Bar Automatico", "survey:date": "2022-07-23"}}, {"type": "node", "id": 4891902423, "lat": 40.4100487, "lon": -3.6961188, "tags": {"addr:city": "Madrid", "addr:country": "ES", "addr:housenumber": "7", "addr:postcode": "28012", "addr:street": "Calle del Marqu\u00e9s de Toca", "amenity": "restaurant", "name": "La Berenjena", "name:es": "La Berenjena"}}, {"type": "node", "id": 4921810805, "lat": 40.410254, "lon": -3.7074807, "tags": {"amenity": "pub", "name": "La Manyula II"}}, {"type": "node", "id": 4930248521, "lat": 40.4051024, "lon": -3.7055873, "tags": {"addr:city": "Madrid", "addr:country": "ES", "addr:housenumber": "3", "addr:postcode": "28005", "addr:street": "Calle Soria", "name": "El viejo Hortelano", "name:es": "El viejo Hortelano", "opening_hours": "Mo-Fr 10:00-15:00, 17:00-21:00; Sa 10:00-15:00", "phone": "+34 915256479", "shop": "convenience", "wheelchair": "yes"}}, {"type": "node", "id": 4949165321, "lat": 40.411405, "lon": -3.6967132, "tags": {"addr:city": "Madrid", "addr:country": "ES", "addr:housenumber": "21", "addr:postcode": "28014", "addr:street": "Costanilla de los Desamparados", "amenity": "restaurant", "cuisine": "spanish;regional;local", "name": "La Cazuelita", "name:es": "La Cazuelita", "website": "http://www.lacazuelita.es"}}, {"type": "node", "id": 4955422621, "lat": 40.4062676, "lon": -3.6986849, "tags": {"addr:city": "Madrid", "addr:country": "ES", "addr:housenumber": "30", "addr:postcode": "28012", "addr:street": "Ronda de Atocha", "amenity": "bar", "name": "La Rosa", "name:es": "La Rosa"}}, {"type": "node", "id": 4957561222, "lat": 40.4102599, "lon": -3.6944918, "tags": {"addr:city": "Madrid", "addr:country": "ES", "addr:housenumber": "115", "addr:postcode": "28012", "addr:street": "Calle de Atocha", "amenity": "restaurant", "cuisine": "thai", "name": "Phuket Thai", "name:es": "Phuket Thai", "opening_hours": "Mo-Su 12:00-16:30, 20:00-00:00", "phone": "+34913896359", "website": "http://www.phuket-thai.es"}}, {"type": "node", "id": 4957561223, "lat": 40.4097056, "lon": -3.7008873, "tags": {"addr:city": "Madrid", "addr:country": "ES", "addr:housenumber": "39", "addr:postcode": "28012", "addr:street": "Calle del Ave Mar\u00eda", "amenity": "fast_food", "cuisine": "kebab", "name": "Kebabchi Jalo", "phone": "+34915064404"}}, {"type": "node", "id": 4993237443, "lat": 40.4066797, "lon": -3.6972145, "tags": {"addr:city": "Madrid", "addr:country": "ES", "addr:housenumber": "16", "addr:postcode": "28012", "addr:street": "Ronda de Atocha", "amenity": "bar", "cuisine": "tapas", "name": "Kubo King", "name:es": "Kubo King"}}, {"type": "node", "id": 4993404121, "lat": 40.4069506, "lon": -3.6993839, "tags": {"addr:city": "Madrid", "addr:country": "ES", "addr:housenumber": "37", "addr:postcode": "28012", "addr:street": "Calle del Doctor Fourquet", "amenity": "bar", "cuisine": "tapas", "name": "La Chulapa en Mayrit", "name:es": "La Chulapa en Mayrit"}}, {"type": "node", "id": 4993663033, "lat": 40.410156, "lon": -3.7090334, "tags": {"addr:housenumber": "4", "addr:street": "Calle L\u00f3pez Silva", "amenity": "restaurant", "diet:vegan": "only", "facebook": "http://facebook.com/PuraVidaVeganBar", "name": "Pura Vida Vegan Bar", "phone": "+34-610811232"}}, {"type": "node", "id": 5079363529, "lat": 40.4103687, "lon": -3.7010895, "tags": {"amenity": "bar", "name": "Liber Arte Cantina Cultural", "name:es": "Liber Arte Cantina Cultural"}}, {"type": "node", "id": 5081180724, "lat": 40.4101632, "lon": -3.6971775, "tags": {"addr:city": "Madrid", "addr:country": "ES", "addr:housenumber": "29", "addr:postcode": "28012", "addr:street": "Calle de Santa Isabel", "amenity": "restaurant", "name": "Taberna Eulogio", "wheelchair": "limited"}}, {"type": "node", "id": 5083496421, "lat": 40.4106293, "lon": -3.6994828, "tags": {"addr:city": "Madrid", "addr:country": "ES", "addr:housenumber": "20", "addr:postcode": "28012", "addr:street": "Calle de la Torrecilla del Leal", "amenity": "restaurant", "cuisine": "japanese", "name": "Livin' Japan", "name:es": "Livin' Japan"}}, {"type": "node", "id": 5085913640, "lat": 40.4094709, "lon": -3.6934229, "tags": {"addr:city": "Madrid", "addr:country": "ES", "addr:housenumber": "114", "addr:postcode": "28012", "addr:street": "Calle de Atocha", "amenity": "restaurant", "cuisine": "italian", "name": "\u00d4ven", "website": "https://www.oven.es/"}}, {"type": "node", "id": 5085913643, "lat": 40.4110723, "lon": -3.7066866, "tags": {"addr:city": "Madrid", "addr:country": "ES", "addr:housenumber": "23", "addr:postcode": "28012", "addr:street": "Calle de Juanelo", "amenity": "restaurant", "cuisine": "spanish;mediterranean", "name": "Toga", "phone": "+34 910 41 44 39"}}, {"type": "node", "id": 5137275721, "lat": 40.4098411, "lon": -3.7024462, "tags": {"amenity": "restaurant", "name": "Baisakhi"}}, {"type": "node", "id": 5145202721, "lat": 40.4118168, "lon": -3.698648, "tags": {"amenity": "restaurant", "contact:facebook": "https://www.facebook.com/elmonodelapilacevicheria/", "cuisine": "peruvian", "name": "El Mono de la Pila", "opening_hours": "Mo-Fr 12:00-17:00,19:00-23:00; Sa 12:00-23:00"}}, {"type": "node", "id": 5145917168, "lat": 40.4105254, "lon": -3.7010948, "tags": {"addr:city": "Madrid", "addr:country": "ES", "addr:housenumber": "17", "addr:postcode": "28012", "addr:street": "Calle de San Carlos", "amenity": "restaurant", "name": "Egeo"}}, {"type": "node", "id": 5158614121, "lat": 40.4097196, "lon": -3.7013941, "tags": {"amenity": "pub", "name": "Travelling"}}, {"type": "node", "id": 5160386432, "lat": 40.4074282, "lon": -3.7031961, "tags": {"addr:housenumber": "23", "addr:street": "Calle de Tribulete", "amenity": "bar", "contact:facebook": "https://es-es.facebook.com/tribuetxe/", "cuisine": "tapas", "name": "Tribuetxe"}}, {"type": "node", "id": 5160387424, "lat": 40.4094175, "lon": -3.710016, "tags": {"addr:housenumber": "74", "addr:street": "Calle de Toledo", "amenity": "bar", "name": "Javier Mart\u00edn Croquetas & Caf\u00e9"}}, {"type": "node", "id": 5223890867, "lat": 40.412389, "lon": -3.7017889, "tags": {"name": "Nazir", "shop": "convenience"}}, {"type": "node", "id": 5223902320, "lat": 40.4115661, "lon": -3.7076996}, {"type": "node", "id": 5223904203, "lat": 40.4120833, "lon": -3.7060414}, {"type": "node", "id": 5223908423, "lat": 40.4115692, "lon": -3.7076796}, {"type": "node", "id": 5223908440, "lat": 40.4115754, "lon": -3.7076596}, {"type": "node", "id": 5254201763, "lat": 40.4086442, "lon": -3.7049146, "tags": {"addr:city": "Madrid", "addr:housenumber": "31", "addr:postcode": "28012", "addr:street": "Calle de Embajadores", "amenity": "pub", "name": "La taberna Viajera", "old_name": "Craft Against the Machine"}}, {"type": "node", "id": 5254250810, "lat": 40.4075079, "lon": -3.6965319, "tags": {"addr:city": "Madrid", "addr:housenumber": "28", "addr:postcode": "28012", "addr:street": "Calle de Argumosa", "amenity": "restaurant", "cuisine": "regional", "email": "info@opazodelugo.es", "name": "O Pazo de Lugo", "opening_hours": "Mo-Su 10:00-00:00", "phone": "+34 91 539 60 57", "real_ale": "yes", "website": "http://opazodelugo.es/"}}, {"type": "node", "id": 5267637222, "lat": 40.4108141, "lon": -3.7051477, "tags": {"addr:city": "Madrid", "addr:country": "ES", "addr:housenumber": "5", "addr:postcode": "28005", "addr:street": "Calle de la Encomienda", "name": "Panifiesto", "opening_hours": "Mo-Fr 10:00-15:00, 17:30-20:00; Sa, Su 10:00-14:30", "shop": "bakery"}}, {"type": "node", "id": 5287707821, "lat": 40.41106, "lon": -3.7069428, "tags": {"addr:city": "Madrid", "addr:country": "ES", "addr:housenumber": "23", "addr:postcode": "28012", "addr:street": "Calle de Juanelo", "amenity": "restaurant", "name": "Toga"}}, {"type": "node", "id": 5317053622, "lat": 40.4069766, "lon": -3.7009786, "tags": {"amenity": "bar", "name": "Juan Raro"}}, {"type": "node", "id": 5333128709, "lat": 40.410427, "lon": -3.7080071, "tags": {"addr:street": "Calle de la Ruda", "amenity": "cafe", "description": "Caf\u00e9", "name": "RUDA Caf\u00e9 de Altura"}}, {"type": "node", "id": 5338859493, "lat": 40.4069699, "lon": -3.698571, "tags": {"amenity": "cafe", "name": "Hola Caf\u00e9"}}, {"type": "node", "id": 5349483068, "lat": 40.4118986, "lon": -3.7018069, "tags": {"addr:city": "Madrid", "addr:housenumber": "28", "addr:postcode": "28012", "addr:street": "Calle de la Cabeza", "amenity": "restaurant", "contact:facebook": "https://es-es.facebook.com/casabenteveo/", "contact:phone": "+34 910 83 32 68", "name": "Casa Benteveo"}}, {"type": "node", "id": 5403593927, "lat": 40.4092225, "lon": -3.705435, "tags": {"addr:housenumber": "19", "addr:street": "Calle de Embajadores", "amenity": "bar", "name": "Lap Cafe"}}, {"type": "node", "id": 5412144552, "lat": 40.4076939, "lon": -3.7113124, "tags": {"addr:city": "Madrid", "addr:housenumber": "106", "addr:postcode": "28005", "addr:street": "Calle de Toledo", "amenity": "bar", "name": "El Cop\u00f3n", "wheelchair": "no"}}, {"type": "node", "id": 5412144558, "lat": 40.4085034, "lon": -3.7107788, "tags": {"addr:city": "Madrid", "addr:housenumber": "92", "addr:postcode": "28005", "addr:street": "Calle de Toledo", "name": "Fruter\u00eda Toledo", "shop": "greengrocer", "wheelchair": "no"}}, {"type": "node", "id": 5412144559, "lat": 40.4086148, "lon": -3.7108135, "tags": {"addr:city": "Madrid", "addr:housenumber": "90", "addr:postcode": "28005", "addr:street": "Calle de Toledo", "amenity": "restaurant", "cuisine": "regional", "name": "Aviseu", "wheelchair": "no"}}, {"type": "node", "id": 5412144564, "lat": 40.4090901, "lon": -3.7103143, "tags": {"addr:city": "Madrid", "addr:postcode": "28005", "addr:street": "Calle de Toledo", "amenity": "fast_food", "cuisine": "chicken", "name": "El Sabroso", "wheelchair": "no"}}, {"type": "node", "id": 5426466849, "lat": 40.4125538, "lon": -3.7040299, "tags": {"addr:city": "Madrid", "addr:housenumber": "18", "addr:postcode": "28012", "addr:street": "Plaza de Tirso de Molina", "amenity": "cafe", "name": "La Panetter\u00eda de Tirso", "toilets:wheelchair": "yes", "wheelchair": "yes"}}, {"type": "node", "id": 5448867422, "lat": 40.4108673, "lon": -3.706953, "tags": {"amenity": "cafe", "name": "El parnaso"}}, {"type": "node", "id": 5448867481, "lat": 40.4104625, "lon": -3.7065839, "tags": {"name": "Bolleria del mundo", "shop": "bakery"}}, {"type": "node", "id": 5448868721, "lat": 40.4108974, "lon": -3.7074638, "tags": {"amenity": "fast_food", "name": "Tutti Frutti"}}, {"type": "node", "id": 5448876987, "lat": 40.4115102, "lon": -3.7080348, "tags": {"amenity": "fast_food", "name": "Tako-away"}}, {"type": "node", "id": 5454502421, "lat": 40.4086315, "lon": -3.699529, "tags": {"amenity": "bar", "name": "Cafe de Ratas"}}, {"type": "node", "id": 5465224822, "lat": 40.407499, "lon": -3.7037345, "tags": {"name": "Bendito", "shop": "alcohol"}}, {"type": "node", "id": 5465224823, "lat": 40.4075531, "lon": -3.7035022, "tags": {"name": "La siemprellena", "shop": "alcohol"}}, {"type": "node", "id": 5471326121, "lat": 40.4090679, "lon": -3.6989314, "tags": {"amenity": "bar", "name": "Caminito"}}, {"type": "node", "id": 5552314224, "lat": 40.410177, "lon": -3.6962005, "tags": {"addr:city": "Madrid", "addr:country": "ES", "addr:housenumber": "6", "addr:postcode": "28012", "addr:street": "Calle del Marqu\u00e9s de Toca", "amenity": "restaurant", "name": "GatoGato"}}, {"type": "node", "id": 5554840321, "lat": 40.4099685, "lon": -3.6968366, "tags": {"addr:city": "Madrid", "addr:housenumber": "37", "addr:postcode": "28012", "addr:street": "Calle de Santa Isabel", "amenity": "cafe", "cuisine": "coffee_shop", "name": "Zero Point", "opening_hours": "Mo-Fr 08:00-19:00; Sa-Su 10:00-19:00", "phone": "+34 688 28 60 56"}},