{"version": 0.6, "generator": "Overpass API 0.7.58.5 b0c4acbb", "osm3s": {"timestamp_osm_base": "2022-08-31T11:19:29Z", "copyright": "The data included in this document is from www.openstreetmap.org. The data is made available under ODbL."}, "elements": [{"type": "node", "id": 259964052, "lat": 35.684236, "lon": 139.7390476, "tags": {"addr:full": "\u6771\u4eac\u90fd\u5343\u4ee3\u7530\u533a\u9eb9\u753a3-2-5", "addr:housename": "\u57a3\u898b\u9eb9\u753a\u30d3\u30eb\u5225\u99281F", "addr:postcode": "102-0083", "amenity": "cafe", "branch": "\u9eb9\u753a\u5e97", "brand": "\u30b9\u30bf\u30fc\u30d0\u30c3\u30af\u30b9", "brand:en": "Starbucks", "brand:ja": "\u30b9\u30bf\u30fc\u30d0\u30c3\u30af\u30b9", "brand:wikidata": "Q37158", "brand:wikipedia": "ja:\u30b9\u30bf\u30fc\u30d0\u30c3\u30af\u30b9", "cuisine": "coffee_shop", "drive_through": "no", "internet_access": "wlan", "level": "0", "name": "\u30b9\u30bf\u30fc\u30d0\u30c3\u30af\u30b9", "name:en": "Starbucks", "name:ja": "\u30b9\u30bf\u30fc\u30d0\u30c3\u30af\u30b9", "name:ja_rm": "Sutah-bakkusu", "official_name": "\u30b9\u30bf\u30fc\u30d0\u30c3\u30af\u30b9\u30b3\u30fc\u30d2\u30fc", "official_name:en": "Starbucks Coffee", "official_name:ja": "\u30b9\u30bf\u30fc\u30d0\u30c3\u30af\u30b9\u30b3\u30fc\u30d2\u30fc", "opening_hours": "Mo-Fr 07:00-21:00; Sa 08:00-20:00; Su,PH 08:00-19:00", "operator": "\u30b9\u30bf\u30fc\u30d0\u30c3\u30af\u30b9\u30b3\u30fc\u30d2\u30fc\u30b8\u30e3\u30d1\u30f3", "phone": "+81-3-52263223", "source": "Bing 2010; (URL) 2015", "takeaway": "yes", "website": "https://www.starbucks.co.jp/"}}, {"type": "node", "id": 259964064, "lat": 35.6815144, "lon": 139.7438874, "tags": {"amenity": "cafe", "created_by": "JOSM"}}, {"type": "node", "id": 417414182, "lat": 35.7004824, "lon": 139.74238, "tags": {"addr:full": "\u6771\u4eac\u90fd\u65b0\u5bbf\u533a\u795e\u697d\u57421-10-1", "addr:postcode": "162-0825", "amenity": "fast_food", "branch": "\u795e\u697d\u5742\u4e0b\u5e97", "brand": "\u30e2\u30b9\u30d0\u30fc\u30ac\u30fc", "brand:en": "MOS Burger", "brand:ja": "\u30e2\u30b9\u30d0\u30fc\u30ac\u30fc", "brand:wikidata": "Q1204169", "brand:wikipedia": "ja:\u30e2\u30b9\u30d0\u30fc\u30ac\u30fc", "contact:phone": "+81 3-3269-2560", "cuisine": "burger", "internet_access": "wlan", "name": "\u30e2\u30b9\u30d0\u30fc\u30ac\u30fc", "name:en": "MOS Burger", "name:ja": "\u30e2\u30b9\u30d0\u30fc\u30ac\u30fc", "name:ja_rm": "Mosu B\u0101g\u0101", "opening_hours": "Mo-Su 06:00-23:00", "operator": "\u30e2\u30b9\u30d5\u30fc\u30c9\u30b5\u30fc\u30d3\u30b9", "smoking": "separated", "source": "(URL) 2015", "takeaway": "yes", "website": "https://www.mos.jp/"}}, {"type": "node", "id": 427886910, "lat": 35.6947422, "lon": 139.7453653, "tags": {"amenity": "cafe", "name": "attic room YASUKUNI-GAIEN/cafe&dining"}}, {"type": "node", "id": 469818509, "lat": 35.6737913, "lon": 139.7558071, "tags": {"addr:city": "Chiyoda", "addr:housenumber": "1-2", "addr:postcode": "100-0012", "addr:street": "Hibiyakoen", "amenity": "restaurant", "cuisine": "japanese", "name": "\u65e5\u6bd4\u8c37 \u677e\u672c\u697c", "name:en": "Matsumotoro", "name:ja": "\u65e5\u6bd4\u8c37 \u677e\u672c\u697c", "name:ja_kana": "\u307e\u3064\u3082\u3068\u308d\u3046", "name:ja_rm": "Matsumotor\u014d", "phone": "+81 3-3503-1451", "website": "http://www.matsumotoro.co.jp/", "wikidata": "Q11104500"}}, {"type": "node", "id": 516368792, "lat": 35.691229, "lon": 139.7687126, "tags": {"amenity": "fast_food", "name": "\u30e9\u30fc\u30e1\u30f3\u82b1\u6708", "name:en": "Ramen Kagetsu", "name:ja": "\u30e9\u30fc\u30e1\u30f3\u82b1\u6708"}}, {"type": "node", "id": 575735323, "lat": 35.6910799, "lon": 139.7453447, "tags": {"atm": "yes", "branch": "\u5343\u4ee3\u7530\u4e09\u756a\u753a\u5e97", "brand": "\u30ca\u30c1\u30e5\u30e9\u30eb\u30ed\u30fc\u30bd\u30f3", "brand:en": "NATURAL LAWSON", "brand:ja": "\u30ca\u30c1\u30e5\u30e9\u30eb\u30ed\u30fc\u30bd\u30f3", "brand:wikidata": "Q11323850", "brand:wikipedia": "ja:\u30ca\u30c1\u30e5\u30e9\u30eb\u30ed\u30fc\u30bd\u30f3", "level": "0", "name": "\u30ca\u30c1\u30e5\u30e9\u30eb\u30ed\u30fc\u30bd\u30f3", "name:en": "Natural Lawson", "name:ja": "\u30ca\u30c1\u30e5\u30e9\u30eb\u30ed\u30fc\u30bd\u30f3", "name:ja_rm": "R\u014dson", "opening_hours": "24/7", "shop": "convenience", "source": "survey", "wheelchair": "yes"}}, {"type": "node", "id": 576872362, "lat": 35.690629, "lon": 139.743881, "tags": {"amenity": "cafe", "name": "Cafe Hatopoppo"}}, {"type": "node", "id": 580793694, "lat": 35.6874265, "lon": 139.7425804, "tags": {"addr:full": "\u6771\u4eac\u90fd\u5343\u4ee3\u7530\u533a\u4e00\u756a\u753a7-5", "addr:postcode": "102-0082", "amenity": "cafe", "branch": "\u4e00\u756a\u753a\u5e97", "brand": "\u30ab\u30d5\u30a7\u30fb\u30d9\u30ed\u30fc\u30c1\u30a7", "brand:en": "CAFF\u00c8 VELOCE", "brand:ja": "\u30ab\u30d5\u30a7\u30fb\u30d9\u30ed\u30fc\u30c1\u30a7", "brand:wikidata": "Q11294597", "brand:wikipedia": "ja:\u30ab\u30d5\u30a7\u30fb\u30d9\u30ed\u30fc\u30c1\u30a7", "cuisine": "coffee_shop", "name": "\u30ab\u30d5\u30a7\u30fb\u30d9\u30ed\u30fc\u30c1\u30a7", "name:en": "CAFF\u00c8 VELOCE", "name:ja": "\u30ab\u30d5\u30a7\u30fb\u30d9\u30ed\u30fc\u30c1\u30a7", "name:ja_rm": "Kafe Ber\u014dche", "opening_hours": "Mo-Fr 07:00-22:00; Sa,Su,PH 07:00-20:00", "operator": "\u30b7\u30e3\u30ce\u30a2\u30fc\u30eb", "source": "(URL) 2015", "takeaway": "yes", "website": "https://chatnoir-company.com/chatnoir/html/brand/brand_veloce.html"}}, {"type": "node", "id": 581011621, "lat": 35.691947, "lon": 139.7441204, "tags": {"amenity": "cafe", "name": "\u4e09\u756a\u753a\u30ab\u30d5\u30a7"}}, {"type": "node", "id": 581011627, "lat": 35.6876468, "lon": 139.7425487, "tags": {"amenity": "cafe", "brand": "\u73c8\u7432\u9928", "brand:en": "Kohikan", "brand:ja": "\u73c8\u7432\u9928", "brand:wikidata": "Q11573290", "brand:wikipedia": "ja:\u73c8\u7432\u9928", "cuisine": "coffee_shop", "name": "\u73c8\u7432\u9928", "name:en": "Kohikan", "name:ja": "\u73c8\u7432\u9928", "takeaway": "yes"}}, {"type": "node", "id": 582969399, "lat": 35.7010661, "lon": 139.759867, "tags": {"amenity": "cafe", "name": "A&A\u8a8d\u5b9a\u30d9\u30af\u30bf\u30fc\u30ef\u30fc\u30af\u30b9\u30ab\u30d5\u30a7\u30b8\u30e3\u30d1\u30f3", "name:en": "A&A Vectorworks Cafe Japan"}}, {"type": "node", "id": 599540612, "lat": 35.6999432, "lon": 139.7630838, "tags": {"amenity": "fast_food", "brand": "\u30ed\u30c3\u30c6\u30ea\u30a2", "brand:en": "Lotteria", "brand:ja": "\u30ed\u30c3\u30c6\u30ea\u30a2", "brand:wikidata": "Q249525", "brand:wikipedia": "ja:\u30ed\u30c3\u30c6\u30ea\u30a2", "cuisine": "burger", "name": "\u30ed\u30c3\u30c6\u30ea\u30a2", "name:en": "Lotteria", "name:ja": "\u30ed\u30c3\u30c6\u30ea\u30a2", "name:ja_rm": "Rotteria", "takeaway": "yes", "wheelchair": "limited"}}, {"type": "node", "id": 599541465, "lat": 35.7001644, "lon": 139.7618745, "tags": {"addr:full": "\u6771\u4eac\u90fd\u5343\u4ee3\u7530\u533a\u795e\u7530\u99ff\u6cb3\u53f02-5", "addr:housename": "\u6751\u7530\u30d3\u30eb\u30c7\u30a3\u30f3\u30b01F", "addr:postcode": "101-0062", "amenity": "cafe", "branch": "\u304a\u8336\u306e\u6c34\u6751\u7530\u30d3\u30eb\u5e97", "brand": "\u30b9\u30bf\u30fc\u30d0\u30c3\u30af\u30b9", "brand:en": "Starbucks", "brand:ja": "\u30b9\u30bf\u30fc\u30d0\u30c3\u30af\u30b9", "brand:wikidata": "Q37158", "brand:wikipedia": "ja:\u30b9\u30bf\u30fc\u30d0\u30c3\u30af\u30b9", "cuisine": "coffee_shop", "drive_through": "no", "internet_access": "wlan", "level": "0", "name": "\u30b9\u30bf\u30fc\u30d0\u30c3\u30af\u30b9", "name:en": "Starbucks", "name:ja": "\u30b9\u30bf\u30fc\u30d0\u30c3\u30af\u30b9", "name:ja_rm": "Sutah-bakkusu", "official_name": "\u30b9\u30bf\u30fc\u30d0\u30c3\u30af\u30b9\u30b3\u30fc\u30d2\u30fc", "official_name:en": "Starbucks Coffee", "official_name:ja": "\u30b9\u30bf\u30fc\u30d0\u30c3\u30af\u30b9\u30b3\u30fc\u30d2\u30fc", "opening_hours": "Mo-Sa 07:00-22:00; Su,PH 08:00-21:00", "operator": "\u30b9\u30bf\u30fc\u30d0\u30c3\u30af\u30b9\u30b3\u30fc\u30d2\u30fc\u30b8\u30e3\u30d1\u30f3", "phone": "+81-3-32938835", "source": "Bing 2010;(URL) 2015", "takeaway": "yes", "website": "https://www.starbucks.co.jp/"}}, {"type": "node", "id": 640871549, "lat": 35.6841169, "lon": 139.7373193, "tags": {"amenity": "restaurant", "name": "\u9ad8\u7d1a\u4e2d\u56fd\u56db\u5ddd\u6599\u7406 \u767b\u9f8d", "opening_hours": "11:30-22:00"}}, {"type": "node", "id": 640879313, "lat": 35.683193, "lon": 139.738092, "tags": {"amenity": "restaurant", "cuisine": "diner", "name": "KOJIMACHI DINER", "opening_hours": "08:00-24:00"}}, {"type": "node", "id": 688657370, "lat": 35.69702, "lon": 139.7686698, "tags": {"amenity": "restaurant", "cuisine": "Soba", "name": "\u795e\u7530\u85ea\u854e\u9ea6 (Yabusoba)", "name:en": "Kanda Yabu Soba", "phone": "+81-03-32510287", "website": "http://www.yabusoba.net/"}}, {"type": "node", "id": 691449457, "lat": 35.7002854, "lon": 139.7428114, "tags": {"amenity": "cafe", "cuisine": "italian", "name": "\u30ab\u30ca\u30eb\u30ab\u30d5\u30a7", "name:en": "Canal Cafe", "name:es": "Canal Cafe", "toilets:access": "customers", "toilets:wheelchair": "no", "wheelchair": "limited"}}, {"type": "node", "id": 692764851, "lat": 35.6999854, "lon": 139.7623512, "tags": {"amenity": "cafe", "branch": "\u304a\u8336\u306e\u6c34\u5e97", "brand": "\u30a8\u30af\u30bb\u30eb\u30b7\u30aa\u30fc\u30eb \u30ab\u30d5\u30a7", "brand:en": "EXCELSIOR CAFF\u00c9", "brand:ja": "\u30a8\u30af\u30bb\u30eb\u30b7\u30aa\u30fc\u30eb \u30ab\u30d5\u30a7", "brand:wikidata": "Q11289828", "brand:wikipedia": "ja:\u30a8\u30af\u30bb\u30eb\u30b7\u30aa\u30fc\u30eb \u30ab\u30d5\u30a7", "cuisine": "coffee_shop", "level": "0", "name": "\u30a8\u30af\u30bb\u30eb\u30b7\u30aa\u30fc\u30eb \u30ab\u30d5\u30a7", "name:en": "EXCELSIOR CAFFE", "name:ja": "\u30a8\u30af\u30bb\u30eb\u30b7\u30aa\u30fc\u30eb \u30ab\u30d5\u30a7", "name:ja_rm": "Ekuserusiohru Kafe", "opening_hours": "wd 06:45-22:30; Sa,Su,PH 07:00-21:00", "operator": "\u30c9\u30c8\u30fc\u30eb\u30b3\u30fc\u30d2\u30fc", "phone": "+81-3-52839599", "source": "(URL)", "takeaway": "yes", "website": "http://www.doutor.co.jp/exc/"}}, {"type": "node", "id": 702355911, "lat": 35.692444, "lon": 139.76632, "tags": {"amenity": "bar", "name": "Blondie"}}, {"type": "node", "id": 936119507, "lat": 35.6996119, "lon": 139.7634938, "tags": {"amenity": "restaurant", "name": "\u3072\u307e\u308f\u308a\u5bff\u53f8", "name:en": "Himawari Sushi", "opening_hours": "11:00-22:00"}}, {"type": "node", "id": 988763565, "lat": 35.6957101, "lon": 139.7515132, "tags": {"amenity": "fast_food", "cuisine": "beef_bowl", "name": "\u3052\u3093\u304d\u5bb6", "name:en": "Genki-ya"}}, {"type": "node", "id": 988763625, "lat": 35.6959262, "lon": 139.7508551, "tags": {"amenity": "restaurant", "name": "RoyalHost"}}, {"type": "node", "id": 989291844, "lat": 35.6994474, "lon": 139.7448362, "tags": {"amenity": "restaurant", "branch": "\u98ef\u7530\u6a4b\u5e97", "brand": "\u30c7\u30cb\u30fc\u30ba", "brand:en": "Denny's", "brand:ja": "\u30c7\u30cb\u30fc\u30ba", "brand:wikidata": "Q11320661", "cuisine": "western;japanese", "name": "\u30c7\u30cb\u30fc\u30ba", "name:en": "Denny's", "name:ja": "\u30c7\u30cb\u30fc\u30ba"}}, {"type": "node", "id": 989291887, "lat": 35.6992167, "lon": 139.7451955, "tags": {"addr:city": "\u5343\u4ee3\u7530\u533a\u5bcc\u58eb\u898b", "addr:housenumber": "2-2-6 \u4eca\u4e95\u30d3\u30eb2\uff26", "addr:postcode": "102-0071", "amenity": "cafe", "branch": "\u98ef\u7530\u6a4b\u897f\u53e3\u5e97", "brand": "\u30eb\u30ce\u30a2\u30fc\u30eb", "brand:en": "Renoir", "brand:ja": "\u30eb\u30ce\u30a2\u30fc\u30eb", "brand:wikidata": "Q11649991", "brand:wikipedia": "ja:\u9280\u5ea7\u30eb\u30ce\u30a2\u30fc\u30eb", "cuisine": "coffee_shop", "name": "\u30eb\u30ce\u30a2\u30fc\u30eb", "name:en": "Renoir", "name:ja": "\u30eb\u30ce\u30a2\u30fc\u30eb", "official_name": "\u55ab\u8336\u5ba4\u30eb\u30ce\u30a2\u30fc\u30eb", "official_name:en": "Ginza Renoir", "official_name:ja": "\u55ab\u8336\u5ba4\u30eb\u30ce\u30a2\u30fc\u30eb", "outdoor_seating": "no", "phone": "+81 3 5226 6345", "smoking": "separated", "takeaway": "yes", "website": "https://www.ginza-renoir.co.jp/renoir/"}}, {"type": "node", "id": 989291902, "lat": 35.6991917, "lon": 139.745219, "tags": {"brand": "\u30d5\u30a1\u30df\u30ea\u30fc\u30de\u30fc\u30c8", "brand:en": "FamilyMart", "brand:ja": "\u30d5\u30a1\u30df\u30ea\u30fc\u30de\u30fc\u30c8", "brand:wikidata": "Q1191685", "brand:wikipedia": "ja:\u30d5\u30a1\u30df\u30ea\u30fc\u30de\u30fc\u30c8", "name": "\u30d5\u30a1\u30df\u30ea\u30fc\u30de\u30fc\u30c8", "name:en": "FamilyMart", "name:ja": "\u30d5\u30a1\u30df\u30ea\u30fc\u30de\u30fc\u30c8", "name:ja_rm": "Famir\u012b Mato", "shop": "convenience"}}, {"type": "node", "id": 989291942, "lat": 35.6993645, "lon": 139.7449293, "tags": {"addr:full": "\u6771\u4eac\u90fd\u5343\u4ee3\u7530\u533a\u5bcc\u58eb\u898b2-3-10", "amenity": "cafe", "branch": "\u98ef\u7530\u6a4b\u5bcc\u58eb\u898b\u5e97", "brand": "\u30c9\u30c8\u30fc\u30eb\u30b3\u30fc\u30d2\u30fc\u30b7\u30e7\u30c3\u30d7", "brand:en": "Doutor", "brand:ja": "\u30c9\u30c8\u30fc\u30eb\u30b3\u30fc\u30d2\u30fc\u30b7\u30e7\u30c3\u30d7", "brand:wikidata": "Q11322732", "brand:wikipedia": "ja:\u30c9\u30c8\u30fc\u30eb\u30b3\u30fc\u30d2\u30fc\u30b7\u30e7\u30c3\u30d7", "capacity": "32", "cuisine": "coffee_shop", "level": "0", "name": "\u30c9\u30c8\u30fc\u30eb\u30b3\u30fc\u30d2\u30fc\u30b7\u30e7\u30c3\u30d7", "name:en": "Doutor Coffee Shop", "name:ja": "\u30c9\u30c8\u30fc\u30eb\u30b3\u30fc\u30d2\u30fc\u30b7\u30e7\u30c3\u30d7", "name:ja_rm": "Dotoru Kohi Shoppu", "opening_hours": "Mo-Fr 07:00-21:00; Sa 07:00-19:30; PH,Su 07:30-19:00", "operator": "\u30c9\u30c8\u30fc\u30eb\u30b3\u30fc\u30d2\u30fc", "operator:wikidata": "Q11322732", "operator:wikipedia": "ja:\u30c9\u30c8\u30fc\u30eb\u30b3\u30fc\u30d2\u30fc\u30b7\u30e7\u30c3\u30d7", "phone": "03-3263-4044", "smoking": "separated", "source": "(URL) 2015", "takeaway": "yes", "website": "https://www.doutor.co.jp/dcs/", "wifi": "no"}}, {"type": "node", "id": 990019183, "lat": 35.6995517, "lon": 139.7446055, "tags": {"amenity": "fast_food", "brand": "\u30d0\u30fc\u30ac\u30fc\u30ad\u30f3\u30b0", "brand:en": "Burger King", "brand:ja": "\u30d0\u30fc\u30ac\u30fc\u30ad\u30f3\u30b0", "brand:wikidata": "Q177054", "brand:wikipedia": "en:Burger King", "cuisine": "burger", "name": "\u30d0\u30fc\u30ac\u30fc\u30ad\u30f3\u30b0", "name:en": "Burger King", "name:ja": "\u30d0\u30fc\u30ac\u30fc\u30ad\u30f3\u30b0", "takeaway": "yes"}}, {"type": "node", "id": 990019185, "lat": 35.6991199, "lon": 139.7450329, "tags": {"amenity": "fast_food", "brand": "CoCo\u58f1\u756a\u5c4b", "brand:en": "CoCo Ichibanya", "brand:ja": "CoCo\u58f1\u756a\u5c4b", "brand:wikidata": "Q5986105", "brand:wikipedia": "en:Ichibanya", "cuisine": "japanese", "name": "CoCo\u58f1\u756a\u5c4b", "name:en": "CoCo Ichibanya", "name:ja": "CoCo\u58f1\u756a\u5c4b", "name:ja_rm": "Koko Ichiban-ya", "takeaway": "yes"}}, {"type": "node", "id": 1064983568, "lat": 35.692742, "lon": 139.770947, "tags": {"amenity": "fast_food", "name": "\u3068\u3093\u3053\u3064\u30e9\u30fc\u30e1\u30f3\u98a8\u9f8d", "wheelchair": "no"}}, {"type": "node", "id": 1121195331, "lat": 35.6907653, "lon": 139.7363842, "tags": {"addr:full": "\u6771\u4eac\u90fd\u5343\u4ee3\u7530\u533a\u4e94\u756a\u753a1-9", "addr:housenumber": "\u5343\u4ee3\u7530\u533a\u4e94\u756a\u753a\uff11\uff0d\uff19", "addr:postcode": "102-0076", "atm": "yes", "branch": "\u5343\u4ee3\u7530\u4e94\u756a\u753a", "brand": "\u30bb\u30d6\u30f3-\u30a4\u30ec\u30d6\u30f3", "brand:en": "7-Eleven", "brand:ja": "\u30bb\u30d6\u30f3-\u30a4\u30ec\u30d6\u30f3", "brand:wikidata": "Q259340", "brand:wikipedia": "en:7-Eleven", "contact:phone": "+81-3-35561375", "internet_access": "wlan", "level": "0", "name": "\u30bb\u30d6\u30f3-\u30a4\u30ec\u30d6\u30f3", "name:en": "7-Eleven", "name:ja": "\u30bb\u30d6\u30f3-\u30a4\u30ec\u30d6\u30f3", "name:ja_rm": "Sebun Irebun", "name:ko": "\uc138\ube10\uc77c\ub808\ube10", "official_name:en": "Seven-Eleven", "opening_hours": "24/7", "operator": "\u682a\u5f0f\u4f1a\u793e\u30bb\u30d6\u30f3&\u30a2\u30a4\u30fb\u30db\u30fc\u30eb\u30c7\u30a3\u30f3\u30b0\u30b9", "operator:en": "Seven & I Holdings Co., Ltd.", "operator:wikidata": "Q639447", "operator:wikipedia": "en:Seven & I Holdings Co.", "shop": "convenience", "source": "Bing 2010; (URL)", "website": "http://www.sej.co.jp/"}}, {"type": "node", "id": 1231861278, "lat": 35.6951728, "lon": 139.7705228, "tags": {"amenity": "restaurant", "name": "\u3059\u3057\u6804", "name:en": "Sushi-Ei"}}, {"type": "node", "id": 1231861279, "lat": 35.6955056, "lon": 139.7706442, "tags": {"amenity": "cafe", "description": "\u30d5\u30eb\u30fc\u30c4\u30d1\u30fc\u30e9\u30fc", "name": "\u4e07\u60e3", "name:en": "Manso"}}, {"type": "node", "id": 1231861280, "lat": 35.6932261, "lon": 139.7708664, "tags": {"amenity": "fast_food", "cuisine": "noodle", "level": "0", "name": "\u5c0f\u8af8\u305d\u3070", "name:en": "Komoro Soba", "wheelchair": "no"}}, {"type": "node", "id": 1231861282, "lat": 35.6933765, "lon": 139.7708004, "tags": {"amenity": "restaurant", "name": "\u9999\u6e2f\u53a8\u623f", "wheelchair": "yes"}}, {"type": "node", "id": 1231861283, "lat": 35.6942939, "lon": 139.7704247, "tags": {"amenity": "restaurant", "brand": "\u3084\u3088\u3044\u8ed2", "brand:en": "Yayoiken", "brand:ja": "\u3084\u3088\u3044\u8ed2", "brand:wikidata": "Q11280577", "brand:wikipedia": "ja:\u3084\u3088\u3044\u8ed2", "cuisine": "japanese", "name": "\u3084\u3088\u3044\u8ed2", "name:en": "Yayoiken", "name:ja": "\u3084\u3088\u3044\u8ed2", "name:ja_rm": "Yayoiken", "takeaway": "yes"}}, {"type": "node", "id": 1231861284, "lat": 35.69547, "lon": 139.7683379, "tags": {"amenity": "fast_food", "branch": "\u6de1\u8def\u753a\u5e97", "brand": "\u3086\u3067\u592a\u90ce", "brand:en": "Yudetaro", "brand:ja": "\u3086\u3067\u592a\u90ce", "brand:wikidata": "Q11280824", "brand:wikipedia": "ja:\u3086\u3067\u592a\u90ce", "cuisine": "noodle", "level": "0", "name": "\u3086\u3067\u592a\u90ce", "name:en": "Yudetaro", "name:ja": "\u3086\u3067\u592a\u90ce", "opening_hours": "Mo-Fr 07:00-23:00; PH,Sa,Su 07:00-22:00", "smoking": "no", "takeaway": "yes"}}, {"type": "node", "id": 1231861286, "lat": 35.693158, "lon": 139.771025, "tags": {"amenity": "restaurant", "name": "\u306d\u304e\u3057"}}, {"type": "node", "id": 1231861287, "lat": 35.6956599, "lon": 139.7689274, "tags": {"amenity": "bar", "name": "\u4e16\u754c\u306e\u5c71\u3061\u3083\u3093", "name:en": "Sekai-no-Yamachan", "wheelchair": "yes"}}, {"type": "node", "id": 1231861288, "lat": 35.695612, "lon": 139.7692344, "tags": {"amenity": "fast_food", "brand": "\u677e\u5c4b", "brand:en": "Matsuya", "brand:ja": "\u677e\u5c4b", "brand:wikidata": "Q848773", "brand:wikipedia": "ja:\u677e\u5c4b\u30d5\u30fc\u30ba", "cuisine": "japanese", "name": "\u677e\u5c4b", "name:en": "Matsuya", "name:ja": "\u677e\u5c4b", "name:ja_rm": "Matsuya", "official_name": "\u677e\u5c4b\u30d5\u30fc\u30ba", "official_name:en": "Matsuya Foods", "official_name:ja": "\u677e\u5c4b\u30d5\u30fc\u30ba", "takeaway": "yes", "wheelchair": "yes"}}, {"type": "node", "id": 1231861290, "lat": 35.6955922, "lon": 139.7688481, "tags": {"addr:full": "\u6771\u4eac\u90fd\u5343\u4ee3\u7530\u533a\u795e\u7530\u9808\u7530\u753a1-10", "addr:postcode": "101-0041", "amenity": "cafe", "branch": "\u6de1\u8def\u753a\u99c5\u524d\u5e97", "brand": "\u30ab\u30d5\u30a7\u30fb\u30d9\u30ed\u30fc\u30c1\u30a7", "brand:en": "CAFF\u00c8 VELOCE", "brand:ja": "\u30ab\u30d5\u30a7\u30fb\u30d9\u30ed\u30fc\u30c1\u30a7", "brand:wikidata": "Q11294597", "brand:wikipedia": "ja:\u30ab\u30d5\u30a7\u30fb\u30d9\u30ed\u30fc\u30c1\u30a7", "cuisine": "coffee_shop", "name": "\u30ab\u30d5\u30a7\u30fb\u30d9\u30ed\u30fc\u30c1\u30a7", "name:en": "CAFF\u00c8 VELOCE", "name:ja": "\u30ab\u30d5\u30a7\u30fb\u30d9\u30ed\u30fc\u30c1\u30a7", "name:ja_rm": "Kafe Ber\u014dche", "opening_hours": "Mo-Su 07:00-22:00", "operator": "\u30b7\u30e3\u30ce\u30a2\u30fc\u30eb", "phone": "+81 3-5209-6781", "smoking": "separated", "source": "(URL) 2015", "takeaway": "yes", "website": "https://chatnoir-company.com/chatnoir/html/brand/brand_veloce.html", "wheelchair": "yes"}}, {"type": "node", "id": 1231861291, "lat": 35.694653, "lon": 139.770154, "tags": {"amenity": "restaurant", "name": "\u304a\u304d\u3089\u304f\u98df\u5802", "name:en": "Okiraku Shokudo"}}, {"type": "node", "id": 1231861293, "lat": 35.6951415, "lon": 139.7676834, "tags": {"amenity": "restaurant", "name": "\u5409\u7965", "name:en": "Kissho"}}, {"type": "node", "id": 1231861294, "lat": 35.6934172, "lon": 139.7707785, "tags": {"amenity": "fast_food", "brand": "CoCo\u58f1\u756a\u5c4b", "brand:en": "CoCo Ichibanya", "brand:ja": "CoCo\u58f1\u756a\u5c4b", "brand:wikidata": "Q5986105", "brand:wikipedia": "en:Ichibanya", "cuisine": "japanese", "name": "CoCo\u58f1\u756a\u5c4b", "name:en": "CoCo Ichibanya", "name:ja": "CoCo\u58f1\u756a\u5c4b", "name:ja_rm": "Koko Ichiban-ya", "takeaway": "yes", "wheelchair": "yes"}}, {"type": "node", "id": 1231861295, "lat": 35.6955212, "lon": 139.7684538, "tags": {"branch": "\u795e\u7530\u9808\u7530\u753a\u4e00\u4e01\u76ee\u5e97", "brand": "\u30d5\u30a1\u30df\u30ea\u30fc\u30de\u30fc\u30c8", "brand:en": "FamilyMart", "brand:ja": "\u30d5\u30a1\u30df\u30ea\u30fc\u30de\u30fc\u30c8", "brand:wikidata": "Q1191685", "brand:wikipedia": "en:FamilyMart", "name": "\u30d5\u30a1\u30df\u30ea\u30fc\u30de\u30fc\u30c8", "name:en": "FamilyMart", "name:ja": "\u30d5\u30a1\u30df\u30ea\u30fc\u30de\u30fc\u30c8", "shop": "convenience"}}, {"type": "node", "id": 1231861298, "lat": 35.695604, "lon": 139.7695256, "tags": {"amenity": "restaurant", "name": "Alcazar"}}, {"type": "node", "id": 1231861299, "lat": 35.6956169, "lon": 139.7687303, "tags": {"amenity": "fast_food", "brand": "\u5409\u91ce\u5bb6", "brand:en": "Yoshinoya", "brand:ja": "\u5409\u91ce\u5bb6", "brand:wikidata": "Q776272", "brand:wikipedia": "ja:\u5409\u91ce\u5bb6", "cuisine": "beef_bowl", "name": "\u5409\u91ce\u5bb6", "name:en": "Yoshinoya", "name:ja": "\u5409\u91ce\u5bb6", "name:ja_rm": "Yoshinoya", "takeaway": "yes", "wheelchair": "yes"}}, {"type": "node", "id": 1276856487, "lat": 35.6955618, "lon": 139.757376, "tags": {"amenity": "restaurant", "cuisine": "curry", "name": "\u6b27\u98a8\u30ab\u30ec\u30fc \u30dc\u30f3\u30c7\u30a3 \u795e\u4fdd\u753a\u672c\u5e97", "name:en": "BONDY", "name:ja": "\u6b27\u98a8\u30ab\u30ec\u30fc\u3000\u30dc\u30f3\u30c7\u30a3", "opening_hours": "Mo-Su 11:00-22:00", "phone": "+81 3 32242080"}}, {"type": "node", "id": 1367460872, "lat": 35.6857074, "lon": 139.7743952, "tags": {"amenity": "restaurant", "name": "\u4e3b\u6c34", "name:en": "Mondo"}}, {"type": "node", "id": 1367460876, "lat": 35.6854715, "lon": 139.7742143, "tags": {"description": "\u4e7e\u7269\u5c4b", "name": "\u5927\u548c\u5c4b", "shop": "general"}}, {"type": "node", "id": 1367460884, "lat": 35.6844158, "lon": 139.7749541, "tags": {"amenity": "restaurant", "cuisine": "tenpura", "cuisine:ja": "\u5929\u3077\u3089", "name": "\u5929\u677e (Tenmatsu) 'Mark W'", "name:en": "Tenmatsu 'Mark W'"}}, {"type": "node", "id": 1367460898, "lat": 35.6848003, "lon": 139.7753701, "tags": {"addr:full": "\u6771\u4eac\u90fd\u4e2d\u592e\u533a\u65e5\u672c\u6a4b\u5ba4\u753a1-9-1", "addr:housename": "\u65e5\u672c\u6a4b\u5ba4\u753a\u30d3\u30eb1F", "addr:postcode": "103-0022", "amenity": "cafe", "branch": "\u5ba4\u753a\u4e00\u4e01\u76ee\u5e97", "brand": "\u30ab\u30d5\u30a7\u30fb\u30d9\u30ed\u30fc\u30c1\u30a7", "brand:en": "CAFF\u00c8 VELOCE", "brand:ja": "\u30ab\u30d5\u30a7\u30fb\u30d9\u30ed\u30fc\u30c1\u30a7", "brand:wikidata": "Q11294597", "brand:wikipedia": "ja:\u30ab\u30d5\u30a7\u30fb\u30d9\u30ed\u30fc\u30c1\u30a7", "cuisine": "coffee_shop", "level": "0", "name": "\u30ab\u30d5\u30a7\u30fb\u30d9\u30ed\u30fc\u30c1\u30a7", "name:en": "CAFF\u00c8 VELOCE", "name:ja": "\u30ab\u30d5\u30a7\u30fb\u30d9\u30ed\u30fc\u30c1\u30a7", "name:ja_rm": "Kafe Ber\u014dche", "opening_hours": "Mo-Su 07:00-22:00", "operator": "\u30b7\u30e3\u30ce\u30a2\u30fc\u30eb", "phone": "03-3279-6555", "smoking": "separated", "source": "(URL) 2015", "takeaway": "yes", "website": "https://chatnoir-company.com/chatnoir/html/brand/brand_veloce.html"}}, {"type": "node", "id": 1367460900, "lat": 35.6850182, "lon": 139.7746901, "tags": {"addr:full": "\u4e2d\u592e\u533a\u65e5\u672c\u6a4b\u5ba4\u753a1-6-1", "brand": "\u30d5\u30a1\u30df\u30ea\u30fc\u30de\u30fc\u30c8", "brand:en": "FamilyMart", "brand:ja": "\u30d5\u30a1\u30df\u30ea\u30fc\u30de\u30fc\u30c8", "brand:wikidata": "Q1191685", "brand:wikipedia": "en:FamilyMart", "contact:phone": "03-3517-1233", "name": "\u30d5\u30a1\u30df\u30ea\u30fc\u30de\u30fc\u30c8", "name:en": "FamilyMart", "name:ja": "\u30d5\u30a1\u30df\u30ea\u30fc\u30de\u30fc\u30c8", "name:ja_rm": "Famir\u012b Mato", "shop": "convenience"}}, {"type": "node", "id": 1367460901, "lat": 35.6868369, "lon": 139.7739314}, {"type": "node", "id": 1367460908, "lat": 35.685462, "lon": 139.77422, "tags": {"amenity": "restaurant", "description": "\u305d\u3070", "name": "\u5409\u7530"}}, {"type": "node", "id": 1367460913, "lat": 35.6847824, "lon": 139.7748973, "tags": {"addr:full": "\u6771\u4eac\u90fd\u4e2d\u592e\u533a\u65e5\u672c\u6a4b\u5ba4\u753a1-7-1", "addr:housename": "\u30b9\u30eb\u30ac\u30d3\u30eb1F", "addr:postcode": "103-0022", "amenity": "cafe", "branch": "\u65e5\u672c\u6a4b\u30b9\u30eb\u30ac\u30d3\u30eb\u5e97", "brand": "\u30b9\u30bf\u30fc\u30d0\u30c3\u30af\u30b9", "brand:en": "Starbucks", "brand:ja": "\u30b9\u30bf\u30fc\u30d0\u30c3\u30af\u30b9", "brand:wikidata": "Q37158", "brand:wikipedia": "ja:\u30b9\u30bf\u30fc\u30d0\u30c3\u30af\u30b9", "check_date:opening_hours": "2020-12-26", "cuisine": "coffee_shop", "drive_through": "no", "level": "0", "name": "\u30b9\u30bf\u30fc\u30d0\u30c3\u30af\u30b9", "name:en": "Starbucks", "name:ja": "\u30b9\u30bf\u30fc\u30d0\u30c3\u30af\u30b9", "name:ja_rm": "Sutah-bakkusu", "official_name": "\u30b9\u30bf\u30fc\u30d0\u30c3\u30af\u30b9\u30b3\u30fc\u30d2\u30fc", "official_name:en": "Starbucks Coffee", "official_name:ja": "\u30b9\u30bf\u30fc\u30d0\u30c3\u30af\u30b9\u30b3\u30fc\u30d2\u30fc", "opening_hours": "Mo-Sa 06:30-22:00; Su,PH 08:00-21:00", "operator": "\u30b9\u30bf\u30fc\u30d0\u30c3\u30af\u30b9\u30b3\u30fc\u30d2\u30fc\u30b8\u30e3\u30d1\u30f3", "phone": "03-5200-2616", "source": "(URL) 2015", "takeaway": "yes", "website": "https://www.starbucks.co.jp/"}}, {"type": "node", "id": 1367460938, "lat": 35.6853241, "lon": 139.7746041, "tags": {"name": "\u5c71\u672c\u6d77\u82d4\u5e97", "name:en": "Yamamoto-Noriten", "shop": "general"}}, {"type": "node", "id": 1367460943, "lat": 35.685132, "lon": 139.774952, "tags": {"amenity": "restaurant", "name": "\u8d8a\u524d\u304a\u308d\u3057\u305d\u3070", "name:zh": "\u835e\u9ea6\u9762\u5e97"}}, {"type": "node", "id": 1367460950, "lat": 35.684562, "lon": 139.773881, "tags": {"description": "\u4e7e\u7269\u5c4b", "name": "\u516b\u6728\u9577", "name:en": "Yagicho", "shop": "general"}}, {"type": "node", "id": 1367460953, "lat": 35.6845269, "lon": 139.7755172, "tags": {"amenity": "restaurant", "description": "\u535a\u591a\u30e9\u30fc\u30e1\u30f3", "name": "\u7531\u25cb"}}, {"type": "node", "id": 1367460955, "lat": 35.6904076, "lon": 139.7724278, "tags": {"amenity": "fast_food", "name": "\u5c0f\u8af8\u305d\u3070", "name:en": "Komoro Soba"}}, {"type": "node", "id": 1367460960, "lat": 35.69044, "lon": 139.772113, "tags": {"brand": "\u30bb\u30d6\u30f3-\u30a4\u30ec\u30d6\u30f3", "brand:en": "7-Eleven", "brand:ja": "\u30bb\u30d6\u30f3-\u30a4\u30ec\u30d6\u30f3", "brand:wikidata": "Q259340", "brand:wikipedia": "en:7-Eleven", "name": "\u30bb\u30d6\u30f3-\u30a4\u30ec\u30d6\u30f3", "name:en": "7-Eleven", "name:ja": "\u30bb\u30d6\u30f3-\u30a4\u30ec\u30d6\u30f3", "name:ja_kana": "\u30bb\u30d6\u30f3-\u30a4\u30ec\u30d6\u30f3", "name:ja_rm": "Sebun Irebun", "name:ko": "\uc138\ube10\uc77c\ub808\ube10", "official_name:en": "Seven-Eleven", "operator": "\u30bb\u30d6\u30f3\u30a4\u30ec\u30d6\u30f3\u30fb\u30b8\u30e3\u30d1\u30f3", "shop": "convenience"}}, {"type": "node", "id": 1367460974, "lat": 35.6875139, "lon": 139.7735884}, {"type": "node", "id": 1367460976, "lat": 35.684882, "lon": 139.773855, "tags": {"name": "\u65e5\u672c\u6a4b\u5c4b\u9577\u5175\u885b", "name:en": "Nihonbashiya Chobei", "shop": "confectionery"}}, {"type": "node", "id": 1367460986, "lat": 35.6847143, "lon": 139.7748146, "tags": {"addr:block_number": "7", "addr:housenumber": "1", "addr:neighbourhood": "1\u4e01\u76ee", "addr:quarter": "\u65e5\u672c\u6a4b\u5b9d\u753a", "addr:suburb": "\u4e2d\u592e\u533a", "amenity": "restaurant", "branch": "\u65e5\u672c\u6a4b\u5e97", "level": "-1", "name": "\u30c8\u30e9\u30c3\u30c8\u30e9\u30fb\u30a4\u30bf\u30ea\u30a2", "name:en": "Trattoria ItaLia", "opening_hours": "11:30-22:30", "phone": "+81-3-6202-0095", "wheelchair": "yes"}}, {"type": "node", "id": 1420766515, "lat": 35.677423, "lon": 139.759282, "tags": {"amenity": "restaurant", "name": "\u6960\u516c\u30ec\u30b9\u30c8\u30cf\u30a6\u30b9", "name:en": "Nank\u014d Restaurant", "note:ja": "\u56fd\u571f\u6570\u5024\u60c5\u5831\uff08\u516c\u5171\u65bd\u8a2d\u30c7\u30fc\u30bf\uff09\u5e73\u621019\u5e74\u3000\u56fd\u571f\u4ea4\u901a\u7701", "source_ref": "http://nlftp.mlit.go.jp/ksj/jpgis/datalist/KsjTmplt-P02-v2_0.html"}}, {"type": "node", "id": 1452260419, "lat": 35.6714969, "lon": 139.7602812, "tags": {"amenity": "restaurant", "branch": "\u9280\u5ea7\u30b3\u30ea\u30c9\u30fc\u5e97", "cuisine": "savory_pancakes", "name": "\u3077\u308c\u3058\u3067\u3093\u3068\u5343\u623f", "name:en": "Chibo", "website": "http://www.chibo.com/"}}, {"type": "node", "id": 1456630976, "lat": 35.6836431, "lon": 139.7417723, "tags": {"addr:housenumber": "4", "addr:postcode": "102-0083", "amenity": "cafe", "fax": "03-3237-3434", "level": "0", "name": "\u9eb9\u753a\u30ab\u30d5\u30a7", "name:en": "Kojimachi Cafe", "opening_hours": "Mo-Fr 11:30-23:00; Sa 12:00-22:00; Su 12:00-18:00", "phone": "03-3237-3434", "smoking": "no", "website": "http://www.kojimachi-cafe.com", "wheelchair": "limited"}}, {"type": "node", "id": 1463963667, "lat": 35.6891655, "lon": 139.7424873, "tags": {"shop": "convenience"}}, {"type": "node", "id": 1482906581, "lat": 35.6824523, "lon": 139.7706883, "tags": {"amenity": "restaurant", "name": "\u6d0b\u9eba\u5c4b\u3000\u4e94\u53f3\u885b\u9580", "name:zh": "\u6d0b\u9762\u5c4b", "wheelchair": "no"}}, {"type": "node", "id": 1482906583, "lat": 35.682797, "lon": 139.770884, "tags": {"amenity": "cafe", "brand": "\u30a8\u30af\u30bb\u30eb\u30b7\u30aa\u30fc\u30eb \u30ab\u30d5\u30a7", "brand:en": "EXCELSIOR CAFF\u00c9", "brand:ja": "\u30a8\u30af\u30bb\u30eb\u30b7\u30aa\u30fc\u30eb \u30ab\u30d5\u30a7", "brand:wikidata": "Q11289828", "brand:wikipedia": "ja:\u30a8\u30af\u30bb\u30eb\u30b7\u30aa\u30fc\u30eb \u30ab\u30d5\u30a7", "cuisine": "coffee_shop", "name": "\u30a8\u30af\u30bb\u30eb\u30b7\u30aa\u30fc\u30eb \u30ab\u30d5\u30a7", "name:en": "EXCELSIOR CAFF\u00c9", "name:ja": "\u30a8\u30af\u30bb\u30eb\u30b7\u30aa\u30fc\u30eb \u30ab\u30d5\u30a7", "takeaway": "yes", "wheelchair": "no"}}, {"type": "node", "id": 1483109762, "lat": 35.6817884, "lon": 139.7704619, "tags": {"amenity": "restaurant", "cuisine": "chinese", "name": "\u798f\u9f8d", "name:en": "Fukuryu", "website": "http://www.cany.co.jp"}}, {"type": "node", "id": 1484520147, "lat": 35.6860982, "lon": 139.7669513, "tags": {"amenity": "restaurant", "name": "DAY\u30fbNITE\u5927\u624b\u753a\u5e97", "name:en": "Day Nite", "website": "http://www.daynite.jp/otemachi/"}}, {"type": "node", "id": 1511441588, "lat": 35.6992606, "lon": 139.7628397, "tags": {"amenity": "restaurant", "cuisine": "french", "name": "Delifrance", "wheelchair": "limited"}}, {"type": "node", "id": 1511441594, "lat": 35.6993378, "lon": 139.7629421, "tags": {"amenity": "fast_food", "branch": "\u5fa1\u8336\u30ce\u6c34\u99c5\u524d\u30d5\u30a1\u30df\u30ea\u30fc\u30de\u30fc\u30c8\u5e97", "brand": "\u30b5\u30d6\u30a6\u30a7\u30a4", "brand:en": "Subway", "brand:ja": "\u30b5\u30d6\u30a6\u30a7\u30a4", "brand:wikidata": "Q244457", "brand:wikipedia": "ja:\u30b5\u30d6\u30a6\u30a7\u30a4", "cuisine": "sandwich", "level": "0", "name": "\u30b5\u30d6\u30a6\u30a7\u30a4", "name:en": "Subway", "name:ja": "\u30b5\u30d6\u30a6\u30a7\u30a4", "name:ja_rm": "Sabuwei", "opening_hours": "wd 07:00-21:00; Sa 08:00-20:00", "operator": "\u65e5\u672c\u30b5\u30d6\u30a6\u30a7\u30a4", "phone": "+81-3-52817530", "source": "(URL)", "takeaway": "yes", "website": "https://www.subway.co.jp/", "wheelchair": "yes"}}, {"type": "node", "id": 1511441600, "lat": 35.6988685, "lon": 139.7626672, "tags": {"amenity": "restaurant", "cuisine": "italian", "name": "\u30ca\u30dd\u30ea\u306e\u4e0b\u753a\u98df\u5802", "wheelchair": "no"}}, {"type": "node", "id": 1511441654, "lat": 35.6997275, "lon": 139.7636851}, {"type": "node", "id": 1511441655, "lat": 35.6997488, "lon": 139.7636135}, {"type": "node", "id": 1511441659, "lat": 35.6997773, "lon": 139.7637075}, {"type": "node", "id": 1511441660, "lat": 35.6997985, "lon": 139.763636}, {"type": "node", "id": 1511441661, "lat": 35.6994, "lon": 139.7629135, "tags": {"branch": "\u5fa1\u8336\u30ce\u6c34\u99c5\u524d\u5e97", "brand": "\u30d5\u30a1\u30df\u30ea\u30fc\u30de\u30fc\u30c8", "brand:en": "FamilyMart", "brand:ja": "\u30d5\u30a1\u30df\u30ea\u30fc\u30de\u30fc\u30c8", "brand:wikidata": "Q1191685", "brand:wikipedia": "en:FamilyMart", "name": "\u30d5\u30a1\u30df\u30ea\u30fc\u30de\u30fc\u30c8", "name:en": "FamilyMart", "name:ja": "\u30d5\u30a1\u30df\u30ea\u30fc\u30de\u30fc\u30c8", "name:ja-Latn": "Famir\u012b M\u0101to", "name:ja_kana": "\u3075\u3041\u307f\u308a\u30fc\u307e\u30fc\u3068", "name:ja_rm": "Famir\u012b M\u0101to", "shop": "convenience", "wheelchair": "yes"}}, {"type": "node", "id": 1511441662, "lat": 35.6991541, "lon": 139.7628061, "tags": {"amenity": "fast_food", "brand": "\u30de\u30af\u30c9\u30ca\u30eb\u30c9", "brand:en": "McDonald's", "brand:ja": "\u30de\u30af\u30c9\u30ca\u30eb\u30c9", "brand:wikidata": "Q38076", "brand:wikipedia": "ja:\u30de\u30af\u30c9\u30ca\u30eb\u30c9", "cuisine": "burger", "name": "\u30de\u30af\u30c9\u30ca\u30eb\u30c9", "name:en": "McDonald's", "name:ja": "\u30de\u30af\u30c9\u30ca\u30eb\u30c9", "name:ja_rm": "Makudonarudo", "opening_hours": "24/7", "takeaway": "yes", "wheelchair": "yes"}}, {"type": "node", "id": 1530426500, "lat": 35.69544, "lon": 139.75931, "tags": {"addr:block_number": "5", "addr:full": "\u6771\u4eac\u90fd\u5343\u4ee3\u7530\u533a\u795e\u7530\u795e\u4fdd\u753a1-5", "addr:neighbourhood": "1\u4e01\u76ee", "addr:postcode": "101-0051", "addr:province": "\u6771\u4eac\u90fd", "addr:quarter": "\u795e\u7530\u795e\u4fdd\u753a", "addr:suburb": "\u5343\u4ee3\u7530\u533a", "atm": "yes", "branch": "\u795e\u7530\u3059\u305a\u3089\u3093\u901a\u308a\u5e97", "brand": "\u30bb\u30d6\u30f3-\u30a4\u30ec\u30d6\u30f3", "brand:en": "7-Eleven", "brand:ja": "\u30bb\u30d6\u30f3-\u30a4\u30ec\u30d6\u30f3", "brand:wikidata": "Q259340", "brand:wikipedia": "en:7-Eleven", "cash_withdrawal": "yes", "changing_table": "no", "contact:phone": "+81 3-3233-2010", "internet_access": "wlan", "level": "0", "name": "\u30bb\u30d6\u30f3-\u30a4\u30ec\u30d6\u30f3", "name:en": "7-Eleven", "name:ja": "\u30bb\u30d6\u30f3-\u30a4\u30ec\u30d6\u30f3", "name:ja_rm": "Sebun Irebun", "name:ko": "\uc138\ube10\uc77c\ub808\ube10", "official_name:en": "Seven-Eleven", "opening_hours": "24/7", "operator": "\u30bb\u30d6\u30f3\u30a4\u30ec\u30d6\u30f3\u30fb\u30b8\u30e3\u30d1\u30f3", "organic": "no", "phone": "+81 3-3233-2010", "shop": "convenience", "source": "(URL) 2015", "toilets": "no", "website": "http://www.sej.co.jp/", "wheelchair": "yes"}}, {"type": "node", "id": 1566526323, "lat": 35.7000072, "lon": 139.7427385}, {"type": "node", "id": 1566526330, "lat": 35.7000313, "lon": 139.7426976}, {"type": "node", "id": 1566526333, "lat": 35.7000555, "lon": 139.7427818}, {"type": "node", "id": 1566526338, "lat": 35.7000797, "lon": 139.7427409}, {"type": "node", "id": 1576518221, "lat": 35.7002161, "lon": 139.7429903, "tags": {"amenity": "restaurant", "name": "Lasana'"}}, {"type": "node", "id": 1576527469, "lat": 35.7007375, "lon": 139.7422336, "tags": {"brand": "\u30d5\u30a1\u30df\u30ea\u30fc\u30de\u30fc\u30c8", "brand:en": "FamilyMart", "brand:ja": "\u30d5\u30a1\u30df\u30ea\u30fc\u30de\u30fc\u30c8", "brand:wikidata": "Q1191685", "brand:wikipedia": "ja:\u30d5\u30a1\u30df\u30ea\u30fc\u30de\u30fc\u30c8", "name": "\u30d5\u30a1\u30df\u30ea\u30fc\u30de\u30fc\u30c8", "name:en": "FamilyMart", "name:ja": "\u30d5\u30a1\u30df\u30ea\u30fc\u30de\u30fc\u30c8", "name:ja_rm": "Famir\u012b Mato", "shop": "convenience", "toilets": "yes"}}, {"type": "node", "id": 1576527472, "lat": 35.7007767, "lon": 139.7421694, "tags": {"addr:full": "\u6771\u4eac\u90fd\u65b0\u5bbf\u533a\u795e\u697d\u57422-10", "addr:housenumber": "\u65b0\u5bbf\u533a\u795e\u697d\u5742\uff12\uff0d\uff11\uff10", "addr:postcode": "162-0825", "addr:street": "\u795e\u697d\u5742\u901a\u308a", "amenity": "fast_food", "branch": "\u795e\u697d\u5742\u5e97", "brand": "\u30de\u30af\u30c9\u30ca\u30eb\u30c9", "brand:en": "McDonald's", "brand:ja": "\u30de\u30af\u30c9\u30ca\u30eb\u30c9", "brand:wikidata": "Q38076", "brand:wikipedia": "ja:\u30de\u30af\u30c9\u30ca\u30eb\u30c9", "contact:phone": "+81 3-3267-0502", "cuisine": "burger", "cuisine:ja": "\u30cf\u30f3\u30d0\u30fc\u30ac\u30fc", "internet_access": "yes", "name": "\u30de\u30af\u30c9\u30ca\u30eb\u30c9", "name:en": "McDonald's", "name:ja": "\u30de\u30af\u30c9\u30ca\u30eb\u30c9", "name:ja_rm": "Makudonarudo", "name:ko": "\ub9e5\ub3c4\ub0a0\ub4dc", "opening_hours": "24/7", "operator": "\u65e5\u672c\u30de\u30af\u30c9\u30ca\u30eb\u30c9", "power_supply": "yes", "takeaway": "yes", "website": "http://www.mcdonalds.co.jp/shop/map/map.php?strcode=13919", "wheelchair": "yes", "wifi": "yes"}}, {"type": "node", "id": 1576527474, "lat": 35.7005887, "lon": 139.742075, "tags": {"amenity": "restaurant", "cuisine": "japanese", "name": "\u5fd7\u6e80\u91d1"}}, {"type": "node", "id": 1580357419, "lat": 35.6998686, "lon": 139.7474169}, {"type": "node", "id": 1580357471, "lat": 35.6999162, "lon": 139.7473511}, {"type": "node", "id": 1580357516, "lat": 35.699959, "lon": 139.7475162}, {"type": "node", "id": 1580357552, "lat": 35.7000047, "lon": 139.747468}, {"type": "node", "id": 1580357554, "lat": 35.7000066, "lon": 139.7474504}, {"type": "node", "id": 1586512578, "lat": 35.6832419, "lon": 139.7409663}, {"type": "node", "id": 1586512581, "lat": 35.6832557, "lon": 139.7410411}, {"type": "node", "id": 1586512598, "lat": 35.6833227, "lon": 139.7409438}, {"type": "node", "id": 1586512602, "lat": 35.6833364, "lon": 139.7410186}, {"type": "node", "id": 1597730179, "lat": 35.7006525, "lon": 139.7423496, "tags": {"amenity": "fast_food", "cuisine": "japanese", "cuisine:ja": "\u3042\u3093\u307f\u3064", "name": "\u7d00\u306e\u5584"}}, {"type": "node", "id": 1606569376, "lat": 35.7006287, "lon": 139.742397, "tags": {"brand": "\u4e0d\u4e8c\u5bb6", "cuisine": "pekochan-yaki", "cuisine:ja": "\u30da\u30b3\u3061\u3083\u3093\u713c", "level": "-0.5", "name": "\u4e0d\u4e8c\u5bb6 (Fujiya)", "name:en": "Fujiya", "name:ja": "\u4e0d\u4e8c\u5bb6", "name:ja_rm": "Fujiya", "shop": "confectionery"}}, {"type": "node", "id": 1606569385, "lat": 35.7006527, "lon": 139.7424064, "tags": {"addr:full": "\u6771\u4eac\u90fd\u65b0\u5bbf\u533a\u795e\u697d\u57421-12", "amenity": "cafe", "branch": "\u98ef\u7530\u6a4b\u795e\u697d\u5742\u5e97", "brand": "\u30c9\u30c8\u30fc\u30eb\u30b3\u30fc\u30d2\u30fc\u30b7\u30e7\u30c3\u30d7", "brand:en": "Doutor", "brand:ja": "\u30c9\u30c8\u30fc\u30eb\u30b3\u30fc\u30d2\u30fc\u30b7\u30e7\u30c3\u30d7", "brand:wikidata": "Q11322732", "brand:wikipedia": "ja:\u30c9\u30c8\u30fc\u30eb\u30b3\u30fc\u30d2\u30fc\u30b7\u30e7\u30c3\u30d7", "contact:phone": "+81 3-5225-1028", "cuisine": "coffee_shop", "level": "1", "name": "\u30c9\u30c8\u30fc\u30eb\u30b3\u30fc\u30d2\u30fc\u30b7\u30e7\u30c3\u30d7", "name:en": "Doutor Coffee Shop", "name:ja": "\u30c9\u30c8\u30fc\u30eb\u30b3\u30fc\u30d2\u30fc\u30b7\u30e7\u30c3\u30d7", "name:ja_rm": "Dotoru Kohi Shoppu", "opening_hours": "Mo-Fr 07:00-22:20; Sa,Su,PH 08:00-22:20", "operator": "\u30c9\u30c8\u30fc\u30eb\u30b3\u30fc\u30d2\u30fc", "operator:wikidata": "Q11322732", "operator:wikipedia": "ja:\u30c9\u30c8\u30fc\u30eb\u30b3\u30fc\u30d2\u30fc\u30b7\u30e7\u30c3\u30d7", "smoking": "separated", "source": "(URL) 2015", "takeaway": "yes", "website": "https://www.doutor.co.jp/dcs/", "wifi": "no"}}, {"type": "node", "id": 1606572690, "lat": 35.7005656, "lon": 139.7425498, "tags": {"amenity": "fast_food", "cuisine": "curry", "cuisine:ja": "\u30ab\u30ec\u30fc", "name": "\u30dc\u30ca\u30c3", "name:en": "Bona", "name:ja": "\u30dc\u30ca\u30c3", "name:ja_rm": "Bona"}}, {"type": "node", "id": 1606621651, "lat": 35.700753, "lon": 139.7423191, "tags": {"amenity": "fast_food", "cuisine": "ramen", "cuisine:ja": "\u30e9\u30fc\u30e1\u30f3", "name": "\u9ed2\u5175\u885b (Kurobe)", "name:en": "Kurobe", "name:ja": "\u9ed2\u5175\u885b", "name:ja_rm": "Kurobe"}}, {"type": "node", "id": 1606621666, "lat": 35.7009467, "lon": 139.7424265, "tags": {"amenity": "restaurant", "cuisine": "japanese", "cuisine:ja": "\u548c\u98df", "name": "\u5fcd\u5ead"}}, {"type": "node", "id": 1608361988, "lat": 35.7008138, "lon": 139.742271, "tags": {"addr:full": "\u6771\u4eac\u90fd\u65b0\u5bbf\u533a\u795e\u697d\u57422-10", "addr:postcode": "162-0825", "amenity": "restaurant", "contact:phone": "+81 3-6280-7696", "cuisine": "chinese", "cuisine:ja": "\u4e2d\u83ef\u6599\u7406", "level": "-1", "name": "\u6c34\u6f2b\u5ead (Suimantei)", "name:en": "Suimantei", "name:ja": "\u6c34\u6f2b\u5ead", "name:ja_rm": "Suimantei", "opening_hours": "Mo-Fr 11:00-15:00, 17:00-23:00; Sa-Su 11:00-23:00", "website": "https://r.gnavi.co.jp/gax2600/"}}, {"type": "node", "id": 1608387934, "lat": 35.7008291, "lon": 139.7422281, "tags": {"addr:full": "\u6771\u4eac\u90fd\u65b0\u5bbf\u533a\u795e\u697d\u57422-10", "addr:postcode": "162-0825", "amenity": "pub", "branch": "\u795e\u697d\u5742\u5e97", "contact:phone": "+81 50-5518-7714", "cuisine": "japanese", "cuisine:ja": "\u548c\u98df", "level": "-1", "name": "\u5869\u6885 (Anbai)", "name:en": "Anbai", "name:ja": "\u5869\u6885", "name:ja_rm": "Anbai", "opening_hours": "Mo-Su 11:30-14:00, 17:00-24:00", "website": "https://r.gnavi.co.jp/ga48034/"}}, {"type": "node", "id": 1608455997, "lat": 35.7008378, "lon": 139.7421933, "tags": {"addr:full": "\u6771\u4eac\u90fd\u65b0\u5bbf\u533a\u795e\u697d\u57422-10", "addr:postcode": "162-0825", "amenity": "pub", "branch": "\u795e\u697d\u5742\u5e97", "contact:phone": "+81 50-5815-4449", "cuisine": "japanese", "cuisine:ja": "\u548c\u98df", "level": "-1", "name": "\u5e84\u3084 (Shoya)", "name:en": "Shoya", "name:ja": "\u5e84\u3084", "name:ja_rm": "Shoyai", "opening_hours": "Su-Th 15:00-02:00, Fr-Sa 15:00-04:00", "website": "https://www.hotpepper.jp/strJ000031851/"}}, {"type": "node", "id": 1623114621, "lat": 35.6710847, "lon": 139.7609041}, {"type": "node", "id": 1623114638, "lat": 35.6711215, "lon": 139.760854}, {"type": "node", "id": 1623114689, "lat": 35.6712222, "lon": 139.7610572}, {"type": "node", "id": 1623114715, "lat": 35.6712591, "lon": 139.7610071}, {"type": "node", "id": 1634099726, "lat": 35.6956743, "lon": 139.7587331, "tags": {"amenity": "cafe", "name": "TAM TAM"}}, {"type": "node", "id": 1634099739, "lat": 35.6955716, "lon": 139.758563, "tags": {"amenity": "cafe", "name": "\u3055\u307c\u3046\u308b2", "name:en": "Saboul2", "opening_hours": "Mo-Sa 09:00-22:00"}}, {"type": "node", "id": 1634099746, "lat": 35.6955733, "lon": 139.7586758, "tags": {"amenity": "cafe", "name": "\u3055\u307c\u3046\u308b", "name:en": "Saboul", "opening_hours": "Mo-Sa 09:30-23:00"}}, {"type": "node", "id": 1634100056, "lat": 35.695631, "lon": 139.7585388, "tags": {"amenity": "restaurant", "cuisine": "chinese", "name": "\u4e2d\u83ef\u53a8\u623f \u4e00\u756a\u9928", "name:en": "Chinese Kitchen Ichibankan"}}, {"type": "node", "id": 1634100061, "lat": 35.6955775, "lon": 139.7587549, "tags": {"amenity": "restaurant", "cuisine": "sushi", "name": "\u516d\u6d5c", "name:en": "Rokuhama"}}, {"type": "node", "id": 1634100073, "lat": 35.6958315, "lon": 139.7603327, "tags": {"amenity": "restaurant", "cuisine": "seafood", "level": "0", "name": "\u6d77\u9bae\u4e3c \u304d\u3068\u304d\u3068", "name:en": "Kitokito"}}, {"type": "node", "id": 1634100096, "lat": 35.6955858, "lon": 139.7608236, "tags": {"amenity": "restaurant", "level": "-1", "name": "\u653e\u5fc3\u4ead"}}, {"type": "node", "id": 1635037311, "lat": 35.6958544, "lon": 139.7612239, "tags": {"amenity": "fast_food", "cuisine": "noodle", "cuisine:ja": "\u305d\u3070\u3001\u3046\u3069\u3093", "level": "0", "name": "\u5c0f\u8af8\u305d\u3070", "name:en": "Komoro Soba"}}, {"type": "node", "id": 1635104298, "lat": 35.6943193, "lon": 139.7650527, "tags": {"amenity": "fast_food", "name": "\u9054\u78e8\u795e\u7530", "takeaway": "only"}}, {"type": "node", "id": 1635104303, "lat": 35.694675, "lon": 139.7620963, "tags": {"amenity": "fast_food", "cuisine": "noodle", "cuisine:ja": "\u30e9\u30fc\u30e1\u30f3", "level": "1", "name": "\u304a\u8336\u306e\u6c34 \u5927\u52dd\u8ed2", "name:en": "Ochanomizu Taishoken"}}, {"type": "node", "id": 1635104307, "lat": 35.6943359, "lon": 139.7649407, "tags": {"amenity": "restaurant", "branch": "\u795e\u7530\u5c0f\u5ddd\u753a\u5e97", "name": "\u4e0a\u7b49\u30ab\u30ec\u30fc", "name:en": "Joto Curry", "website": "http://www.tokumasa.net/original88.html"}}, {"type": "node", "id": 1635104326, "lat": 35.6942138, "lon": 139.7629661, "tags": {"addr:full": "\u6771\u4eac\u90fd\u5343\u4ee3\u7530\u533a\u795e\u7530\u5c0f\u5ddd\u753a2-5-5", "addr:housename": "\u7d00\u967d\u6771\u4eac\u30d3\u30eb1F", "addr:postcode": "101-0052", "amenity": "cafe", "branch": "\u795e\u7530\u5c0f\u5ddd\u753a2\u4e01\u76ee\u5e97", "brand": "\u30b9\u30bf\u30fc\u30d0\u30c3\u30af\u30b9", "brand:en": "Starbucks", "brand:ja": "\u30b9\u30bf\u30fc\u30d0\u30c3\u30af\u30b9", "brand:wikidata": "Q37158", "brand:wikipedia": "ja:\u30b9\u30bf\u30fc\u30d0\u30c3\u30af\u30b9", "cuisine": "coffee_shop", "drive_through": "no", "internet_access": "wlan", "level": "0", "name": "\u30b9\u30bf\u30fc\u30d0\u30c3\u30af\u30b9", "name:en": "Starbucks", "name:ja": "\u30b9\u30bf\u30fc\u30d0\u30c3\u30af\u30b9", "name:ja_rm": "Sutah-bakkusu", "official_name": "\u30b9\u30bf\u30fc\u30d0\u30c3\u30af\u30b9\u30b3\u30fc\u30d2\u30fc", "official_name:en": "Starbucks Coffee", "official_name:ja": "\u30b9\u30bf\u30fc\u30d0\u30c3\u30af\u30b9\u30b3\u30fc\u30d2\u30fc", "opening_hours": "Mo-fr 07:00-22:00; Sa,Su,PH 09:00-21:00", "operator": "\u30b9\u30bf\u30fc\u30d0\u30c3\u30af\u30b9\u30b3\u30fc\u30d2\u30fc\u30b8\u30e3\u30d1\u30f3", "phone": "+81-3-52811115", "source": "(URL) 2015", "takeaway": "yes", "website": "https://www.starbucks.co.jp/"}}, {"type": "node", "id": 1635104707, "lat": 35.6949851, "lon": 139.7617109, "tags": {"amenity": "restaurant", "brand": "\u4e38\u4e80\u88fd\u9eba", "brand:en": "Marugame Seimen", "brand:ja": "\u4e38\u4e80\u88fd\u9eba", "brand:wikidata": "Q10877253", "brand:wikipedia": "ja:\u4e38\u4e80\u88fd\u9eba", "cuisine": "noodle", "cuisine:ja": "\u305d\u3070\u3001\u3046\u3069\u3093", "name": "\u4e38\u4e80\u88fd\u9eba", "name:en": "Marugame Seimen", "name:ja": "\u4e38\u4e80\u88fd\u9eba"}}, {"type": "node", "id": 1635104715, "lat": 35.6944601, "lon": 139.762381, "tags": {"amenity": "restaurant", "name": "YAKI NIKU"}}, {"type": "node", "id": 1635104723, "lat": 35.6943438, "lon": 139.7649771, "tags": {"amenity": "fast_food", "brand": "\u677e\u5c4b", "brand:en": "Matsuya", "brand:ja": "\u677e\u5c4b", "brand:wikidata": "Q848773", "brand:wikipedia": "ja:\u677e\u5c4b\u30d5\u30fc\u30ba", "cuisine": "japanese", "cuisine:ja": "\u725b\u4e3c", "name": "\u677e\u5c4b", "name:en": "Matsuya", "name:ja": "\u677e\u5c4b", "name:ja_rm": "Matsuya", "official_name": "\u677e\u5c4b\u30d5\u30fc\u30ba", "official_name:en": "Matsuya Foods", "official_name:ja": "\u677e\u5c4b\u30d5\u30fc\u30ba", "takeaway": "yes"}}, {"type": "node", "id": 1635104740, "lat": 35.6943136, "lon": 139.7648253, "tags": {"amenity": "pub", "brand": "\u9b5a\u6c11", "brand:en": "Uotami", "brand:ja": "\u9b5a\u6c11", "brand:wikidata": "Q11673981", "name": "\u9b5a\u6c11", "name:en": "Uotami", "name:ja": "\u9b5a\u6c11", "name:ja_rm": "Uotami"}}, {"type": "node", "id": 1635112897, "lat": 35.6943665, "lon": 139.7655667, "tags": {"amenity": "cafe", "name": "EXCELCIOR CAFE"}}, {"type": "node", "id": 1635112937, "lat": 35.6943122, "lon": 139.7650853, "tags": {"name": "\u5bdb\u6c38\u5802", "name:en": "Kan'eido", "shop": "confectionery"}}, {"type": "node", "id": 1635233537, "lat": 35.6946376, "lon": 139.7661051, "tags": {"amenity": "cafe", "name": "BLENZ coffee"}}, {"type": "node", "id": 1635233552, "lat": 35.6954613, "lon": 139.7671551, "tags": {"addr:full": "\u6771\u4eac\u90fd\u5343\u4ee3\u7530\u533a\u795e\u7530\u6de1\u8def\u753a1-1-1", "amenity": "cafe", "branch": "\u6de1\u8def\u753a\u5e97", "brand": "\u30bf\u30ea\u30fc\u30ba\u30b3\u30fc\u30d2\u30fc", "brand:en": "Tully's Coffee", "brand:ja": "\u30bf\u30ea\u30fc\u30ba\u30b3\u30fc\u30d2\u30fc", "brand:wikidata": "Q3541983", "brand:wikipedia": "en:Tully's Coffee", "contact:phone": "0081352987010", "cuisine": "coffee_shop", "internet_access": "wlan", "name": "\u30bf\u30ea\u30fc\u30ba\u30b3\u30fc\u30d2\u30fc", "name:en": "Tully's Coffee", "name:ja": "\u30bf\u30ea\u30fc\u30ba\u30b3\u30fc\u30d2\u30fc", "name:ja_rm": "Tar\u012bzu Koh\u012b", "opening_hours": "Mo-Fr 07:00-22:30; Sa 07:00-22:00; Sa,Su,PH 08:00-22:00", "operator": "\u30bf\u30ea\u30fc\u30ba\u30b3\u30fc\u30d2\u30fc\u30b8\u30e3\u30d1\u30f3", "smoking": "yes", "source": "(URL) 2015", "takeaway": "yes", "website": "http://www.tullys.co.jp/", "wikidata": "Q11316408", "wikipedia": "ja:\u30bf\u30ea\u30fc\u30ba\u30b3\u30fc\u30d2\u30fc\u30b8\u30e3\u30d1\u30f3"}}, {"type": "node", "id": 1635233561, "lat": 35.6949121, "lon": 139.7668251, "tags": {"amenity": "pub", "level": "1", "name": "\u306f\u3093\u305e\u3046", "name:en": "Hanzo"}}, {"type": "node", "id": 1635233588, "lat": 35.6954505, "lon": 139.7671197, "tags": {"amenity": "pub", "name": "\u30c6\u30f3\u30b0\u9152\u5834", "name:en": "Tengu Sakaba"}}, {"type": "node", "id": 1635233592, "lat": 35.6951594, "lon": 139.7676302, "tags": {"addr:full": "\u6771\u4eac\u90fd\u5343\u4ee3\u7530\u533a\u795e\u7530\u9808\u7530\u753a1-2-1", "addr:housename": "\u30ab\u30eb\u30d5\u30fc\u30eb\u795e\u7530", "amenity": "cafe", "branch": "\u795e\u7530\u6de1\u8def\u753a\u5e97", "brand": "\u30c9\u30c8\u30fc\u30eb\u30b3\u30fc\u30d2\u30fc\u30b7\u30e7\u30c3\u30d7", "brand:en": "Doutor", "brand:ja": "\u30c9\u30c8\u30fc\u30eb\u30b3\u30fc\u30d2\u30fc\u30b7\u30e7\u30c3\u30d7", "brand:wikidata": "Q11322732", "brand:wikipedia": "ja:\u30c9\u30c8\u30fc\u30eb\u30b3\u30fc\u30d2\u30fc\u30b7\u30e7\u30c3\u30d7", "cuisine": "coffee_shop", "name": "\u30c9\u30c8\u30fc\u30eb\u30b3\u30fc\u30d2\u30fc\u30b7\u30e7\u30c3\u30d7", "name:en": "Doutor Coffee Shop", "name:ja": "\u30c9\u30c8\u30fc\u30eb\u30b3\u30fc\u30d2\u30fc\u30b7\u30e7\u30c3\u30d7", "name:ja_rm": "Dotoru Kohi Shoppu", "opening_hours": "Mo-Fr 07:00-21:00; Sa 07:30-19:00; Su,PH 08:00-19:00", "operator": "\u30c9\u30c8\u30fc\u30eb\u30b3\u30fc\u30d2\u30fc", "operator:wikidata": "Q11322732", "operator:wikipedia": "ja:\u30c9\u30c8\u30fc\u30eb\u30b3\u30fc\u30d2\u30fc\u30b7\u30e7\u30c3\u30d7", "phone": "+81 3-5294-0908", "smoking": "separated", "source": "(URL) 2015", "takeaway": "yes", "website": "https://www.doutor.co.jp/dcs/", "wifi": "no"}}, {"type": "node", "id": 1635233860, "lat": 35.6949864, "lon": 139.7669993, "tags": {"amenity": "cafe", "brand": "\u30eb\u30ce\u30a2\u30fc\u30eb", "brand:en": "Renoir", "brand:ja": "\u30eb\u30ce\u30a2\u30fc\u30eb", "brand:wikidata": "Q11649991", "brand:wikipedia": "ja:\u9280\u5ea7\u30eb\u30ce\u30a2\u30fc\u30eb", "cuisine": "coffee_shop", "name": "\u30eb\u30ce\u30a2\u30fc\u30eb", "name:en": "Renoir", "name:ja": "\u30eb\u30ce\u30a2\u30fc\u30eb", "official_name": "\u55ab\u8336\u5ba4\u30eb\u30ce\u30a2\u30fc\u30eb", "official_name:en": "Ginza Renoir", "official_name:ja": "\u55ab\u8336\u5ba4\u30eb\u30ce\u30a2\u30fc\u30eb", "takeaway": "yes"}}, {"type": "node", "id": 1635279734, "lat": 35.6961335, "lon": 139.7688352, "tags": {"amenity": "restaurant", "name": "INAGAKI"}}, {"type": "node", "id": 1635279739, "lat": 35.6961164, "lon": 139.7687772, "tags": {"addr:block_number": "13", "addr:city": "\u5343\u4ee3\u7530\u533a", "addr:county": "\u6771\u4eac\u90fd", "addr:neighbourhood": "1\u4e01\u76ee", "addr:postcode": "101-0041", "addr:province": "\u6771\u4eac\u90fd", "addr:quarter": "\u795e\u7530\u9808\u7530\u753a", "amenity": "restaurant", "cuisine": "Soba", "cuisine:ja": "\u305d\u3070", "name": "\u795e\u7530\u307e\u3064\u3084", "name:en": "Kanda Matsuya", "opening_hours": "Mo-Fr 11:00-20:00; Sa, PH 11:00-19:00; Su off", "phone": "+81-3-3251-1556", "website": "http://www.kanda-matsuya.jp/", "wikidata": "Q11590540", "wikipedia": "ja:\u795e\u7530\u307e\u3064\u3084"}}, {"type": "node", "id": 1635279747, "lat": 35.6962133, "lon": 139.7690307, "tags": {"amenity": "restaurant", "name": "\u30c6\u30b9\u30bf\u30c9\u30a5\u30fc\u30e9"}}, {"type": "node", "id": 1635279750, "lat": 35.6962689, "lon": 139.7691821, "tags": {"amenity": "restaurant", "cuisine": "indian", "name": "\u30c8\u30d7\u30ab"}}, {"type": "node", "id": 1635279886, "lat": 35.6965257, "lon": 139.769134}, {"type": "node", "id": 1635279895, "lat": 35.6965711, "lon": 139.769248}, {"type": "node", "id": 1635279897, "lat": 35.6965532, "lon": 139.7690999}, {"type": "node", "id": 1635279899, "lat": 35.6965587, "lon": 139.7691139}, {"type": "node", "id": 1635279901, "lat": 35.6965805, "lon": 139.7690837}, {"type": "node", "id": 1635279903, "lat": 35.6966309, "lon": 139.7692122}, {"type": "node", "id": 1635279964, "lat": 35.6968096, "lon": 139.7693663, "tags": {"amenity": "cafe", "level": "1", "name": "80's Cafe"}}, {"type": "node", "id": 1654251446, "lat": 35.6994145, "lon": 139.7648526, "tags": {"amenity": "restaurant", "cuisine": "regional", "name": "\u304a\u304d\u306a\u308f\u8ed2", "name:en": "Okinawa-ken", "name:ko": "\uc624\ud0a4\ub098\uc640\ucf04", "wheelchair": "no"}}, {"type": "node", "id": 1654251447, "lat": 35.6994496, "lon": 139.7647624, "tags": {"amenity": "restaurant", "cuisine": "chinese", "name": "\u304a\u8336\u306e\u6c34\u5712", "name:en": "Ochanoizu-en"}}, {"type": "node", "id": 1654251448, "lat": 35.6993771, "lon": 139.7651001, "tags": {"amenity": "restaurant", "cuisine:ja": "\u9244\u677f\u713c\u304d", "level": "1", "name": "\u30ad\u30c3\u30c1\u30f3\u30ab\u30ed\u30ea\u30fc", "wheelchair": "no"}}, {"type": "node", "id": 1654251449, "lat": 35.6993697, "lon": 139.7650976, "tags": {"amenity": "restaurant", "cuisine": "burger", "cuisine:ja": "\u30cf\u30f3\u30d0\u30fc\u30b0", "name": "\u30b6\u30fb\u30cf\u30f3\u30d0\u30fc\u30b0", "wheelchair": "no"}}, {"type": "node", "id": 1654251465, "lat": 35.6993687, "lon": 139.7651245, "tags": {"amenity": "fast_food", "check_date": "2022-08-11", "cuisine": "noodle", "cuisine:ja": "\u305d\u3070\u3001\u3046\u3069\u3093", "name": "\u304a\u306b\u3084\u3093\u307e", "name:en": "Oniyanma", "wheelchair": "no"}}, {"type": "node", "id": 1654251469, "lat": 35.6993768, "lon": 139.7650773, "tags": {"amenity": "restaurant", "cuisine": "indian", "name": "\u30ab\u30ec\u30fc\u5c4b\u30b8\u30e7\u30cb\u30fc", "name:en": "Curry-ya Johnny", "wheelchair": "no"}}, {"type": "node", "id": 1654251511, "lat": 35.6994218, "lon": 139.764814, "tags": {"amenity": "fast_food", "brand": "\u65e5\u9ad8\u5c4b", "brand:en": "Hidakaya", "brand:wikidata": "Q11326050", "brand:wikipedia": "ja:\u30cf\u30a4\u30c7\u30a4\u65e5\u9ad8", "cuisine": "noodle", "cuisine:ja": "\u30e9\u30fc\u30e1\u30f3", "name": "\u65e5\u9ad8\u5c4b", "name:en": "Hidakaya", "takeaway": "yes", "wheelchair": "yes"}}, {"type": "node", "id": 1700722451, "lat": 35.6872453, "lon": 139.7364163, "tags": {"brand": "\u30ed\u30fc\u30bd\u30f3", "brand:en": "LAWSON", "brand:ja": "\u30ed\u30fc\u30bd\u30f3", "brand:wikidata": "Q1557223", "brand:wikipedia": "ja:\u30ed\u30fc\u30bd\u30f3", "name": "\u30ed\u30fc\u30bd\u30f3", "name:en": "Lawson", "name:ja": "\u30ed\u30fc\u30bd\u30f3", "name:ko": "\ub85c\uc190", "shop": "convenience"}}, {"type": "node", "id": 1704130385, "lat": 35.692146, "lon": 139.7439485, "tags": {"amenity": "restaurant", "name": "\u3064\u3051\u9eba \u6854\u6897"}}, {"type": "node", "id": 1746046228, "lat": 35.6742683, "lon": 139.7619613, "tags": {"amenity": "fast_food", "cuisine": "noodle;ramen", "cuisine:ja": "\u30e9\u30fc\u30e1\u30f3", "name": "\u559c\u591a\u65b9\u30e9\u30fc\u30e1\u30f3\u5742\u5185", "source": "image;Bing,2007-03"}}, {"type": "node", "id": 1814905039, "lat": 35.6998313, "lon": 139.7628768, "tags": {"brand": "\u30df\u30cb\u30b9\u30c8\u30c3\u30d7", "brand:en": "Ministop", "brand:ja": "\u30df\u30cb\u30b9\u30c8\u30c3\u30d7", "brand:wikidata": "Q1038929", "brand:wikipedia": "ja:\u30df\u30cb\u30b9\u30c8\u30c3\u30d7", "name": "\u30df\u30cb\u30b9\u30c8\u30c3\u30d7", "name:en": "Ministop", "name:ja": "\u30df\u30cb\u30b9\u30c8\u30c3\u30d7", "name:ja_rm": "Mini Sutoppu", "name:ko": "\ubbf8\ub2c8\uc2a4\ud1b1", "shop": "convenience", "source": "image;Bing,2007-04", "website": "https://www.ministop.co.jp/", "wheelchair": "no"}}, {"type": "node", "id": 1814905040, "lat": 35.6997967, "lon": 139.7630074, "tags": {"amenity": "fast_food", "cuisine": "noodle;ramen", "cuisine:ja": "\u3068\u3093\u3053\u3064\u30e9\u30fc\u30e1\u30f3", "name": "\u535a\u591a\u5929\u795e", "name:en": "Hakata Tenjin", "source": "image;Bing,2007-04", "wheelchair": "no"}}, {"type": "node", "id": 1815436164, "lat": 35.6987371, "lon": 139.7686214, "tags": {"amenity": "pub", "name": "\u3061\u3083\u3044\u4e5d\u7089", "source": "image;Bing,2007-04"}}, {"type": "node", "id": 1815436165, "lat": 35.6986838, "lon": 139.7686598, "tags": {"amenity": "pub", "name": "\u307e\u3050\u308d\u4ead", "name:en": "Magurotei", "source": "image;Bing,2007-04"}}, {"type": "node", "id": 1815436166, "lat": 35.6995857, "lon": 139.7667071, "tags": {"amenity": "restaurant", "level": "0", "name": "TERROIR KAWABATA", "source": "image;Bing,2007-04"}}, {"type": "node", "id": 1815436239, "lat": 35.6995609, "lon": 139.7668527, "tags": {"amenity": "bar", "source": "image;Bing,2007-04"}}, {"type": "node", "id": 1815436261, "lat": 35.699426, "lon": 139.7672064, "tags": {"amenity": "pub", "level": "0", "name": "\u4e32\u3088\u3057", "name:en": "Kushiyoshi", "source": "image;Bing,2007-04"}}, {"type": "node", "id": 1815436266, "lat": 35.6994348, "lon": 139.7671831, "tags": {"amenity": "bar", "level": "0", "name": "\u6ce1\u8c9d", "source": "image;Bing,2007-04"}}, {"type": "node", "id": 1822906818, "lat": 35.6972575, "lon": 139.7700427}, {"type": "node", "id": 1834896589, "lat": 35.6848442, "lon": 139.7743593}, {"type": "node", "id": 1834896590, "lat": 35.6851516, "lon": 139.7730276}, {"type": "node", "id": 1834896593, "lat": 35.6848771, "lon": 139.774362}, {"type": "node", "id": 1834896597, "lat": 35.6848025, "lon": 139.7743188}, {"type": "node", "id": 1834896598, "lat": 35.6848192, "lon": 139.7743399}, {"type": "node", "id": 1834896600, "lat": 35.6847911, "lon": 139.7742425}, {"type": "node", "id": 1834896601, "lat": 35.6847936, "lon": 139.7742847}, {"type": "node", "id": 1834896606, "lat": 35.6861359, "lon": 139.7738256}, {"type": "node", "id": 1834896608, "lat": 35.6850397, "lon": 139.7731699}, {"type": "node", "id": 1834896612, "lat": 35.6850642, "lon": 139.7731669}, {"type": "node", "id": 1834896623, "lat": 35.6853569, "lon": 139.7741708}, {"type": "node", "id": 1834896628, "lat": 35.6854735, "lon": 139.7741211}, {"type": "node", "id": 1835127128, "lat": 35.6944274, "lon": 139.7710331}, {"type": "node", "id": 1835127157, "lat": 35.6944915, "lon": 139.7709189}, {"type": "node", "id": 1835127177, "lat": 35.6945131, "lon": 139.7709974}, {"type": "node", "id": 1854239328, "lat": 35.6895635, "lon": 139.7711861, "tags": {"addr:postcode": "103-0022", "amenity": "restaurant", "cuisine": "pizza", "name": "DEVIL CRAFT", "name:en": "DEVIL CRAFT", "name:ja": "\u30c7\u30d3\u30eb\u30af\u30e9\u30d5\u30c8", "name:ja_kana": "\u30c7\u30d3\u30eb\u30af\u30e9\u30d5\u30c8", "name:ja_rm": "Debiru Kurafuto", "phone": "+81 03-6265-1779", "website": "http://www.devilcraft.jp/"}}, {"type": "node", "id": 1865569626, "lat": 35.6965649, "lon": 139.7575824}, {"type": "node", "id": 1865569641, "lat": 35.6965825, "lon": 139.7577241}, {"type": "node", "id": 1865569686, "lat": 35.6965966, "lon": 139.7575678}, {"type": "node", "id": 1865569826, "lat": 35.6966428, "lon": 139.7576929}, {"type": "node", "id": 1865571950, "lat": 35.6989627, "lon": 139.7538544}, {"type": "node", "id": 1865572026, "lat": 35.6990257, "lon": 139.7540385}, {"type": "node", "id": 1865572051, "lat": 35.6990425, "lon": 139.7538131}, {"type": "node", "id": 1865572099, "lat": 35.6991054, "lon": 139.7539972}, {"type": "node", "id": 1894458887, "lat": 35.6712526, "lon": 139.7603141, "tags": {"addr:full": "\u6771\u4eac\u90fd\u4e2d\u592e\u533a\u9280\u5ea77-2-22", "addr:housename": "\u9280\u5ea7\u540c\u548c\u30d3\u30eb", "addr:postcode": "104-0061", "amenity": "cafe", "branch": "\u9280\u5ea7\u30b3\u30ea\u30c9\u30fc\u901a\u308a\u5e97", "brand": "\u30b9\u30bf\u30fc\u30d0\u30c3\u30af\u30b9", "brand:en": "Starbucks", "brand:ja": "\u30b9\u30bf\u30fc\u30d0\u30c3\u30af\u30b9", "brand:wikidata": "Q37158", "brand:wikipedia": "ja:\u30b9\u30bf\u30fc\u30d0\u30c3\u30af\u30b9", "cuisine": "coffee_shop", "drive_through": "no", "name": "\u30b9\u30bf\u30fc\u30d0\u30c3\u30af\u30b9", "name:en": "Starbucks", "name:ja": "\u30b9\u30bf\u30fc\u30d0\u30c3\u30af\u30b9", "name:ja_rm": "Sutah-bakkusu", "official_name": "\u30b9\u30bf\u30fc\u30d0\u30c3\u30af\u30b9\u30b3\u30fc\u30d2\u30fc", "official_name:en": "Starbucks Coffee", "official_name:ja": "\u30b9\u30bf\u30fc\u30d0\u30c3\u30af\u30b9\u30b3\u30fc\u30d2\u30fc", "opening_hours": "Mo-Fr 07:30-22:30; Sa 08:00-22:30; Su,PH 08:00-22:00", "operator": "\u30b9\u30bf\u30fc\u30d0\u30c3\u30af\u30b9\u30b3\u30fc\u30d2\u30fc\u30b8\u30e3\u30d1\u30f3", "phone": "03-3575-0938", "source": "(URL) 2015", "takeaway": "yes", "website": "https://www.starbucks.co.jp/"}}, {"type": "node", "id": 1894458896, "lat": 35.6711674, "lon": 139.7604484, "tags": {"addr:full": "\u6771\u4eac\u90fd\u4e2d\u592e\u533a\u9280\u5ea77-2-22", "addr:postcode": "104-0061", "atm": "yes", "branch": "\u9280\u5ea77\u4e01\u76ee", "brand": "\u30bb\u30d6\u30f3-\u30a4\u30ec\u30d6\u30f3", "brand:en": "7-Eleven", "brand:ja": "\u30bb\u30d6\u30f3-\u30a4\u30ec\u30d6\u30f3", "brand:wikidata": "Q259340", "brand:wikipedia": "en:7-Eleven", "internet_access": "wlan", "level": "0", "name": "\u30bb\u30d6\u30f3-\u30a4\u30ec\u30d6\u30f3", "name:en": "7-Eleven", "name:ja": "\u30bb\u30d6\u30f3-\u30a4\u30ec\u30d6\u30f3", "name:ja_rm": "Sebun Irebun", "name:ko": "\uc138\ube10\uc77c\ub808\ube10", "official_name:en": "Seven-Eleven", "opening_hours": "24/7", "operator": "\u30bb\u30d6\u30f3\u30a4\u30ec\u30d6\u30f3\u30fb\u30b8\u30e3\u30d1\u30f3", "phone": "03-3573-5527", "shop": "convenience", "source": "(URL) 2015", "website": "http://www.sej.co.jp/"}}, {"type": "node", "id": 1896499019, "lat": 35.683026, "lon": 139.7717219, "tags": {"addr:postcode": "103-0028", "amenity": "cafe", "branch": "\u516b\u91cd\u6d32\u4e00\u4e01\u76ee\u5e97", "brand": "\u4e0a\u5cf6\u73c8\u7432\u5e97", "brand:en": "Ueshima Coffee House", "brand:ja": "\u4e0a\u5cf6\u73c8\u7432\u5e97", "brand:wikidata": "Q96152143", "cuisine": "coffee_shop", "name": "\u4e0a\u5cf6\u73c8\u7432\u5e97", "name:en": "Ueshima Coffee House", "name:ja": "\u4e0a\u5cf6\u73c8\u7432\u5e97", "name:ja_rm": "Ueshima Kohi Ten", "name:zh": "\u4e0a\u5c9b\u5496\u5561\u5e97", "opening_hours": "Mo-Fr 07:00-22:00; Sa,Su,PH 10:00-19:00", "operator": "\u30e6\u30fc\u30b7\u30fc\u30b7\u30fc\u30d5\u30fc\u30c9\u30b5\u30fc\u30d3\u30b9\u30b7\u30b9\u30c6\u30e0\u30ba", "source": "(URL)", "takeaway": "yes", "website": "http://www.ueshima-coffee-ten.jp"}}, {"type": "node", "id": 1897440361, "lat": 35.6786316, "lon": 139.740747, "tags": {"addr:full": "\u6771\u4eac\u90fd\u5343\u4ee3\u7530\u533a\u6c38\u7530\u753a1-11-28", "branch": "\u6c38\u7530\u753a\u4e00\u4e01\u76ee\u5e97", "brand": "\u30ed\u30fc\u30bd\u30f3", "brand:en": "LAWSON", "brand:ja": "\u30ed\u30fc\u30bd\u30f3", "brand:wikidata": "Q1557223", "brand:wikipedia": "ja:\u30ed\u30fc\u30bd\u30f3", "name": "\u30ed\u30fc\u30bd\u30f3", "name:en": "Lawson", "name:es": "Lawson", "name:ja": "\u30ed\u30fc\u30bd\u30f3", "name:ko": "\ub85c\uc190", "opening_hours": "24/7", "phone": "03-3507-3637", "shop": "convenience", "wheelchair": "yes"}}, {"type": "node", "id": 1897494315, "lat": 35.68275, "lon": 139.739446, "tags": {"amenity": "restaurant", "cuisine": "indian", "drive_in": "no", "microbrewery": "no", "name": "SITA", "wheelchair": "no"}}, {"type": "node", "id": 1897495363, "lat": 35.682755, "lon": 139.739568, "tags": {"amenity": "restaurant", "cuisine": "french", "drive_in": "no", "microbrewery": "no", "name": "Triangle", "wheelchair": "no"}}, {"type": "node", "id": 1898425565, "lat": 35.6909687, "lon": 139.7571269, "tags": {"addr:postcode": "100-0003", "amenity": "cafe", "branch": "\u7af9\u6a4b\u5e97", "brand": "\u4e0a\u5cf6\u73c8\u7432\u5e97", "cuisine": "coffee_shop", "level": "-1", "name": "\u4e0a\u5cf6\u73c8\u7432\u5e97", "name:en": "Ueshima Coffee Ten", "name:ja": "\u4e0a\u5cf6\u73c8\u7432\u5e97", "name:ja_rm": "Ueshima Kohi Ten", "opening_hours": "wd 07:30-21:00", "operator": "\u30e6\u30fc\u30b7\u30fc\u30b7\u30fc\u30d5\u30fc\u30c9\u30b5\u30fc\u30d3\u30b9\u30b7\u30b9\u30c6\u30e0\u30ba", "source": "(URL)"}}, {"type": "node", "id": 1909852893, "lat": 35.6790893, "lon": 139.740609, "tags": {"amenity": "cafe", "branch": "EXC\u6c38\u7530\u753a\u5e97", "contact:phone": "+81 3 3265 5130", "name": "Excelsior Caff\u00e9", "power_supply": "no", "smoking": "separated", "wheelchair": "yes"}}, {"type": "node", "id": 1915019819, "lat": 35.7010337, "lon": 139.7467554, "tags": {"addr:postcode": "102-0072", "amenity": "cafe", "branch": "\u98ef\u7530\u6a4b\u6771\u53e3", "brand": "\u30ab\u30d5\u30a7\u30fb\u30c9\u30fb\u30af\u30ea\u30a8", "brand:en": "Cafe de CRIE", "brand:ja": "\u30ab\u30d5\u30a7\u30fb\u30c9\u30fb\u30af\u30ea\u30a8", "brand:wikidata": "Q17219077", "brand:wikipedia": "ja:\u30dd\u30c3\u30ab\u30af\u30ea\u30a8\u30a4\u30c8", "contact:phone": "+81-3-32348201", "cuisine": "coffee_shop", "internet_access": "wlan", "internet_access:fee": "no", "name": "\u30ab\u30d5\u30a7\u30fb\u30c9\u30fb\u30af\u30ea\u30a8", "name:en": "Cafe de CRIE", "name:ja": "\u30ab\u30d5\u30a7\u30fb\u30c9\u30fb\u30af\u30ea\u30a8", "name:ja_rm": "Kafe Do Kurie", "opening_hours": "Mo-Fr 06:30-22:00", "operator": "\u30dd\u30c3\u30ab\u30fb\u30af\u30ea\u30a8\u30a4\u30c8", "smoking": "separated", "source": "(URL)", "takeaway": "yes", "website": "https://www.pokkacreate.co.jp/", "wheelchair": "yes"}}, {"type": "node", "id": 1915038323, "lat": 35.7007249, "lon": 139.7434629, "tags": {"addr:postcode": "102-0072", "amenity": "cafe", "branch": "\u98ef\u7530\u6a4b\u30e9\u30e0\u30e9", "brand": "\u30ab\u30d5\u30a7\u30fb\u30c9\u30fb\u30af\u30ea\u30a8", "brand:en": "Cafe de CRIE", "brand:ja": "\u30ab\u30d5\u30a7\u30fb\u30c9\u30fb\u30af\u30ea\u30a8", "brand:wikidata": "Q17219077", "brand:wikipedia": "ja:\u30dd\u30c3\u30ab\u30af\u30ea\u30a8\u30a4\u30c8", "contact:phone": "+81-3-52276970", "cuisine": "coffee_shop", "internet_access": "wlan", "internet_access:fee": "no", "name": "\u30ab\u30d5\u30a7\u30fb\u30c9\u30fb\u30af\u30ea\u30a8", "name:en": "Cafe de CRIE", "name:ja": "\u30ab\u30d5\u30a7\u30fb\u30c9\u30fb\u30af\u30ea\u30a8", "name:ja_rm": "Kafe Do Kurie", "opening_hours": "Mo-Fr 07:30-21:00; Sa,Su,PH 08:00-21:00", "operator": "\u30dd\u30c3\u30ab\u30fb\u30af\u30ea\u30a8\u30a4\u30c8", "source": "(URL)", "takeaway": "yes", "website": "https://www.pokkacreate.co.jp/"}}, {"type": "node", "id": 1916601594, "lat": 35.6921837, "lon": 139.7391696, "tags": {"addr:postcode": "102-0073", "amenity": "cafe", "branch": "\u5e02\u30f6\u8c37\u6771", "brand": "\u30ab\u30d5\u30a7\u30fb\u30c9\u30fb\u30af\u30ea\u30a8", "brand:en": "Cafe de CRIE", "brand:ja": "\u30ab\u30d5\u30a7\u30fb\u30c9\u30fb\u30af\u30ea\u30a8", "brand:wikidata": "Q17219077", "brand:wikipedia": "ja:\u30dd\u30c3\u30ab\u30af\u30ea\u30a8\u30a4\u30c8", "contact:phone": "+81-3-32624266", "cuisine": "coffee_shop", "internet_access": "wlan", "internet_access:fee": "no", "name": "\u30ab\u30d5\u30a7\u30fb\u30c9\u30fb\u30af\u30ea\u30a8", "name:en": "Cafe de CRIE", "name:ja": "\u30ab\u30d5\u30a7\u30fb\u30c9\u30fb\u30af\u30ea\u30a8", "name:ja_rm": "Kafe Do Kurie", "opening_hours": "Mo-Fr 07:30-21:00; Sa,Su,PH 08:00-18:00", "operator": "\u30dd\u30c3\u30ab\u30fb\u30af\u30ea\u30a8\u30a4\u30c8", "source": "(URL)", "takeaway": "yes", "website": "https://www.pokkacreate.co.jp/"}}, {"type": "node", "id": 1916698184, "lat": 35.6970796, "lon": 139.7634644, "tags": {"addr:full": "\u6771\u4eac\u90fd\u5343\u4ee3\u7530\u533a\u795e\u7530\u99ff\u6cb3\u53f01-6", "amenity": "cafe", "branch": "\u795e\u7530\u99ff\u6cb3\u53f0\u5e97", "brand": "\u30c9\u30c8\u30fc\u30eb\u30b3\u30fc\u30d2\u30fc\u30b7\u30e7\u30c3\u30d7", "brand:en": "Doutor", "brand:ja": "\u30c9\u30c8\u30fc\u30eb\u30b3\u30fc\u30d2\u30fc\u30b7\u30e7\u30c3\u30d7", "brand:wikidata": "Q11322732", "brand:wikipedia": "ja:\u30c9\u30c8\u30fc\u30eb\u30b3\u30fc\u30d2\u30fc\u30b7\u30e7\u30c3\u30d7", "cuisine": "coffee_shop", "name": "\u30c9\u30c8\u30fc\u30eb\u30b3\u30fc\u30d2\u30fc\u30b7\u30e7\u30c3\u30d7", "name:en": "Doutor Coffee Shop", "name:ja": "\u30c9\u30c8\u30fc\u30eb\u30b3\u30fc\u30d2\u30fc\u30b7\u30e7\u30c3\u30d7", "name:ja_rm": "Dotoru Kohi Shoppu", "opening_hours": "Mo-Fr 07:00-20:00; Sa 07:30-20:00; Su,PH 08:00-19:00", "operator": "\u30c9\u30c8\u30fc\u30eb\u30b3\u30fc\u30d2\u30fc", "operator:wikidata": "Q11322732", "operator:wikipedia": "ja:\u30c9\u30c8\u30fc\u30eb\u30b3\u30fc\u30d2\u30fc\u30b7\u30e7\u30c3\u30d7", "phone": "+81 3 5283-1575", "smoking": "separated", "source": "(URL) 2015", "takeaway": "yes", "website": "https://www.doutor.co.jp/dcs/", "wifi": "no"}}, {"type": "node", "id": 1916746121, "lat": 35.6926156, "lon": 139.741995, "tags": {"addr:postcode": "102-0074", "amenity": "cafe", "branch": "\u4e5d\u6bb5\u5357", "brand": "\u30ab\u30d5\u30a7\u30fb\u30c9\u30fb\u30af\u30ea\u30a8", "brand:en": "Cafe de CRIE", "brand:ja": "\u30ab\u30d5\u30a7\u30fb\u30c9\u30fb\u30af\u30ea\u30a8", "brand:wikidata": "Q17219077", "brand:wikipedia": "ja:\u30dd\u30c3\u30ab\u30af\u30ea\u30a8\u30a4\u30c8", "contact:phone": "+81-3-32642524", "cuisine": "coffee_shop", "internet_access": "wlan", "internet_access:fee": "no", "name": "\u30ab\u30d5\u30a7\u30fb\u30c9\u30fb\u30af\u30ea\u30a8", "name:en": "Cafe de CRIE", "name:ja": "\u30ab\u30d5\u30a7\u30fb\u30c9\u30fb\u30af\u30ea\u30a8", "name:ja_rm": "Kafe Do Kurie", "opening_hours": "Mo-Fr 07:30-19:00", "operator": "\u30dd\u30c3\u30ab\u30fb\u30af\u30ea\u30a8\u30a4\u30c8", "source": "(URL)", "takeaway": "yes", "website": "https://www.pokkacreate.co.jp/"}}, {"type": "node", "id": 1916766478, "lat": 35.6953375, "lon": 139.7522388, "tags": {"addr:postcode": "102-0074", "amenity": "cafe", "branch": "\u4e5d\u6bb5\u4e0b", "brand": "\u30ab\u30d5\u30a7\u30fb\u30c9\u30fb\u30af\u30ea\u30a8", "brand:en": "Cafe de CRIE", "brand:ja": "\u30ab\u30d5\u30a7\u30fb\u30c9\u30fb\u30af\u30ea\u30a8", "brand:wikidata": "Q17219077", "brand:wikipedia": "ja:\u30dd\u30c3\u30ab\u30af\u30ea\u30a8\u30a4\u30c8", "contact:phone": "+81-3-32397888", "cuisine": "coffee_shop", "internet_access": "wlan", "internet_access:fee": "no", "name": "\u30ab\u30d5\u30a7\u30fb\u30c9\u30fb\u30af\u30ea\u30a8", "name:en": "Cafe de CRIE", "name:ja": "\u30ab\u30d5\u30a7\u30fb\u30c9\u30fb\u30af\u30ea\u30a8", "name:ja_rm": "Kafe Do Kurie", "opening_hours": "Mo-Fr 06:45-22:00; Sa,Su,PH 07:30-20:00", "operator": "\u30dd\u30c3\u30ab\u30fb\u30af\u30ea\u30a8\u30a4\u30c8", "source": "(URL)", "takeaway": "yes", "website": "https://www.pokkacreate.co.jp/"}}, {"type": "node", "id": 1918944961, "lat": 35.6908697, "lon": 139.7360803, "tags": {"addr:postcode": "102-0076", "amenity": "cafe", "branch": "\u5e02\u30f6\u8c37\u99c5\u524d", "brand": "\u30ab\u30d5\u30a7\u30fb\u30c9\u30fb\u30af\u30ea\u30a8", "brand:en": "Cafe de CRIE", "brand:ja": "\u30ab\u30d5\u30a7\u30fb\u30c9\u30fb\u30af\u30ea\u30a8", "brand:wikidata": "Q17219077", "brand:wikipedia": "ja:\u30dd\u30c3\u30ab\u30af\u30ea\u30a8\u30a4\u30c8", "contact:phone": "+81-3-32624271", "cuisine": "coffee_shop", "internet_access": "wlan", "internet_access:fee": "no", "level": "0", "name": "\u30ab\u30d5\u30a7\u30fb\u30c9\u30fb\u30af\u30ea\u30a8", "name:en": "Cafe de CRIE", "name:ja": "\u30ab\u30d5\u30a7\u30fb\u30c9\u30fb\u30af\u30ea\u30a8", "name:ja_rm": "Kafe Do Kurie", "opening_hours": "Mo-Fr 06:30-22:00; Sa 07:30-22:00; Su,PH 09:00-20:00", "operator": "\u30dd\u30c3\u30ab\u30fb\u30af\u30ea\u30a8\u30a4\u30c8", "source": "(URL)", "takeaway": "yes", "website": "https://www.pokkacreate.co.jp/"}}, {"type": "node", "id": 1921478072, "lat": 35.69731, "lon": 139.7425227, "tags": {"addr:postcode": "102-8798", "amenity": "cafe", "branch": "\u6771\u4eac\u9013\u4fe1\u75c5\u9662", "brand": "\u30ab\u30d5\u30a7\u30fb\u30c9\u30fb\u30af\u30ea\u30a8", "brand:en": "Cafe de CRIE", "brand:ja": "\u30ab\u30d5\u30a7\u30fb\u30c9\u30fb\u30af\u30ea\u30a8", "brand:wikidata": "Q17219077", "brand:wikipedia": "ja:\u30dd\u30c3\u30ab\u30af\u30ea\u30a8\u30a4\u30c8", "cuisine": "coffee_shop", "name": "\u30ab\u30d5\u30a7\u30fb\u30c9\u30fb\u30af\u30ea\u30a8", "name:en": "Cafe de CRIE", "name:ja": "\u30ab\u30d5\u30a7\u30fb\u30c9\u30fb\u30af\u30ea\u30a8", "name:ja_rm": "Kafe Do Kurie", "opening_hours": "wd 07:00-21:00; Sa,Su,PH 08:00-19:00", "operator": "\u30dd\u30c3\u30ab\u30fb\u30af\u30ea\u30a8\u30a4\u30c8", "phone": "+81-3-52110731", "smoking": "no", "source": "(URL)", "takeaway": "yes", "website": "https://www.pokkacreate.co.jp/", "wifi": "no"}}, {"type": "node", "id": 1922692831, "lat": 35.687099, "lon": 139.7737711}, {"type": "node", "id": 1922692832, "lat": 35.6872266, "lon": 139.7742105}, {"type": "node", "id": 1922692833, "lat": 35.6865614, "lon": 139.7744869}, {"type": "node", "id": 1922692835, "lat": 35.6869489, "lon": 139.7743158}, {"type": "node", "id": 1922692837, "lat": 35.6864494, "lon": 139.7741025}, {"type": "node", "id": 1922692839, "lat": 35.6876415, "lon": 139.7740278}, {"type": "node", "id": 1924777085, "lat": 35.6829149, "lon": 139.7383101, "tags": {"addr:postcode": "102-0093", "addr:street": "\u5e73\u6cb3\u753a", "amenity": "restaurant", "cuisine": "chinese", "name": "\u3081\u3093\u5fb3 \u4e8c\u4ee3\u76ee \u3064\u3058\u7530 \u9eb9\u753a\u5e97", "name:en": "Tsujita", "website": "http://www.nidaime-tsujita.co.jp/03shop.html#kojimachi"}}, {"type": "node", "id": 1928489012, "lat": 35.692027, "lon": 139.738697, "tags": {"addr:full": "\u6771\u4eac\u90fd\u5343\u4ee3\u7530\u533a\u4e5d\u6bb5\u53174-2-2", "addr:housenumber": "\u5343\u4ee3\u7530\u533a\u4e5d\u6bb5\u5317\uff14\uff0d\uff12\uff0d\uff12", "addr:postcode": "102-0073", "addr:street": "\u9756\u56fd\u901a\u308a", "atm": "yes", "branch": "\u4e5d\u6bb5\u53174\u4e01\u76ee", "brand": "\u30bb\u30d6\u30f3-\u30a4\u30ec\u30d6\u30f3", "brand:en": "7-Eleven", "brand:ja": "\u30bb\u30d6\u30f3-\u30a4\u30ec\u30d6\u30f3", "brand:wikidata": "Q259340", "brand:wikipedia": "en:7-Eleven", "contact:phone": "+81-3-32880772", "internet_access": "wlan", "level": "0", "name": "\u30bb\u30d6\u30f3-\u30a4\u30ec\u30d6\u30f3", "name:en": "7-Eleven", "name:ja": "\u30bb\u30d6\u30f3-\u30a4\u30ec\u30d6\u30f3", "name:ja_rm": "Sebun Irebun", "name:ko": "\uc138\ube10\uc77c\ub808\ube10", "official_name:en": "Seven-Eleven", "opening_hours": "24/7", "operator": "\u30bb\u30d6\u30f3\u30a4\u30ec\u30d6\u30f3\u30fb\u30b8\u30e3\u30d1\u30f3", "shop": "convenience", "source": "Bing 2010; (URL)", "website": "http://www.sej.co.jp/"}}, {"type": "node", "id": 1928500209, "lat": 35.6924676, "lon": 139.7415156, "tags": {"addr:full": "\u6771\u4eac\u90fd\u5343\u4ee3\u7530\u533a\u4e5d\u6bb5\u53573-9-12", "addr:postcode": "102-0074", "atm": "yes", "branch": "\u4e5d\u6bb5\u53573\u4e01\u76ee", "brand": "\u30bb\u30d6\u30f3-\u30a4\u30ec\u30d6\u30f3", "brand:en": "7-Eleven", "brand:ja": "\u30bb\u30d6\u30f3-\u30a4\u30ec\u30d6\u30f3", "brand:wikidata": "Q259340", "brand:wikipedia": "en:7-Eleven", "contact:phone": "+81-3-32213436", "internet_access": "wlan", "level": "0", "name": "\u30bb\u30d6\u30f3-\u30a4\u30ec\u30d6\u30f3", "name:en": "7-Eleven", "name:ja": "\u30bb\u30d6\u30f3-\u30a4\u30ec\u30d6\u30f3", "name:ja_rm": "Sebun Irebun", "name:ko": "\uc138\ube10\uc77c\ub808\ube10", "official_name:en": "Seven-Eleven", "opening_hours": "24/7", "operator": "\u30bb\u30d6\u30f3\u30a4\u30ec\u30d6\u30f3\u30fb\u30b8\u30e3\u30d1\u30f3", "shop": "convenience", "source": "Bing 2010; (URL)", "website": "http://www.sej.co.jp/"}}, {"type": "node", "id": 1928504402, "lat": 35.6921918, "lon": 139.7435185, "tags": {"addr:full": "\u6771\u4eac\u90fd\u5343\u4ee3\u7530\u533a\u4e5d\u6bb5\u53573-1-1", "addr:postcode": "102-0074", "atm": "yes", "branch": "\u4e5d\u6bb5\u5357\u5927\u59bb\u901a\u308a", "brand": "\u30bb\u30d6\u30f3-\u30a4\u30ec\u30d6\u30f3", "brand:en": "7-Eleven", "brand:ja": "\u30bb\u30d6\u30f3-\u30a4\u30ec\u30d6\u30f3", "brand:wikidata": "Q259340", "brand:wikipedia": "en:7-Eleven", "contact:phone": "+81-3-32395206", "internet_access": "wlan", "level": "0", "name": "\u30bb\u30d6\u30f3-\u30a4\u30ec\u30d6\u30f3", "name:en": "7-Eleven", "name:ja": "\u30bb\u30d6\u30f3-\u30a4\u30ec\u30d6\u30f3", "name:ja_rm": "Sebun Irebun", "name:ko": "\uc138\ube10\uc77c\ub808\ube10", "official_name:en": "Seven-Eleven", "opening_hours": "24/7", "operator": "\u30bb\u30d6\u30f3\u30a4\u30ec\u30d6\u30f3\u30fb\u30b8\u30e3\u30d1\u30f3", "shop": "convenience", "source": "Bing 2010; (URL)", "website": "http://www.sej.co.jp/"}}, {"type": "node", "id": 1928508811, "lat": 35.6963321, "lon": 139.7412888, "tags": {"addr:full": "\u6771\u4eac\u90fd\u5343\u4ee3\u7530\u533a\u5bcc\u58eb\u898b2-17-1", "addr:postcode": "102-0071", "atm": "yes", "branch": "\u6cd5\u653f\u5927\u5b66\u5e02\u30f6\u8c37\u30ad\u30e3\u30f3\u30d1\u30b9", "brand": "\u30bb\u30d6\u30f3-\u30a4\u30ec\u30d6\u30f3", "brand:en": "7-Eleven", "brand:ja": "\u30bb\u30d6\u30f3-\u30a4\u30ec\u30d6\u30f3", "brand:wikidata": "Q259340", "brand:wikipedia": "en:7-Eleven", "internet_access": "wlan", "level": "0", "name": "\u30bb\u30d6\u30f3-\u30a4\u30ec\u30d6\u30f3", "name:en": "7-Eleven", "name:ja": "\u30bb\u30d6\u30f3-\u30a4\u30ec\u30d6\u30f3", "name:ja_rm": "Sebun Irebun", "name:ko": "\uc138\ube10\uc77c\ub808\ube10", "official_name:en": "Seven-Eleven", "opening_hours": "24/7", "operator": "\u30bb\u30d6\u30f3\u30a4\u30ec\u30d6\u30f3\u30fb\u30b8\u30e3\u30d1\u30f3", "phone": "+81-3-52266055", "shop": "convenience", "source": "Bing 2010;(URL)", "website": "http://www.sej.co.jp/"}}, {"type": "node", "id": 1928517043, "lat": 35.6957448, "lon": 139.7509151, "tags": {"addr:block_number": "13", "addr:full": "\u6771\u4eac\u90fd\u5343\u4ee3\u7530\u533a\u4e5d\u6bb5\u53171-13-12", "addr:housenumber": "12", "addr:neighbourhood": "1\u4e01\u76ee", "addr:postcode": "102-0073", "addr:province": "\u6771\u4eac\u90fd", "addr:quarter": "\u4e5d\u6bb5\u5317", "addr:suburb": "\u5343\u4ee3\u7530\u533a", "atm": "yes", "branch": "\u5317\u306e\u4e38\u30b9\u30af\u30a8\u30a2\u5e97", "brand": "\u30bb\u30d6\u30f3-\u30a4\u30ec\u30d6\u30f3", "brand:en": "7-Eleven", "brand:ja": "\u30bb\u30d6\u30f3-\u30a4\u30ec\u30d6\u30f3", "brand:wikidata": "Q259340", "brand:wikipedia": "en:7-Eleven", "contact:phone": "+81-3-32637537", "internet_access": "wlan", "level": "0", "name": "\u30bb\u30d6\u30f3-\u30a4\u30ec\u30d6\u30f3", "name:en": "7-Eleven", "name:it": "7 Eleven", "name:ja": "\u30bb\u30d6\u30f3-\u30a4\u30ec\u30d6\u30f3", "name:ja_rm": "Sebun Irebun", "name:ko": "\uc138\ube10\uc77c\ub808\ube10", "official_name:en": "Seven-Eleven", "opening_hours": "24/7", "operator": "\u30bb\u30d6\u30f3\u30a4\u30ec\u30d6\u30f3\u30fb\u30b8\u30e3\u30d1\u30f3", "phone": "+81-3-3263-7437", "shop": "convenience", "source": "Bing 2010; (URL)", "website": "http://www.sej.co.jp/"}}, {"type": "node", "id": 1928737732, "lat": 35.6862544, "lon": 139.736521, "tags": {"addr:full": "\u6771\u4eac\u90fd\u5343\u4ee3\u7530\u533a\u4e8c\u756a\u753a4-3", "addr:postcode": "102-0084", "atm": "yes", "branch": "\u9eb9\u753a\u99c5\u524d", "brand": "\u30bb\u30d6\u30f3-\u30a4\u30ec\u30d6\u30f3", "brand:en": "7-Eleven", "brand:ja": "\u30bb\u30d6\u30f3-\u30a4\u30ec\u30d6\u30f3", "brand:wikidata": "Q259340", "brand:wikipedia": "en:7-Eleven", "internet_access": "wlan", "level": "0", "name": "\u30bb\u30d6\u30f3-\u30a4\u30ec\u30d6\u30f3", "name:en": "7-Eleven", "name:ja": "\u30bb\u30d6\u30f3-\u30a4\u30ec\u30d6\u30f3", "name:ja_rm": "Sebun Irebun", "name:ko": "\uc138\ube10\uc77c\ub808\ube10", "official_name:en": "Seven-Eleven", "opening_hours": "24/7", "operator": "\u30bb\u30d6\u30f3\u30a4\u30ec\u30d6\u30f3\u30fb\u30b8\u30e3\u30d1\u30f3", "phone": "+81-3-32642577", "shop": "convenience", "source": "Bing 2010; (URL)", "website": "http://www.sej.co.jp/"}}, {"type": "node", "id": 1928747758, "lat": 35.6832468, "lon": 139.7383347, "tags": {"addr:full": "\u6771\u4eac\u90fd\u5343\u4ee3\u7530\u533a\u9eb9\u753a3-5", "addr:postcode": "102-0083", "atm": "yes", "branch": "\u5343\u4ee3\u7530\u533a\u9eb9\u753a3\u4e01\u76ee", "brand": "\u30bb\u30d6\u30f3-\u30a4\u30ec\u30d6\u30f3", "brand:en": "7-Eleven", "brand:ja": "\u30bb\u30d6\u30f3-\u30a4\u30ec\u30d6\u30f3", "brand:wikidata": "Q259340", "brand:wikipedia": "en:7-Eleven", "internet_access": "wlan", "level": "0", "name": "\u30bb\u30d6\u30f3-\u30a4\u30ec\u30d6\u30f3", "name:en": "7-Eleven", "name:ja": "\u30bb\u30d6\u30f3-\u30a4\u30ec\u30d6\u30f3", "name:ja_rm": "Sebun Irebun", "name:ko": "\uc138\ube10\uc77c\ub808\ube10", "official_name:en": "Seven-Eleven", "opening_hours": "24/7", "operator": "\u30bb\u30d6\u30f3\u30a4\u30ec\u30d6\u30f3\u30fb\u30b8\u30e3\u30d1\u30f3", "phone": "+81-3-32624728", "shop": "convenience", "source": "Bing 2010; (URL)", "website": "http://www.sej.co.jp/"}}, {"type": "node", "id": 1928768490, "lat": 35.6979429, "lon": 139.7464891, "tags": {"addr:full": "\u6771\u4eac\u90fd\u5343\u4ee3\u7530\u533a\u5bcc\u58eb\u898b1-3-3", "addr:postcode": "102-0071", "atm": "yes", "branch": "\u5343\u4ee3\u7530\u5bcc\u58eb\u898b1\u4e01\u76ee", "brand": "\u30bb\u30d6\u30f3-\u30a4\u30ec\u30d6\u30f3", "brand:en": "7-Eleven", "brand:ja": "\u30bb\u30d6\u30f3-\u30a4\u30ec\u30d6\u30f3", "brand:wikidata": "Q259340", "brand:wikipedia": "en:7-Eleven", "internet_access": "wlan", "level": "0", "name": "\u30bb\u30d6\u30f3-\u30a4\u30ec\u30d6\u30f3", "name:en": "7-Eleven", "name:ja": "\u30bb\u30d6\u30f3-\u30a4\u30ec\u30d6\u30f3", "name:ja_rm": "Sebun Irebun", "name:ko": "\uc138\ube10\uc77c\ub808\ube10", "official_name:en": "Seven-Eleven", "opening_hours": "24/7", "operator": "\u30bb\u30d6\u30f3\u30a4\u30ec\u30d6\u30f3\u30fb\u30b8\u30e3\u30d1\u30f3", "phone": "+81-3-32300855", "shop": "convenience", "source": "Bing 2010; (URL)", "website": "http://www.sej.co.jp/"}}, {"type": "node", "id": 1929702724, "lat": 35.6905107, "lon": 139.735885, "tags": {"amenity": "cafe", "branch": "\u5e02\u30f6\u8c37\u99c5\u524d\u5e97", "brand": "\u30a8\u30af\u30bb\u30eb\u30b7\u30aa\u30fc\u30eb \u30ab\u30d5\u30a7", "brand:en": "EXCELSIOR CAFF\u00c9", "brand:ja": "\u30a8\u30af\u30bb\u30eb\u30b7\u30aa\u30fc\u30eb \u30ab\u30d5\u30a7", "brand:wikidata": "Q11289828", "brand:wikipedia": "ja:\u30a8\u30af\u30bb\u30eb\u30b7\u30aa\u30fc\u30eb \u30ab\u30d5\u30a7", "contact:phone": "+81-3-35560590", "cuisine": "coffee_shop", "level": "0", "name": "\u30a8\u30af\u30bb\u30eb\u30b7\u30aa\u30fc\u30eb \u30ab\u30d5\u30a7", "name:en": "EXCELSIOR CAFFE", "name:ja": "\u30a8\u30af\u30bb\u30eb\u30b7\u30aa\u30fc\u30eb \u30ab\u30d5\u30a7", "name:ja_rm": "Ekuserusiohru Kafe", "opening_hours": "Mo-Fr 06:00-23:00; Sa,Su,PH 07:00-21:00", "operator": "\u30c9\u30c8\u30fc\u30eb\u30b3\u30fc\u30d2\u30fc", "source": "(URL)", "takeaway": "yes", "website": "http://www.excelsiorcaffe.com/"}}, {"type": "node", "id": 1929707639, "lat": 35.6916646, "lon": 139.7373061, "tags": {"branch": "\u5e02\u30f6\u8c37\u5e97", "brand": "\u30d5\u30a1\u30df\u30ea\u30fc\u30de\u30fc\u30c8", "brand:en": "FamilyMart", "brand:ja": "\u30d5\u30a1\u30df\u30ea\u30fc\u30de\u30fc\u30c8", "brand:wikidata": "Q1191685", "brand:wikipedia": "en:FamilyMart", "level": "0", "name": "\u30d5\u30a1\u30df\u30ea\u30fc\u30de\u30fc\u30c8", "name:en": "FamilyMart", "name:ja": "\u30d5\u30a1\u30df\u30ea\u30fc\u30de\u30fc\u30c8", "name:ja_rm": "huamuriimaato", "shop": "convenience", "source": "survey"}}, {"type": "node", "id": 1932711044, "lat": 35.6701856, "lon": 139.7546175, "tags": {"amenity": "fast_food", "branch": "\u65e5\u6bd4\u8c37\u30b7\u30c6\u30a3\u5e97", "brand": "SUBWAY", "cuisine": "sandwich", "level": "-1", "name": "\u30b5\u30d6\u30a6\u30a7\u30a4", "name:en": "SUBWAY", "name:ja": "\u30b5\u30d6\u30a6\u30a7\u30a4", "name:ja_rm": "Sabuwei", "opening_hours": "Mo-Fr 08:00-21:00;Sa 08:00-18:00", "operator": "\u65e5\u672c\u30b5\u30d6\u30a6\u30a7\u30a4", "outdoor_seating": "no", "phone": "+81-3-35019800", "source": "(URL)", "website": "https://www.subway.co.jp/"}}, {"type": "node", "id": 1932754863, "lat": 35.6962102, "lon": 139.7513816, "tags": {"amenity": "fast_food", "branch": "\u4e5d\u6bb5\u4e0b\u5e97", "brand": "\u30b5\u30d6\u30a6\u30a7\u30a4", "brand:en": "Subway", "brand:ja": "\u30b5\u30d6\u30a6\u30a7\u30a4", "brand:wikidata": "Q244457", "brand:wikipedia": "ja:\u30b5\u30d6\u30a6\u30a7\u30a4", "contact:phone": "+81-3-32885165", "cuisine": "sandwich", "level": "0", "name": "\u30b5\u30d6\u30a6\u30a7\u30a4", "name:en": "Subway", "name:it": "Subway", "name:ja": "\u30b5\u30d6\u30a6\u30a7\u30a4", "name:ja_rm": "Sabuwei", "opening_hours": "Mo-Fr 08:00-22:00; Sa,Su,PH 10:00-20:00", "operator": "\u65e5\u672c\u30b5\u30d6\u30a6\u30a7\u30a4", "source": "(URL)", "takeaway": "yes", "website": "https://www.subway.co.jp/"}}, {"type": "node", "id": 1932786929, "lat": 35.6728664, "lon": 139.7649497, "tags": {"amenity": "fast_food", "branch": "\u9280\u5ea7\u677e\u5c4b\u901a\u308a\u5e97", "brand": "\u30b5\u30d6\u30a6\u30a7\u30a4", "brand:en": "Subway", "brand:ja": "\u30b5\u30d6\u30a6\u30a7\u30a4", "brand:wikidata": "Q244457", "brand:wikipedia": "ja:\u30b5\u30d6\u30a6\u30a7\u30a4", "cuisine": "sandwich", "level": "0", "name": "\u30b5\u30d6\u30a6\u30a7\u30a4", "name:en": "Subway", "name:ja": "\u30b5\u30d6\u30a6\u30a7\u30a4", "name:ja_rm": "Sabuwei", "opening_hours": "Mo-Su 07:00-22:00", "operator": "\u65e5\u672c\u30b5\u30d6\u30a6\u30a7\u30a4", "phone": "+81-3-35673997", "shop": "convenience", "source": "(URL)", "takeaway": "yes", "website": "https://www.subway.co.jp/"}}, {"type": "node", "id": 1937169545, "lat": 35.7015292, "lon": 139.7466896, "tags": {"branch": "\u98ef\u7530\u6a4b\u6771\u53e3\u4e09\u4e01\u76ee\u5e97", "brand": "\u30ed\u30fc\u30bd\u30f3", "brand:en": "LAWSON", "brand:ja": "\u30ed\u30fc\u30bd\u30f3", "brand:wikidata": "Q1557223", "brand:wikipedia": "ja:\u30ed\u30fc\u30bd\u30f3", "name": "\u30ed\u30fc\u30bd\u30f3", "name:en": "Lawson", "name:ja": "\u30ed\u30fc\u30bd\u30f3", "name:ja_rm": "R\u014dson", "name:ko": "\ub85c\uc190", "shop": "convenience", "source": "Bing 2010"}}, {"type": "node", "id": 1937169546, "lat": 35.7018221, "lon": 139.7461263, "tags": {"addr:full": "\u6771\u4eac\u90fd\u5343\u4ee3\u7530\u533a\u98ef\u7530\u6a4b3-6-9", "addr:housenumber": "\u5343\u4ee3\u7530\u533a\u98ef\u7530\u6a4b\uff13\uff0d6\uff0d\uff19", "addr:postcode": "102-0072", "addr:street": "\u76ee\u767d\u901a\u308a", "amenity": "fast_food", "branch": "\u98ef\u7530\u6a4b\u6771\u5e97", "brand": "\u30e2\u30b9\u30d0\u30fc\u30ac\u30fc", "brand:en": "MOS Burger", "brand:ja": "\u30e2\u30b9\u30d0\u30fc\u30ac\u30fc", "brand:wikidata": "Q1204169", "brand:wikipedia": "ja:\u30e2\u30b9\u30d0\u30fc\u30ac\u30fc", "contact:phone": "+81-3-32219428", "cuisine": "burger", "drive_through": "no", "internet_access": "wlan", "level": "0", "name": "\u30e2\u30b9\u30d0\u30fc\u30ac\u30fc", "name:en": "MOS Burger", "name:ja": "\u30e2\u30b9\u30d0\u30fc\u30ac\u30fc", "name:ja_rm": "Mosu Bahga", "opening_hours": "Mo-Su 07:00-23:00", "operator": "\u30e2\u30b9\u30d5\u30fc\u30c9\u30b5\u30fc\u30d3\u30b9", "smoking": "no", "source": "Bing 2010;(URL)", "takeaway": "yes", "website": "https://www.mos.jp/"}}, {"type": "node", "id": 1941199252, "lat": 35.6843351, "lon": 139.7388139, "tags": {"brand": "\u30d5\u30a1\u30df\u30ea\u30fc\u30de\u30fc\u30c8", "brand:en": "FamilyMart", "brand:ja": "\u30d5\u30a1\u30df\u30ea\u30fc\u30de\u30fc\u30c8", "brand:wikidata": "Q1191685", "brand:wikipedia": "ja:\u30d5\u30a1\u30df\u30ea\u30fc\u30de\u30fc\u30c8", "name": "\u30d5\u30a1\u30df\u30ea\u30fc\u30de\u30fc\u30c8", "name:en": "FamilyMart", "name:ja": "\u30d5\u30a1\u30df\u30ea\u30fc\u30de\u30fc\u30c8", "name:ja_rm": "Famir\u012b Mato", "shop": "convenience", "source": "Bing 2010"}}, {"type": "node", "id": 1941199253, "lat": 35.6842186, "lon": 139.7385671, "tags": {"addr:full": "\u6771\u4eac\u90fd\u5343\u4ee3\u7530\u533a\u9eb9\u753a3-2", "amenity": "cafe", "branch": "\u9eb9\u753a\u4e01\u76ee\u5e97", "brand": "\u30a8\u30af\u30bb\u30eb\u30b7\u30aa\u30fc\u30eb \u30ab\u30d5\u30a7", "brand:en": "EXCELSIOR CAFF\u00c9", "brand:ja": "\u30a8\u30af\u30bb\u30eb\u30b7\u30aa\u30fc\u30eb \u30ab\u30d5\u30a7", "brand:wikidata": "Q11289828", "brand:wikipedia": "ja:\u30a8\u30af\u30bb\u30eb\u30b7\u30aa\u30fc\u30eb \u30ab\u30d5\u30a7", "cuisine": "coffee_shop", "level": "0", "name": "\u30a8\u30af\u30bb\u30eb\u30b7\u30aa\u30fc\u30eb \u30ab\u30d5\u30a7", "name:en": "EXCELSIOR CAFF\u00c9", "name:ja": "\u30a8\u30af\u30bb\u30eb\u30b7\u30aa\u30fc\u30eb \u30ab\u30d5\u30a7", "name:ja_rm": "Ekuserusiohru Kafe", "opening_hours": "Mo-Fr 07:00-22:00; Sa 08:00-21:00; Sa,PH 08:00-20:00", "operator": "\u30c9\u30c8\u30fc\u30eb\u30b3\u30fc\u30d2\u30fc", "phone": "+81-3-52262362", "source": "(URL)", "takeaway": "yes", "website": "http://www.doutor.co.jp/exc/"}}, {"type": "node", "id": 1952088853, "lat": 35.690927, "lon": 139.7574252, "tags": {"addr:full": "\u6771\u4eac\u90fd\u5343\u4ee3\u7530\u533a\u4e00\u30c4\u6a4b1-1-1", "addr:postcode": "100-0003", "amenity": "cafe", "branch": "\u7af9\u6a4b\u30d1\u30ec\u30b9\u30b5\u30a4\u30c9\u5e97", "brand": "\u30b9\u30bf\u30fc\u30d0\u30c3\u30af\u30b9", "brand:en": "Starbucks", "brand:ja": "\u30b9\u30bf\u30fc\u30d0\u30c3\u30af\u30b9", "brand:wikidata": "Q37158", "brand:wikipedia": "ja:\u30b9\u30bf\u30fc\u30d0\u30c3\u30af\u30b9", "cuisine": "coffee_shop", "drive_through": "no", "internet_access": "wlan", "level": "0", "name": "\u30b9\u30bf\u30fc\u30d0\u30c3\u30af\u30b9", "name:en": "Starbucks", "name:ja": "\u30b9\u30bf\u30fc\u30d0\u30c3\u30af\u30b9", "name:ja_rm": "Sutah-bakkusu", "official_name": "\u30b9\u30bf\u30fc\u30d0\u30c3\u30af\u30b9\u30b3\u30fc\u30d2\u30fc", "official_name:en": "Starbucks Coffee", "official_name:ja": "\u30b9\u30bf\u30fc\u30d0\u30c3\u30af\u30b9\u30b3\u30fc\u30d2\u30fc", "opening_hours": "Mo-Fr 07:00-21:00", "operator": "\u30b9\u30bf\u30fc\u30d0\u30c3\u30af\u30b9\u30b3\u30fc\u30d2\u30fc\u30b8\u30e3\u30d1\u30f3", "phone": "+81-3-32123510", "source": "(URL) 2015", "takeaway": "yes", "website": "https://www.starbucks.co.jp/"}}, {"type": "node", "id": 1952090142, "lat": 35.6877493, "lon": 139.7644969, "tags": {"addr:full": "\u6771\u4eac\u90fd\u5343\u4ee3\u7530\u533a\u5927\u624b\u753a1-8-1", "addr:postcode": "100-0004", "amenity": "cafe", "branch": "KDDI\u5927\u624b\u753a\u30d3\u30eb\u5e97", "brand": "\u30b9\u30bf\u30fc\u30d0\u30c3\u30af\u30b9", "brand:en": "Starbucks", "brand:ja": "\u30b9\u30bf\u30fc\u30d0\u30c3\u30af\u30b9", "brand:wikidata": "Q37158", "brand:wikipedia": "ja:\u30b9\u30bf\u30fc\u30d0\u30c3\u30af\u30b9", "cuisine": "coffee_shop", "drive_through": "no", "internet_access": "wlan", "level": "0", "name": "\u30b9\u30bf\u30fc\u30d0\u30c3\u30af\u30b9", "name:en": "Starbucks", "name:ja": "\u30b9\u30bf\u30fc\u30d0\u30c3\u30af\u30b9", "name:ja_rm": "Sutah-bakkusu", "official_name": "\u30b9\u30bf\u30fc\u30d0\u30c3\u30af\u30b9\u30b3\u30fc\u30d2\u30fc", "official_name:en": "Starbucks Coffee", "official_name:ja": "\u30b9\u30bf\u30fc\u30d0\u30c3\u30af\u30b9\u30b3\u30fc\u30d2\u30fc", "opening_hours": "Mo-Fr 08:00-22:00; Sa 09:00-18:00; Su,PH off", "operator": "\u30b9\u30bf\u30fc\u30d0\u30c3\u30af\u30b9\u30b3\u30fc\u30d2\u30fc\u30b8\u30e3\u30d1\u30f3", "phone": "+81-3-32312065", "source": "Bing 2010;(URL)", "takeaway": "yes", "website": "https://www.starbucks.co.jp/"}}, {"type": "node", "id": 1952091400, "lat": 35.6863897, "lon": 139.7652318, "tags": {"addr:full": "\u6771\u4eac\u90fd\u5343\u4ee3\u7530\u533a\u5927\u624b\u753a1-6-1", "addr:housename": "\u5927\u624b\u753a\u30d3\u30eb", "addr:postcode": "100-0004", "amenity": "cafe", "branch": "\u5927\u624b\u753a\u30d3\u30eb\u5e97", "brand": "\u30b9\u30bf\u30fc\u30d0\u30c3\u30af\u30b9", "brand:en": "Starbucks", "brand:ja": "\u30b9\u30bf\u30fc\u30d0\u30c3\u30af\u30b9", "brand:wikidata": "Q37158", "brand:wikipedia": "ja:\u30b9\u30bf\u30fc\u30d0\u30c3\u30af\u30b9", "cuisine": "coffee_shop", "drive_through": "no", "internet_access": "wlan", "level": "0", "name": "\u30b9\u30bf\u30fc\u30d0\u30c3\u30af\u30b9", "name:en": "Starbucks", "name:ja": "\u30b9\u30bf\u30fc\u30d0\u30c3\u30af\u30b9", "name:ja_rm": "Sutah-bakkusu", "name:zh": "\u661f\u5df4\u514b", "official_name": "\u30b9\u30bf\u30fc\u30d0\u30c3\u30af\u30b9\u30b3\u30fc\u30d2\u30fc", "official_name:en": "Starbucks Coffee", "official_name:ja": "\u30b9\u30bf\u30fc\u30d0\u30c3\u30af\u30b9\u30b3\u30fc\u30d2\u30fc", "opening_hours": "Mo-Fr 07:00-22:00; Sa 07:00-21:00; Su,PH Off", "operator": "\u30b9\u30bf\u30fc\u30d0\u30c3\u30af\u30b9\u30b3\u30fc\u30d2\u30fc\u30b8\u30e3\u30d1\u30f3", "phone": "+81-3-52887330", "source": "Bing 2010;(URL) 2015", "takeaway": "yes", "website": "https://www.starbucks.co.jp/"}}, {"type": "node", "id": 1952141255, "lat": 35.6847212, "lon": 139.7674365, "tags": {"brand": "\u30ed\u30fc\u30bd\u30f3", "brand:en": "LAWSON", "brand:ja": "\u30ed\u30fc\u30bd\u30f3", "brand:wikidata": "Q1557223", "brand:wikipedia": "ja:\u30ed\u30fc\u30bd\u30f3", "name": "\u30ed\u30fc\u30bd\u30f3", "name:en": "Lawson", "name:ja": "\u30ed\u30fc\u30bd\u30f3", "name:ja_rm": "R\u014dson", "name:ko": "\ub85c\uc190", "name:zh": "\u7f57\u68ee\u4fbf\u5229\u5e97", "shop": "convenience", "source": "Bing 2010"}}, {"type": "node", "id": 1952141256, "lat": 35.6851612, "lon": 139.7669162, "tags": {"addr:full": "\u6771\u4eac\u90fd\u5343\u4ee3\u7530\u533a\u5927\u624b\u753a2-2-1", "addr:housename": "\u65b0\u5927\u624b\u753a\u30d3\u30eb", "addr:postcode": "100-0004", "amenity": "cafe", "branch": "\u65b0\u5927\u624b\u753a\u30d3\u30eb\u5e97", "brand": "\u30b9\u30bf\u30fc\u30d0\u30c3\u30af\u30b9", "brand:en": "Starbucks", "brand:ja": "\u30b9\u30bf\u30fc\u30d0\u30c3\u30af\u30b9", "brand:wikidata": "Q37158", "brand:wikipedia": "ja:\u30b9\u30bf\u30fc\u30d0\u30c3\u30af\u30b9", "cuisine": "coffee_shop", "drive_through": "no", "internet_access": "wlan", "level": "0", "name": "\u30b9\u30bf\u30fc\u30d0\u30c3\u30af\u30b9", "name:en": "Starbucks", "name:ja": "\u30b9\u30bf\u30fc\u30d0\u30c3\u30af\u30b9", "name:ja_rm": "Sutah-bakkusu", "name:zh": "\u661f\u5df4\u514b", "official_name": "\u30b9\u30bf\u30fc\u30d0\u30c3\u30af\u30b9\u30b3\u30fc\u30d2\u30fc", "official_name:en": "Starbucks Coffee", "official_name:ja": "\u30b9\u30bf\u30fc\u30d0\u30c3\u30af\u30b9\u30b3\u30fc\u30d2\u30fc", "opening_hours": "Mo-Fr 07:00-21:00; Sa,Su,PH off", "operator": "\u30b9\u30bf\u30fc\u30d0\u30c3\u30af\u30b9\u30b3\u30fc\u30d2\u30fc\u30b8\u30e3\u30d1\u30f3", "phone": "+81-3-62022391", "source": "Bing 2010;(URL) 2015", "takeaway": "yes", "website": "https://www.starbucks.co.jp/"}}, {"type": "node", "id": 1952141270, "lat": 35.6870958, "lon": 139.7656126, "tags": {"addr:full": "\u6771\u4eac\u90fd\u5343\u4ee3\u7530\u533a\u5927\u624b\u753a1-7-2", "addr:housename": "\u6771\u4eac\u30b5\u30f3\u30b1\u30a4\u30d3\u30ebB1F", "addr:housenumber": "\u6771\u4eac\u30b5\u30f3\u30b1\u30a4\u30d3\u30ebB1F", "addr:postcode": "100-0004", "amenity": "cafe", "branch": "\u5927\u624b\u753a\u6771\u4eac\u30b5\u30f3\u30b1\u30a4\u30d3\u30eb\u5e97", "brand": "\u30b9\u30bf\u30fc\u30d0\u30c3\u30af\u30b9", "brand:en": "Starbucks", "brand:ja": "\u30b9\u30bf\u30fc\u30d0\u30c3\u30af\u30b9", "brand:wikidata": "Q37158", "brand:wikipedia": "ja:\u30b9\u30bf\u30fc\u30d0\u30c3\u30af\u30b9", "cuisine": "coffee_shop", "drive_through": "no", "internet_access": "wlan", "level": "-1", "name": "\u30b9\u30bf\u30fc\u30d0\u30c3\u30af\u30b9", "name:en": "Starbucks", "name:ja": "\u30b9\u30bf\u30fc\u30d0\u30c3\u30af\u30b9", "name:ja_rm": "Sutah-bakkusu", "name:zh": "\u661f\u5df4\u514b", "official_name": "\u30b9\u30bf\u30fc\u30d0\u30c3\u30af\u30b9\u30b3\u30fc\u30d2\u30fc", "official_name:en": "Starbucks Coffee", "official_name:ja": "\u30b9\u30bf\u30fc\u30d0\u30c3\u30af\u30b9\u30b3\u30fc\u30d2\u30fc", "opening_hours": "Mo-Fr 07:00-21:00; Sa 09:00-18:00; Sa,PH off", "operator": "\u30b9\u30bf\u30fc\u30d0\u30c3\u30af\u30b9\u30b3\u30fc\u30d2\u30fc\u30b8\u30e3\u30d1\u30f3", "phone": "+81-3-52048207", "source": "Bing 2010;(URL) 2015", "takeaway": "yes", "website": "https://www.starbucks.co.jp/"}}, {"type": "node", "id": 1957777128, "lat": 35.7002077, "lon": 139.7614733, "tags": {"addr:full": "\u6771\u4eac\u90fd\u5343\u4ee3\u7530\u533a\u795e\u7530\u99ff\u6cb3\u53f02-5", "addr:postcode": "101-0062", "atm": "yes", "branch": "\u99ff\u6cb3\u53f0\u4e09\u697d\u75c5\u9662", "brand": "\u30bb\u30d6\u30f3-\u30a4\u30ec\u30d6\u30f3", "brand:en": "7-Eleven", "brand:ja": "\u30bb\u30d6\u30f3-\u30a4\u30ec\u30d6\u30f3", "brand:wikidata": "Q259340", "brand:wikipedia": "en:7-Eleven", "internet_access": "wlan", "level": "0", "name": "\u30bb\u30d6\u30f3-\u30a4\u30ec\u30d6\u30f3", "name:en": "7-Eleven", "name:ja": "\u30bb\u30d6\u30f3-\u30a4\u30ec\u30d6\u30f3", "name:ja_rm": "Sebun Irebun", "name:ko": "\uc138\ube10\uc77c\ub808\ube10", "official_name:en": "Seven-Eleven", "opening_hours": "24/7", "operator": "\u30bb\u30d6\u30f3\u30a4\u30ec\u30d6\u30f3\u30fb\u30b8\u30e3\u30d1\u30f3", "phone": "+81 3-3219-1050", "shop": "convenience", "source": "(URL) 2015", "website": "http://www.sej.co.jp/", "wheelchair": "yes"}}, {"type": "node", "id": 1957914013, "lat": 35.6929081, "lon": 139.7708312, "tags": {"addr:full": "\u6771\u4eac\u90fd\u5343\u4ee3\u7530\u533a\u5185\u795e\u75303-20-3", "addr:housename": "\u5c0f\u935b\u51b6\u30d3\u30eb", "amenity": "cafe", "branch": "\u795e\u7530\u5317\u53e3\u5e97", "brand": "\u30c9\u30c8\u30fc\u30eb\u30b3\u30fc\u30d2\u30fc\u30b7\u30e7\u30c3\u30d7", "brand:en": "Doutor", "brand:ja": "\u30c9\u30c8\u30fc\u30eb\u30b3\u30fc\u30d2\u30fc\u30b7\u30e7\u30c3\u30d7", "brand:wikidata": "Q11322732", "brand:wikipedia": "ja:\u30c9\u30c8\u30fc\u30eb\u30b3\u30fc\u30d2\u30fc\u30b7\u30e7\u30c3\u30d7", "cuisine": "coffee_shop", "internet_access": "wlan", "name": "\u30c9\u30c8\u30fc\u30eb\u30b3\u30fc\u30d2\u30fc\u30b7\u30e7\u30c3\u30d7", "name:en": "Doutor Coffee Shop", "name:ja": "\u30c9\u30c8\u30fc\u30eb\u30b3\u30fc\u30d2\u30fc\u30b7\u30e7\u30c3\u30d7", "name:ja_rm": "Dotoru Kohi Shoppu", "opening_hours": "Mo-Fr 06:30-20:30; Sa,Su,PH 08:00-20:00", "operator": "\u30c9\u30c8\u30fc\u30eb\u30b3\u30fc\u30d2\u30fc", "operator:wikidata": "Q11322732", "operator:wikipedia": "ja:\u30c9\u30c8\u30fc\u30eb\u30b3\u30fc\u30d2\u30fc\u30b7\u30e7\u30c3\u30d7", "phone": "+81 3-5294-4370", "smoking": "separated", "source": "(URL) 2015", "takeaway": "yes", "website": "https://www.doutor.co.jp/dcs/", "wheelchair": "yes"}},