{"version": 0.6, "generator": "Overpass API 0.7.58.5 b0c4acbb", "osm3s": {"timestamp_osm_base": "2022-09-02T22:57:24Z", "copyright": "The data included in this document is from www.openstreetmap.org. The data is made available under ODbL."}, "elements": [{"type": "node", "id": 2158865607, "lat": 41.399043, "lon": 2.1884309, "tags": {"addr:housenumber": "22", "addr:street": "Carrer de T\u00e0nger", "amenity": "cafe", "contact:phone": "+34 933 09 33 75", "contact:website": "http://www.carrotcafe.es/", "name": "Carrot Caf\u00e9", "name:ca": "Carrot caf\u00e9", "name:en": "Carrot caf\u00e9", "name:es": "Carrot caf\u00e9"}}, {"type": "node", "id": 3005463983, "lat": 41.3972585, "lon": 2.1916091, "tags": {"addr:city": "Barcelona", "addr:housenumber": "88", "addr:postcode": "08018", "addr:street": "Carrer de Pamplona", "amenity": "pub", "name": "Ceferino", "smoking": "outside"}}, {"type": "node", "id": 4138769013, "lat": 41.3970017, "lon": 2.1913538, "tags": {"addr:housenumber": "88", "addr:street": "Carrer de Pamplona", "amenity": "cafe", "name": "SKYE Coffee", "opening_hours": "Mo-Tu 09:00-13:30; We-Fr 09:00-17:00"}}, {"type": "node", "id": 4289682653, "lat": 41.3978888, "lon": 2.189968, "tags": {"addr:city": "Barcelona", "addr:housenumber": "96", "addr:postcode": "08018", "addr:street": "Carrer de Pamplona", "amenity": "pub", "name": "Sonora Sport Tavern"}}, {"type": "node", "id": 5380241103, "lat": 41.4004924, "lon": 2.1903645, "tags": {"amenity": "restaurant", "name": "Diamantico"}}, {"type": "node", "id": 5380241629, "lat": 41.4004229, "lon": 2.1906076, "tags": {"amenity": "restaurant", "name": "el Jard\u00ed"}}, {"type": "node", "id": 5522265621, "lat": 41.3990264, "lon": 2.194494}, {"type": "node", "id": 6138906566, "lat": 41.3990235, "lon": 2.1944916, "tags": {"man_made": "surveillance", "surveillance:type": "camera"}}, {"type": "node", "id": 6138906835, "lat": 41.3989804, "lon": 2.1943079}, {"type": "node", "id": 6138906836, "lat": 41.3990757, "lon": 2.1943864}, {"type": "node", "id": 6138906883, "lat": 41.3989288, "lon": 2.1944148}, {"type": "node", "id": 6138906896, "lat": 41.3989667, "lon": 2.1944456, "tags": {"addr:housenumber": "101", "addr:postcode": "08018", "addr:street": "Carrer de Pere IV", "entrance": "yes"}}, {"type": "node", "id": 6532230691, "lat": 41.3991988, "lon": 2.1885302, "tags": {"addr:street": "Carrer de T\u00e0nger", "amenity": "restaurant", "name": "L'Estoneta"}}, {"type": "node", "id": 6532239885, "lat": 41.4001402, "lon": 2.1897924, "tags": {"addr:housenumber": "44", "addr:postcode": "08018", "addr:street": "Carrer de T\u00e0nger", "amenity": "restaurant", "entrance": "yes", "name": "Casa Mar\u00eda"}}, {"type": "node", "id": 6532239886, "lat": 41.4003823, "lon": 2.1901179, "tags": {"addr:housenumber": "50", "addr:street": "Carrer de T\u00e0nger", "amenity": "restaurant", "name": "T\u00e1nger"}}, {"type": "node", "id": 6532239887, "lat": 41.4003684, "lon": 2.1901005, "tags": {"addr:housenumber": "50", "addr:postcode": "08018", "addr:street": "Carrer de T\u00e0nger", "entrance": "yes", "name": "David", "shop": "convenience"}}, {"type": "node", "id": 8064873686, "lat": 41.3977404, "lon": 2.1934117, "tags": {"amenity": "restaurant", "name": "La Cantonada del Xenia"}}, {"type": "node", "id": 8064873987, "lat": 41.3993018, "lon": 2.1920928, "tags": {"amenity": "cafe", "name": "Oasis"}}, {"type": "node", "id": 9376342919, "lat": 41.3966728, "lon": 2.1919552, "tags": {"addr:housenumber": "122", "addr:postcode": "08018", "addr:street": "Carrer de Pallars", "air_conditioning": "no", "amenity": "bar", "email": "hijoscain@hotmail.com", "indoor_seating": "yes", "name": "Hijos de cain Bar", "opening_hours": "Fr-Sa 22:30-03:00", "operator": "PH Fr,Sa 23:00-03:00", "outdoor_seating": "no", "payment:credit_cards": "yes", "payment:debit_cards": "yes", "smoking": "no", "website": "http://www.hijosdecain.es/", "wheelchair": "no"}}, {"type": "node", "id": 9376372117, "lat": 41.3967903, "lon": 2.1921194, "tags": {"addr:housenumber": "122", "addr:postcode": "08018", "addr:street": "Carrer de Pallars", "air_conditioning": "no", "amenity": "bar", "contact:facebook": "D9bar", "contact:instagram": "d9poblenou", "email": "ramon@denou.bar", "indoor_seating": "yes", "name": "D9", "opening_hours": "Mo-Su 18:00-01:00", "outdoor_seating": "yes", "payment:credit_cards": "yes", "payment:debit_cards": "yes", "phone": "+34 933 099 202;+34 687 955 816", "smoking": "outside", "website": "https://denou.bar/", "wheelchair": "no"}}, {"type": "node", "id": 9377066517, "lat": 41.3983197, "lon": 2.1942274, "tags": {"addr:housenumber": "100", "addr:postcode": "08006", "addr:street": "Carrer de Pere IV", "amenity": "restaurant", "name": "El rey del kebab", "opening_hours": "Mo-Fr 11:30-23:00; Sa-Su 14:00-23:00"}}, {"type": "way", "id": 655182341, "nodes": [6138906835, 6138906836, 5522265621, 6138906566, 6138906896, 6138906883, 6138906835], "tags": {"amenity": "bar", "building": "industrial", "building:levels": "2", "name": "Comtu bar"}}]}