{"version": 0.6, "generator": "Overpass API 0.7.58.5 b0c4acbb", "osm3s": {"timestamp_osm_base": "2022-09-04T19:34:39Z", "copyright": "The data included in this document is from www.openstreetmap.org. The data is made available under ODbL."}, "elements": [{"type": "node", "id": 1636663559, "lat": 41.4000046, "lon": 2.20645, "tags": {"addr:housename": "Puerto Hurrako", "addr:housenumber": "76", "addr:postcode": "08005", "addr:street": "Taulat", "amenity": "pub", "name": "Puerto Hurrako"}}, {"type": "node", "id": 3048077641, "lat": 41.4010293, "lon": 2.2052715, "tags": {"brand": "Mercadona", "brand:wikidata": "Q377705", "brand:wikipedia": "es:Mercadona", "name": "Mercadona", "shop": "supermarket", "website": "https://www.mercadona.es"}}, {"type": "node", "id": 3068367471, "lat": 41.4037086, "lon": 2.209265, "tags": {"amenity": "restaurant", "name": "Bar Restaurante Olimpiada 92"}}, {"type": "node", "id": 3880778777, "lat": 41.4006708, "lon": 2.2062985, "tags": {"addr:housenumber": "11", "addr:street": "Carrer de Bilbao", "amenity": "restaurant", "cuisine": "pizza", "designation": "Local de comida argentina. (Empanadas y pizza)", "name": "Mondo Argento", "name:ca": "F&F Fast food", "name:en": "F&F Fast food", "name:es": "F&F Fast food"}}, {"type": "node", "id": 4533888598, "lat": 41.4017771, "lon": 2.2059149, "tags": {"amenity": "restaurant", "name": "Piazza grande"}}, {"type": "node", "id": 4533901401, "lat": 41.4017834, "lon": 2.2059153, "tags": {"addr:housenumber": "10", "addr:street": "Pla\u00e7a de Julio Gonz\u00e1lez", "amenity": "restaurant", "description": "Italian Restaurant", "name": "Restaurant Piazza Grande"}}, {"type": "node", "id": 4967425632, "lat": 41.4025441, "lon": 2.2045819, "tags": {"addr:city": "Barcelona", "addr:housenumber": "230-234", "addr:postcode": "08005", "addr:street": "Carrer de Llull", "amenity": "restaurant", "cuisine": "international", "name": "Pronto"}}, {"type": "node", "id": 5509139427, "lat": 41.4014133, "lon": 2.2052029, "tags": {"addr:city": "Barcelona", "addr:housenumber": "31", "addr:postcode": "08005", "addr:street": "Carrer de Bilbao", "amenity": "fast_food", "cuisine": "burger;regional;italian", "name": "SOCO Poblenou", "outdoor_seating": "yes"}}, {"type": "node", "id": 5509139428, "lat": 41.4013829, "lon": 2.2068942, "tags": {"addr:city": "Barcelona", "addr:housenumber": "3", "addr:postcode": "08005", "addr:street": "Pla\u00e7a de Julio Gonz\u00e1lez", "amenity": "restaurant", "cuisine": "regional", "name": "La Carmanyola", "outdoor_seating": "yes"}}, {"type": "node", "id": 6288959580, "lat": 41.4045137, "lon": 2.2081001, "tags": {"amenity": "restaurant", "cuisine": "steak_house", "name": "La Malandrina"}}, {"type": "node", "id": 6532139285, "lat": 41.4021274, "lon": 2.2053325, "tags": {"addr:street": "Carrer de Bilbao", "amenity": "restaurant", "name": "Bilbao"}}, {"type": "node", "id": 6532206186, "lat": 41.4026728, "lon": 2.2041328, "tags": {"amenity": "restaurant", "name": "Bilbao34"}}, {"type": "node", "id": 6532214485, "lat": 41.4024969, "lon": 2.2047196, "tags": {"addr:street": "Carrer de Bilbao", "amenity": "restaurant", "name": "Sanaa"}}, {"type": "node", "id": 6532311386, "lat": 41.4002571, "lon": 2.2068078, "tags": {"addr:street": "Carrer de la Jonquera", "amenity": "restaurant", "name": "Bel\u00e9n"}}, {"type": "node", "id": 6532311387, "lat": 41.4007139, "lon": 2.2061869, "tags": {"addr:street": "Carrer de Bilbao", "amenity": "restaurant", "cuisine": "mexican", "name": "Tequila"}}, {"type": "node", "id": 6532311389, "lat": 41.400914, "lon": 2.2058924, "tags": {"addr:street": "Carrer de Bilbao", "amenity": "bar", "name": "Cal Cisteller"}}, {"type": "node", "id": 6532322487, "lat": 41.4021373, "lon": 2.2038758, "tags": {"addr:street": "Carrer de Llull", "brand": "Superverd", "brand:wikidata": "Q11950546", "brand:wikipedia": "ca:Superverd", "name": "Superverd", "shop": "supermarket"}}, {"type": "node", "id": 6532330793, "lat": 41.4016359, "lon": 2.2048002, "tags": {"amenity": "restaurant", "name": "La Xemeneia"}}, {"type": "node", "id": 6532335586, "lat": 41.402179, "lon": 2.2039432, "tags": {"addr:street": "Carrer de Llull", "amenity": "fast_food", "name": "Hamburgueser\u00eda Jou's"}}, {"type": "node", "id": 6532342085, "lat": 41.4022005, "lon": 2.204014, "tags": {"amenity": "fast_food", "name": "Ali Baba d\u00f6ner Kebab"}}, {"type": "node", "id": 6744703790, "lat": 41.4030337, "lon": 2.2073849, "tags": {"amenity": "restaurant", "cuisine": "spanish", "name": "Andalucia"}}, {"type": "node", "id": 7973910185, "lat": 41.4020368, "lon": 2.2044271, "tags": {"addr:city": "Barcelona", "addr:housenumber": "41-43", "addr:street": "Carrer de Bilbao", "name": "Cal Fruit\u00f3s", "shop": "greengrocer", "website": "https://www.calfruitos.com/"}}]}