{"version": 0.6, "generator": "Overpass API 0.7.58.5 b0c4acbb", "osm3s": {"timestamp_osm_base": "2022-09-06T16:27:23Z", "copyright": "The data included in this document is from www.openstreetmap.org. The data is made available under ODbL."}, "elements": [{"type": "node", "id": 26065697, "lat": 40.428732, "lon": -3.7020018, "tags": {"addr:city": "Madrid", "addr:housenumber": "7", "addr:postcode": "28004", "addr:street": "Glorieta de Bilbao", "amenity": "restaurant", "name": "Caf\u00e9 Comercial", "wikidata": "Q5017237"}}, {"type": "node", "id": 26065699, "lat": 40.4270264, "lon": -3.7016864, "tags": {"addr:city": "Madrid", "addr:country": "ES", "addr:housenumber": "95", "addr:postcode": "28004", "addr:street": "Calle de Fuencarral", "amenity": "pub", "name": "Sidrer\u00eda la Camocha", "source:name": "survey", "wheelchair": "no", "wheelchair:description": "Escal\u00f3n alto, puerta que abre hacia fuera."}}, {"type": "node", "id": 26065701, "lat": 40.4276032, "lon": -3.6963292, "tags": {"amenity": "pub", "name": "Gran Cafe Santander", "opening_hours": "Mo-Fr 08:00-02:00; Sa,Su 09:30-02:00", "outdoor_seating": "yes", "phone": "+34 914 457295", "source:name": "survey", "website": "https://grancafesantander.com/", "wheelchair": "limited"}}, {"type": "node", "id": 26472157, "lat": 40.4108266, "lon": -3.7093691}, {"type": "node", "id": 26472158, "lat": 40.4112592, "lon": -3.7092922}, {"type": "node", "id": 26472160, "lat": 40.4109284, "lon": -3.710357}, {"type": "node", "id": 26472161, "lat": 40.411361, "lon": -3.7102801}, {"type": "node", "id": 26472719, "lat": 40.4097328, "lon": -3.7010866, "tags": {"addr:city": "Madrid", "addr:country": "ES", "addr:housenumber": "44", "addr:postcode": "28012", "addr:street": "Calle del Ave Mar\u00eda", "amenity": "pub", "name": "Caf\u00e9 Melo's"}}, {"type": "node", "id": 26472874, "lat": 40.4260312, "lon": -3.6981336, "tags": {"addr:city": "Madrid", "addr:housenumber": "28", "addr:postcode": "28004", "addr:street": "Calle de San Mateo", "addr:subdistrict": "Justicia", "amenity": "pub", "name": "Ol\u00e9 Lola", "old_name": "El Laberinto", "phone": "+34 913106695", "website": "http://www.olelola.com/"}}, {"type": "node", "id": 26808561, "lat": 40.4256418, "lon": -3.7121995, "tags": {"addr:city": "Madrid", "addr:housenumber": "2", "addr:postcode": "28015", "addr:street": "Plaza de Cristino Martos", "amenity": "bar", "email": "hola@murcafe.com", "name": "M\u00fcr Caf\u00e9", "phone": "+34 91 139 98 09", "website": "http://murcafe.es/"}}, {"type": "node", "id": 26808562, "lat": 40.4245836, "lon": -3.709622, "tags": {"addr:city": "Madrid", "addr:housenumber": "2", "addr:postcode": "28015", "addr:street": "Plaza del Conde de Toreno", "amenity": "restaurant", "cuisine": "asian", "desde": "1986", "name": "Rey de Tallarines", "name:en": "Noodles King", "name:es": "Rey de Tallarines", "note": "Aqu\u00ed comieron los Pr\u00edncipes de Asturias", "phone": "+34915426897"}}, {"type": "node", "id": 26808568, "lat": 40.4257624, "lon": -3.7120848, "tags": {"addr:city": "Madrid", "addr:housenumber": "2", "addr:postcode": "28015", "addr:street": "Plaza de Cristino Martos", "amenity": "restaurant", "contact:facebook": "https://es-es.facebook.com/parrillanino/", "contact:phone": "+34 915 59 60 11", "name": "La Parrilla de Nino", "wheelchair": "limited"}}, {"type": "node", "id": 26808569, "lat": 40.4252955, "lon": -3.7118249, "tags": {"amenity": "pub", "name": "Tempo", "wheelchair": "no"}}, {"type": "node", "id": 26808571, "lat": 40.42514, "lon": -3.7118533, "tags": {"addr:city": "Madrid", "addr:housenumber": "6", "addr:postcode": "28015", "addr:street": "Calle del Duque de Osuna", "amenity": "restaurant", "cuisine": "indian", "name": "Delhi", "name:en": "Taj Mahal", "name:es": "Taj Mahal", "takeaway": "yes", "website": "http://www.hindudelhi.es/"}}, {"type": "node", "id": 27505289, "lat": 40.4260327, "lon": -3.711541, "tags": {"addr:city": "Madrid", "addr:postcode": "28015", "addr:street": "Calle del Conde Duque", "amenity": "restaurant", "cuisine": "regional", "name": "La Pomarada", "old_name": "Restaurante El Alberche", "source": "survey", "wheelchair": "limited"}}, {"type": "node", "id": 27507931, "lat": 40.4252476, "lon": -3.6963836, "tags": {"addr:city": "Madrid", "addr:housenumber": "6", "addr:postcode": "28004", "addr:street": "Calle de Fernando VI", "amenity": "restaurant", "contact:phone": "+34 608566104", "contact:website": "http://thesexto.com/", "name": "Sexto", "old_name": "Speakeasy"}}, {"type": "node", "id": 27508031, "lat": 40.4274303, "lon": -3.6962971, "tags": {"amenity": "fast_food", "note": "ice cream parlor"}}, {"type": "node", "id": 27717687, "lat": 40.4164064, "lon": -3.7049818, "tags": {"amenity": "fast_food", "brand": "McDonald's", "brand:wikidata": "Q38076", "brand:wikipedia": "es:McDonald's", "cuisine": "burger", "internet_access": "wlan", "name": "McDonald's", "operator": "McDonald's", "source": "survey", "takeaway": "yes"}}, {"type": "node", "id": 27728064, "lat": 40.4162327, "lon": -3.7088498, "tags": {"addr:city": "Madrid", "addr:housenumber": "3", "addr:postcode": "28013", "addr:street": "Plaza del Comandante Las Morenas", "amenity": "restaurant", "contact:website": "http://www.brasaylena.com/#", "name": "Brasa y Le\u00f1a", "old_name": "Colonia del Sacramento", "old_name_1": "Por Una Cabeza"}}, {"type": "node", "id": 27792111, "lat": 40.413636, "lon": -3.7087291, "tags": {"amenity": "restaurant", "brand": "100 Montaditos", "brand:wikidata": "Q8355805", "cuisine": "sandwich", "name": "100 Montaditos"}}, {"type": "node", "id": 32639058, "lat": 40.4167458, "lon": -3.7101814, "tags": {"addr:city": "Madrid", "addr:housenumber": "2", "addr:postcode": "28013", "addr:street": "Calle de la Uni\u00f3n", "amenity": "cafe", "contact:facebook": "https://es-la.facebook.com/pages/ANTICAFE/56452695938", "contact:phone": "+34 915 41 76 57", "name": "Anticaf\u00e9", "outdoor_seating": "no"}}, {"type": "node", "id": 47215976, "lat": 40.4116272, "lon": -3.7102277, "tags": {"addr:city": "Madrid", "addr:country": "ES", "addr:housenumber": "11", "addr:postcode": "28005", "addr:street": "Plaza de la Cebada", "amenity": "restaurant", "name": "El Viajero", "website": "http://www.elviajeromadrid.com/"}}, {"type": "node", "id": 47215988, "lat": 40.4118381, "lon": -3.7105359, "tags": {"addr:city": "Madrid", "addr:housenumber": "42", "addr:postcode": "28005", "addr:street": "Calle de la Cava Baja", "amenity": "pub", "cuisine": "local;spanish", "name": "Pez Tortilla", "old_name": "El Tom\u00e1s", "opening_hours": "Sa-Su 12:00-23:00; Mo-Fr 18:00-23:00", "phone": "+34 913 645 103", "real_ale": "yes", "website": "https://peztortilla.com/la-latina"}}, {"type": "node", "id": 47215997, "lat": 40.4117858, "lon": -3.7103891, "tags": {"amenity": "pub", "contact:phone": "+34913668992", "name": "La Tomasa"}}, {"type": "node", "id": 47216016, "lat": 40.4118652, "lon": -3.7106292, "tags": {"addr:city": "Madrid", "addr:country": "ES", "addr:housenumber": "4", "addr:postcode": "28005", "addr:street": "Plaza del Humilladero", "amenity": "pub", "contact:phone": "+34 913666886", "name": "El Bonanno"}}, {"type": "node", "id": 47216026, "lat": 40.412068, "lon": -3.7105933, "tags": {"amenity": "restaurant", "name": "Que trabaje Rita", "old_name": "Tapasentao"}}, {"type": "node", "id": 47216032, "lat": 40.4119148, "lon": -3.7109368, "tags": {"amenity": "pub", "name": "Cervecer\u00eda San Andr\u00e9s"}}, {"type": "node", "id": 47216100, "lat": 40.4130128, "lon": -3.7113878, "tags": {"amenity": "restaurant", "name": "El Cosaco"}}, {"type": "node", "id": 47216120, "lat": 40.4130894, "lon": -3.7117933, "tags": {"amenity": "restaurant", "contact:website": "http://elestragonvegetariano.com/", "diet:vegetarian": "only", "name": "El Estrag\u00f3n Taberna", "reservation": "yes"}}, {"type": "node", "id": 47216126, "lat": 40.4131593, "lon": -3.7117469, "tags": {"addr:city": "Madrid", "addr:housenumber": "8", "addr:postcode": "28005", "addr:street": "Costanilla de San Andr\u00e9s", "amenity": "restaurant", "contact:website": "http://tiotimon.com/", "cuisine": "regional", "name": "T\u00edo Tim\u00f3n", "old_name": "Taberna Bilbao", "outdoor_seating": "yes"}}, {"type": "node", "id": 47216198, "lat": 40.4137154, "lon": -3.7127335, "tags": {"amenity": "restaurant", "name": "Taquer\u00eda del Alamillo"}}, {"type": "node", "id": 47216276, "lat": 40.4130638, "lon": -3.7129344, "tags": {"amenity": "bar", "name": "Bar Barocco"}}, {"type": "node", "id": 48753285, "lat": 40.4170948, "lon": -3.704137}, {"type": "node", "id": 48753288, "lat": 40.4169462, "lon": -3.7043962}, {"type": "node", "id": 167301835, "lat": 40.4096055, "lon": -3.6926831, "tags": {"addr:city": "Madrid", "addr:country": "ES", "addr:housenumber": "127", "addr:postcode": "28012", "addr:street": "Calle de Atocha", "amenity": "fast_food", "brand": "McDonald's", "brand:wikidata": "Q38076", "brand:wikipedia": "es:McDonald's", "cuisine": "burger", "name": "McDonald's", "takeaway": "yes", "wheelchair": "no"}}, {"type": "node", "id": 167301867, "lat": 40.4093955, "lon": -3.6917429, "tags": {"created_by": "JOSM", "name": "Quiosco Prado", "shop": "kiosk"}}, {"type": "node", "id": 167301883, "lat": 40.4094668, "lon": -3.6927037, "tags": {"name": "kiosco - estanco", "shop": "kiosk"}}, {"type": "node", "id": 167301896, "lat": 40.4094884, "lon": -3.6938073, "tags": {"amenity": "bar"}}, {"type": "node", "id": 167301910, "lat": 40.4104639, "lon": -3.6956565, "tags": {"amenity": "fast_food", "wheelchair": "no"}}, {"type": "node", "id": 167301919, "lat": 40.4109882, "lon": -3.6966965, "tags": {"amenity": "pub", "name": "Gujarat", "old_name": "Bar Castilla"}}, {"type": "node", "id": 167301935, "lat": 40.4110395, "lon": -3.6967784, "tags": {"name": "Tienda de Alimentaci\u00f3n", "name:es": "Tienda de Alimentaci\u00f3n", "shop": "convenience"}}, {"type": "node", "id": 167301964, "lat": 40.4116383, "lon": -3.6979403, "tags": {"amenity": "bar"}}, {"type": "node", "id": 167301973, "lat": 40.4115676, "lon": -3.6978097, "tags": {"amenity": "restaurant", "name": "Fuente de la Fama", "website": "http://www.restaurantefuentedelafama.com/es/"}}, {"type": "node", "id": 167302012, "lat": 40.4109761, "lon": -3.6961428, "tags": {"name": "Casa Pajuelo", "shop": "deli"}}, {"type": "node", "id": 167302029, "lat": 40.4108575, "lon": -3.6957127, "tags": {"amenity": "pub", "created_by": "JOSM", "name": "Casablanca"}}, {"type": "node", "id": 167302052, "lat": 40.4111815, "lon": -3.6957132, "tags": {"amenity": "restaurant", "name": "A Ca\u00f1ada", "survey:date": "2022-07-23", "wheelchair": "no"}}, {"type": "node", "id": 167302080, "lat": 40.4125053, "lon": -3.695567, "tags": {"name": "Alimentaci\u00f3n Mantequer\u00eda", "shop": "convenience"}}, {"type": "node", "id": 167302088, "lat": 40.412496, "lon": -3.6956871, "tags": {"amenity": "pub", "name": "La Tabernita de San Juan"}}, {"type": "node", "id": 167302111, "lat": 40.4124453, "lon": -3.6961583, "tags": {"amenity": "bar", "name": "Fever", "wheelchair": "no"}}, {"type": "node", "id": 167302123, "lat": 40.412427, "lon": -3.6963071, "tags": {"amenity": "restaurant", "name": "Arrocer\u00eda Gala", "wheelchair": "no"}}, {"type": "node", "id": 167302132, "lat": 40.4127079, "lon": -3.6943165, "tags": {"addr:city": "Madrid", "addr:housenumber": "49", "addr:postcode": "28014", "addr:street": "Calle de Morat\u00edn", "amenity": "pub", "name": "La Plater\u00eda", "old_name": "Bar del Museo", "wheelchair": "limited", "wheelchair:description": "Acceso y espacio interior bueno, ba\u00f1os no adaptados."}}, {"type": "node", "id": 167302151, "lat": 40.4126615, "lon": -3.6938445, "tags": {"created_by": "JOSM", "shop": "kiosk"}}, {"type": "node", "id": 167302180, "lat": 40.4122937, "lon": -3.6939658, "tags": {"addr:city": "Madrid", "addr:housenumber": "4", "addr:postcode": "28014", "addr:street": "Calle de la Alameda", "amenity": "restaurant", "cuisine": "spanish", "diet:vegan": "yes", "diet:vegetarian": "only", "name": "El Fog\u00f3n Verde", "old_name": "Las 4 Fuentes", "website": "http://elfogonverde.net/"}}, {"type": "node", "id": 167302217, "lat": 40.4110206, "lon": -3.6947372, "tags": {"name": "Chinos", "organic": "only", "shop": "supermarket"}}, {"type": "node", "id": 167302439, "lat": 40.4128038, "lon": -3.695685, "tags": {"amenity": "bar", "name": "La Hidria"}}, {"type": "node", "id": 167302513, "lat": 40.4129838, "lon": -3.6956873, "tags": {"amenity": "bar", "name": "La Esquina"}}, {"type": "node", "id": 167302521, "lat": 40.4125537, "lon": -3.6951865, "tags": {"addr:city": "Madrid", "addr:housenumber": "40", "addr:postcode": "28014", "addr:street": "Calle de Morat\u00edn", "amenity": "pub", "name": "La Fet\u00e9n", "wheelchair": "no"}}, {"type": "node", "id": 167302527, "lat": 40.4125743, "lon": -3.6949558, "tags": {"amenity": "pub", "name": "D'B\u00f3veda", "old_name": "B\u00f3vedas"}}, {"type": "node", "id": 167302600, "lat": 40.4129105, "lon": -3.6953446, "tags": {"addr:city": "Madrid", "addr:street": "Calle Huertas", "brand": "Dia", "brand:wikidata": "Q925132", "brand:wikipedia": "es:DIA (supermercados)", "name": "Dia", "opening_hours": "Mo-Fr 09:00-21:30; Sa-Su 10:00-14:30", "operator": "DIA", "shop": "supermarket", "wheelchair": "no", "wheelchair:description": "Several steps from street, automatic sliding doors."}}, {"type": "node", "id": 167302636, "lat": 40.412803, "lon": -3.6946194}, {"type": "node", "id": 167302640, "lat": 40.413178, "lon": -3.6957012, "tags": {"addr:city": "Madrid", "addr:country": "ES", "addr:housenumber": "69", "addr:postcode": "28014", "addr:street": "Calle de las Huertas", "air_conditioning": "yes", "amenity": "bar", "name": "El Diario"}}, {"type": "node", "id": 167302641, "lat": 40.4136254, "lon": -3.6956999, "tags": {"addr:city": "Madrid", "addr:housenumber": "2", "addr:postcode": "28014", "addr:street": "Calle de Jes\u00fas", "amenity": "bar", "contact:facebook": "https://www.facebook.com/pages/Cervecer%C3%ADa-La-F%C3%A1brica/135300993192900", "contact:phone": "+34 913 69 06 71", "name": "La F\u00e1brica"}}, {"type": "node", "id": 167302645, "lat": 40.4135119, "lon": -3.6957073, "tags": {"amenity": "bar", "name": "Los Gatos", "wikidata": "Q57446751"}}, {"type": "node", "id": 167302652, "lat": 40.4133633, "lon": -3.695701, "tags": {"amenity": "bar", "name": "La Ancho\u00edta"}}, {"type": "node", "id": 167302661, "lat": 40.4134319, "lon": -3.6957085, "tags": {"amenity": "restaurant", "name": "El R\u00e1bano"}}, {"type": "node", "id": 167302675, "lat": 40.4136237, "lon": -3.6960696, "tags": {"addr:city": "Madrid", "addr:country": "ES", "addr:housenumber": "32", "addr:postcode": "28014", "addr:street": "Calle de Lope de Vega", "amenity": "restaurant", "cuisine": "regional", "email": "restaurante@terramundi.net", "name": "Terra Mundi", "phone": "+34 914295280;+34 914296380", "website": "http://www.terramundi.net/"}}, {"type": "node", "id": 167302687, "lat": 40.4137383, "lon": -3.6957781, "tags": {"addr:city": "Madrid", "addr:housenumber": "4", "addr:postcode": "28014", "addr:street": "Plaza de Jes\u00fas", "amenity": "pub", "contact:facebook": "https://www.facebook.com/pages/Taberna-de-la-Dolores/138072552914407", "name": "Taberna de la Dolores", "name:zh": "\u4e00\u4e2a\u9676\u74f7\u5efa\u9020\u7684\u5f88\u6709\u6c14\u6c1b\u7684\u9152\u5427"}}, {"type": "node", "id": 167302693, "lat": 40.4141167, "lon": -3.6957942, "tags": {"addr:city": "Madrid", "addr:housenumber": "7", "addr:postcode": "28014", "addr:street": "Plaza de Jes\u00fas", "amenity": "bar", "contact:phone": "+34 91 389 62 38", "contact:website": "http://www.tabernadeladaniela.com/nuestras-danielas/la-daniela-medinaceli/", "name": "Taberna de la Daniela"}}, {"type": "node", "id": 167302764, "lat": 40.4137161, "lon": -3.6955887, "tags": {"amenity": "pub", "name": "Granja Blanca"}}, {"type": "node", "id": 167302774, "lat": 40.414563, "lon": -3.6958434, "tags": {"amenity": "pub", "name": "La Taberna de Jose"}}, {"type": "node", "id": 167302888, "lat": 40.4169233, "lon": -3.6966322, "tags": {"amenity": "restaurant", "name": "Edelweiss", "source": "survey"}}, {"type": "node", "id": 167302891, "lat": 40.4171806, "lon": -3.6965924, "tags": {"amenity": "restaurant", "name": "El Secreto de Castilla", "source": "survey"}}, {"type": "node", "id": 167302905, "lat": 40.4173325, "lon": -3.6966034, "tags": {"addr:housenumber": "3", "addr:postcode": "28014", "addr:street": "Calle Jovellanos", "amenity": "restaurant", "email": "reservas@sagardi.com", "name": "Sagardi", "phone": "+34 91 531 2564", "source": "survey", "website": "http://www.sagardi.com/"}}, {"type": "node", "id": 167302916, "lat": 40.4168278, "lon": -3.6970761, "tags": {"amenity": "pub", "created_by": "JOSM", "name": "Bar"}}, {"type": "node", "id": 167302928, "lat": 40.416822, "lon": -3.6971908, "tags": {"amenity": "restaurant", "created_by": "JOSM", "diet:vegetarian": "only", "name": "Vegetariano"}}, {"type": "node", "id": 167302932, "lat": 40.4168084, "lon": -3.6973366, "tags": {"amenity": "cafe", "created_by": "JOSM"}}, {"type": "node", "id": 167302942, "lat": 40.4182418, "lon": -3.6961976, "tags": {"amenity": "cafe"}}, {"type": "node", "id": 170951624, "lat": 40.4046885, "lon": -3.7019897, "tags": {"addr:city": "Madrid", "addr:country": "ES", "addr:housenumber": "55", "addr:postcode": "28012", "addr:street": "Calle de Embajadores", "amenity": "cafe", "brand": "Granier", "brand:wikidata": "Q102311169", "cuisine": "coffee_shop", "name": "Granier", "shop": "bakery"}}, {"type": "node", "id": 170951634, "lat": 40.4044417, "lon": -3.7018264, "tags": {"name": "La Verde Doncella", "shop": "greengrocer"}}, {"type": "node", "id": 170951699, "lat": 40.4051443, "lon": -3.7015311, "tags": {"brand": "Dia & Go", "brand:wikidata": "Q925132", "brand:wikipedia": "es:Supermercados DIA", "name": "Dia & Go", "old_name": "Dia MARKET", "shop": "convenience"}}, {"type": "node", "id": 170951714, "lat": 40.4047549, "lon": -3.7014847, "tags": {"amenity": "restaurant", "name": "A Ca\u00f1ada"}}, {"type": "node", "id": 170952448, "lat": 40.4061261, "lon": -3.6980734, "tags": {"name": "Chinos - alimentaci\u00f3n", "shop": "convenience"}}, {"type": "node", "id": 178820881, "lat": 40.4151603, "lon": -3.7121513, "tags": {"addr:city": "Madrid", "addr:housenumber": "77", "addr:postcode": "28013", "addr:street": "Calle Mayor", "amenity": "pub", "name": "La Mayor", "phone": "+34 911302435", "real_ale": "yes", "website": "http://lamayor-cerveceria.es.tl/"}}, {"type": "node", "id": 178820898, "lat": 40.4154807, "lon": -3.7111249, "tags": {"addr:city": "Madrid", "addr:housenumber": "74", "addr:postcode": "28013", "addr:street": "Calle Mayor", "amenity": "bar", "name": "La Amarilla", "wheelchair": "no"}}, {"type": "node", "id": 178820903, "lat": 40.4154405, "lon": -3.7113374, "tags": {"addr:city": "Madrid", "addr:housenumber": "76", "addr:postcode": "28013", "addr:street": "Calle Mayor", "amenity": "restaurant", "contact:facebook": "https://www.facebook.com/pages/Taperia-Mayor-76/532951410167084", "cuisine": "regional", "name": "Taper\u00eda Mayor"}}, {"type": "node", "id": 178820915, "lat": 40.4151444, "lon": -3.7118077, "tags": {"amenity": "cafe", "created_by": "JOSM"}}, {"type": "node", "id": 178820920, "lat": 40.4151622, "lon": -3.7116415, "tags": {"addr:country": "ES", "shop": "bakery"}}, {"type": "node", "id": 178820924, "lat": 40.4152606, "lon": -3.7115508, "tags": {"addr:city": "Madrid", "addr:housenumber": "73", "addr:postcode": "28013", "addr:street": "Calle Mayor", "amenity": "restaurant", "contact:email": "info@restaurantearcade.es", "contact:phone": "+34 91 431 40 83", "contact:website": "http://www.restaurantearcade.es/", "cuisine": "regional", "name": "Arcade"}}, {"type": "node", "id": 178820939, "lat": 40.4156552, "lon": -3.710208, "tags": {"addr:city": "Madrid", "addr:housenumber": "68", "addr:postcode": "28013", "addr:street": "Calle Mayor", "amenity": "restaurant", "contact:phone": "+34 915476715", "contact:website": "https://cerveceriacruzblanca.es/local/cervecer%C3%ADa-cruz-blanca-madrid-mayor", "name": "Cruz Blanca", "wheelchair": "no"}}, {"type": "node", "id": 178820945, "lat": 40.4155619, "lon": -3.7100123, "tags": {"amenity": "restaurant"}}, {"type": "node", "id": 178820965, "lat": 40.4153729, "lon": -3.7094547, "tags": {"amenity": "restaurant", "contact:phone": "+34917589339", "name": "Taste Gallery"}}, {"type": "node", "id": 178820973, "lat": 40.4156874, "lon": -3.7092708, "tags": {"amenity": "ice_cream"}}, {"type": "node", "id": 178820979, "lat": 40.41575, "lon": -3.7091974, "tags": {"addr:country": "ES", "name": "SuperSano", "shop": "convenience"}}, {"type": "node", "id": 178821005, "lat": 40.4163669, "lon": -3.7104348, "tags": {"addr:city": "Madrid", "addr:housenumber": "9", "addr:postcode": "28013", "addr:street": "Calle de Santiago", "amenity": "restaurant", "contact:phone": "+34 91 542 21 60", "contact:website": "http://www.restaurantetaberneros.es/", "name": "Taberneros"}}, {"type": "node", "id": 178821006, "lat": 40.4164826, "lon": -3.7106873, "tags": {"addr:city": "Madrid", "addr:housenumber": "11", "addr:postcode": "28013", "addr:street": "Calle de Santiago", "amenity": "restaurant", "contact:facebook": "https://es-es.facebook.com/arbonaidabar/", "contact:phone": "+34 639 50 00 68", "name": "Arbonaida", "old_name": "El Gato Ca\u00f1\u00ed"}}, {"type": "node", "id": 178821011, "lat": 40.4160981, "lon": -3.7097389}, {"type": "node", "id": 178821020, "lat": 40.416228, "lon": -3.709498}, {"type": "node", "id": 178821046, "lat": 40.416073, "lon": -3.7085285, "tags": {"addr:city": "Madrid", "addr:housenumber": "42", "addr:postcode": "28013", "addr:street": "Calle Mayor", "amenity": "bar", "name": "Velicia"}}, {"type": "node", "id": 178821166, "lat": 40.4167707, "lon": -3.706803, "tags": {"addr:city": "Madrid", "addr:country": "ES", "addr:housenumber": "5", "addr:postcode": "28013", "addr:street": "Pasadizo de San Gin\u00e9s", "amenity": "cafe", "cuisine": "coffee_shop", "entrance": "main", "name": "Chocolater\u00eda San Gin\u00e9s", "opening_hours": "Mo-Su 08:00-23:30", "phone": "+34913656546", "website": "https://chocolateriasangines.com/", "wheelchair": "limited", "wikidata": "Q5103675", "wikipedia": "es:Chocolater\u00eda San Gin\u00e9s"}}, {"type": "node", "id": 178821190, "lat": 40.4166338, "lon": -3.7069412, "tags": {"addr:city": "Madrid", "addr:housenumber": "4", "addr:postcode": "28013", "addr:street": "Calle de Coloreros", "amenity": "pub", "contact:facebook": "https://www.facebook.com/pages/Bar-yambala/101305056584587?sk=info&tab=overview", "contact:phone": "+34 619846449", "name": "Yambala"}}, {"type": "node", "id": 178821207, "lat": 40.4161161, "lon": -3.7075072, "tags": {"amenity": "restaurant", "name": "Grazie Mille"}}, {"type": "node", "id": 178821228, "lat": 40.4160273, "lon": -3.7050598, "tags": {"addr:city": "Madrid", "addr:housenumber": "3", "addr:postcode": "28012", "addr:street": "Calle de Esparteros", "amenity": "fast_food", "brand": "Burger King", "brand:wikidata": "Q177054", "brand:wikipedia": "es:Burger King", "cuisine": "burger", "name": "Burger King", "source": "survey", "takeaway": "yes", "wheelchair": "no"}}, {"type": "node", "id": 178821235, "lat": 40.4164854, "lon": -3.704493, "tags": {"alt_name": "Kentucky Fried Chicken", "amenity": "fast_food", "brand": "KFC", "brand:wikidata": "Q524757", "brand:wikipedia": "en:KFC", "cuisine": "chicken", "name": "KFC", "source": "survey", "takeaway": "yes", "wheelchair": "limited"}}, {"type": "node", "id": 183916162, "lat": 40.4177493, "lon": -3.7089054, "tags": {"addr:city": "Madrid", "addr:housenumber": "23", "addr:postcode": "28013", "addr:street": "Calle Arenal", "amenity": "fast_food", "cuisine": "pizza", "name": "opera:pizza"}}, {"type": "node", "id": 183916175, "lat": 40.4177572, "lon": -3.7092982, "tags": {"shop": "convenience"}}, {"type": "node", "id": 184049038, "lat": 40.4180474, "lon": -3.7087248, "tags": {"shop": "convenience"}}, {"type": "node", "id": 184049059, "lat": 40.4187591, "lon": -3.7088475, "tags": {"shop": "convenience"}}, {"type": "node", "id": 184049060, "lat": 40.4186369, "lon": -3.7090308, "tags": {"addr:city": "Madrid", "addr:housenumber": "3", "addr:postcode": "28013", "addr:street": "Calle de Ca\u00f1os del Peral", "amenity": "restaurant", "contact:phone": "+34 915 420 644", "cuisine": "mexican", "name": "Entre suspiro y suspiro", "source": "survey", "website": "http://www.entresuspiroysuspiro.com/"}}, {"type": "node", "id": 184049103, "lat": 40.4185506, "lon": -3.7089327, "tags": {"addr:city": "Madrid", "addr:housenumber": "2", "addr:postcode": "28013", "addr:street": "Calle de Ca\u00f1os del Peral", "amenity": "restaurant", "contact:phone": "+34 918 313 489", "contact:website": "http://www.grupandilana.com/opera-victoria/", "name": "\u00d3pera Victoria", "old_name": "La Vaca Argentina"}}, {"type": "node", "id": 184049106, "lat": 40.4188918, "lon": -3.7086559, "tags": {"addr:city": "Madrid", "addr:housenumber": "7", "addr:postcode": "28013", "addr:street": "Calle de Ca\u00f1os del Peral", "amenity": "bar", "name": "Discoteca Olimpia"}}, {"type": "node", "id": 184049146, "lat": 40.4196027, "lon": -3.7077218, "tags": {"addr:city": "Madrid", "addr:housenumber": "9", "addr:postcode": "28013", "addr:street": "Calle de las Veneras", "amenity": "restaurant", "cuisine": "chinese", "name": "Wok King"}}, {"type": "node", "id": 184049154, "lat": 40.4196933, "lon": -3.7080629, "tags": {"name": "Alimentaci\u00f3n", "shop": "convenience"}}, {"type": "node", "id": 184049155, "lat": 40.4191441, "lon": -3.7080701, "tags": {"name": "Fruter\u00eda", "shop": "greengrocer"}}, {"type": "node", "id": 184049159, "lat": 40.4186643, "lon": -3.7082433, "tags": {"addr:city": "Madrid", "addr:housenumber": "8", "addr:postcode": "28013", "addr:street": "Costanilla de los \u00c1ngeles", "amenity": "restaurant", "name": "Taberna de los \u00c1ngeles"}}, {"type": "node", "id": 184049171, "lat": 40.4196449, "lon": -3.7070086, "tags": {"addr:city": "Madrid", "addr:housenumber": "33", "addr:postcode": "28013", "addr:street": "Calle Preciados", "amenity": "restaurant", "cuisine": "regional", "name": "Lizarran", "phone": "+34 917 010 812", "website": "https://www.lizarran.es/", "wheelchair": "limited"}}, {"type": "node", "id": 184049176, "lat": 40.4192413, "lon": -3.7074836, "tags": {"addr:city": "Madrid", "addr:postcode": "28013", "addr:street": "Calle de las Veneras", "amenity": "pub", "name": "Cervercer\u00eda Erte"}}, {"type": "node", "id": 184049181, "lat": 40.4189473, "lon": -3.7077324, "tags": {"amenity": "pub"}}, {"type": "node", "id": 184049191, "lat": 40.4190743, "lon": -3.706309, "tags": {"addr:city": "Madrid", "addr:housenumber": "5", "addr:postcode": "28013", "addr:street": "Calle del Postigo de San Mart\u00edn", "amenity": "pub", "name": "Do\u00f1a Juana cervecer\u00eda", "phone": "+34 915 215 900", "website": "http://www.cerveceriarestaurantedonajuanamadrid.com/"}}, {"type": "node", "id": 184049245, "lat": 40.4195879, "lon": -3.7056179}, {"type": "node", "id": 184049246, "lat": 40.41961, "lon": -3.705508}, {"type": "node", "id": 184049247, "lat": 40.418919, "lon": -3.7049815}, {"type": "node", "id": 184049248, "lat": 40.4188568, "lon": -3.7051257}, {"type": "node", "id": 184049254, "lat": 40.4187951, "lon": -3.704916, "tags": {"addr:city": "Madrid", "addr:housenumber": "27", "addr:postcode": "28013", "addr:street": "Calle del Carmen", "name": "Viandas de Salamanca", "phone": "+34 915 212 774", "shop": "deli", "website": "http://viandasdesalamanca.es/home/web/nuestras-tiendas/2013/madrid-cel-carmen/"}}, {"type": "node", "id": 184049293, "lat": 40.418183, "lon": -3.7031236, "tags": {"addr:city": "Madrid", "addr:housenumber": "34", "addr:postcode": "28013", "addr:street": "Calle de Tetu\u00e1n", "amenity": "restaurant", "contact:phone": "+34 915 22 47 93", "contact:website": "http://parrillaelgaucho.es/", "name": "El Gaucho"}}, {"type": "node", "id": 184049299, "lat": 40.4178368, "lon": -3.7034663, "tags": {"organic": "yes", "shop": "convenience"}}, {"type": "node", "id": 184049315, "lat": 40.4185047, "lon": -3.7034827, "tags": {"amenity": "cafe", "name": "Vianvi"}}, {"type": "node", "id": 184049330, "lat": 40.419207, "lon": -3.7029076, "tags": {"addr:housenumber": "4", "addr:postcode": "28013", "addr:street": "Calle de las Tres Cruces", "amenity": "restaurant", "contact:website": "https://restaurantevegetarianosolgranvia.com/", "diet:gluten_free": "only", "diet:vegetarian": "only", "name": "Artemisa", "reservation": "yes"}}, {"type": "node", "id": 184049333, "lat": 40.4193933, "lon": -3.7029579, "tags": {"shop": "convenience"}}, {"type": "node", "id": 184049359, "lat": 40.4191018, "lon": -3.7039069, "tags": {"amenity": "bar"}}, {"type": "node", "id": 184049370, "lat": 40.418948, "lon": -3.7037389, "tags": {"addr:city": "Madrid", "addr:housenumber": "2", "addr:postcode": "28013", "addr:street": "Calle Abada", "amenity": "restaurant", "contact:facebook": "https://es-es.facebook.com/takosalpastormadrid", "contact:phone": "+34 680 24 72 17", "cuisine": "mexican", "name": "Takos Al Pastor", "opening_hours": "13:30-00:00; Mo off"}}, {"type": "node", "id": 184049390, "lat": 40.4193676, "lon": -3.703326, "tags": {"addr:housenumber": "13", "addr:postcode": "28013", "addr:street": "Calle de la Salud", "amenity": "cafe", "name": "OVNI"}}, {"type": "node", "id": 184049402, "lat": 40.4193117, "lon": -3.7040573, "tags": {"amenity": "pub"}}, {"type": "node", "id": 184049438, "lat": 40.4202714, "lon": -3.7029282, "tags": {"amenity": "fast_food", "brand": "Pans & Company", "brand:wikidata": "Q11697586", "brand:wikipedia": "es:Pans & Company", "cuisine": "sandwich", "name": "Pans & Company", "takeaway": "yes"}}, {"type": "node", "id": 184049441, "lat": 40.4202661, "lon": -3.7028563, "tags": {"amenity": "cafe", "brand": "Starbucks", "brand:wikidata": "Q37158", "brand:wikipedia": "en:Starbucks", "cuisine": "coffee_shop", "name": "Starbucks", "official_name": "Starbucks Coffee", "takeaway": "yes"}}, {"type": "node", "id": 184049470, "lat": 40.4204138, "lon": -3.7049789, "tags": {"addr:city": "Madrid", "addr:housenumber": "40", "addr:postcode": "28013", "addr:street": "Gran V\u00eda", "amenity": "fast_food", "brand": "Burger King", "brand:wikidata": "Q177054", "brand:wikipedia": "es:Burger King", "cuisine": "burger", "name": "Burger King", "takeaway": "yes", "website": "https://www.burgerking.es"}}, {"type": "node", "id": 184049491, "lat": 40.4200282, "lon": -3.7054691, "tags": {"addr:city": "Madrid", "addr:housenumber": "4", "addr:postcode": "28013", "addr:street": "Plaza de Callao", "amenity": "cafe", "brand": "Starbucks", "brand:wikidata": "Q37158", "brand:wikipedia": "en:Starbucks", "cuisine": "coffee_shop", "name": "Starbucks", "official_name": "Starbucks Coffee", "opening_hours": "07:30 - 00:00", "phone": "+34 912758141", "source": "knowledge", "takeaway": "yes", "website": "http://www.starbucks.es/"}}, {"type": "node", "id": 184049506, "lat": 40.4194819, "lon": -3.7058085, "tags": {"amenity": "fast_food", "brand": "Rodilla", "brand:wikidata": "Q7356777", "brand:wikipedia": "es:Rodilla (franquicia)", "cuisine": "sandwich", "name": "Rodilla", "takeaway": "yes"}}, {"type": "node", "id": 184049552, "lat": 40.4205737, "lon": -3.7068314, "tags": {"addr:city": "Madrid", "addr:housenumber": "43", "addr:postcode": "28013", "addr:street": "Gran V\u00eda", "amenity": "restaurant", "brand": "Ginos", "brand:wikidata": "Q98503664", "cuisine": "italian", "name": "Ginos", "old_name": "VIPS"}}, {"type": "node", "id": 184049626, "lat": 40.4224112, "lon": -3.7096572, "tags": {"organic": "only", "shop": "convenience"}}, {"type": "node", "id": 244755788, "lat": 40.4101569, "lon": -3.7008624, "tags": {"amenity": "pub", "name": "Los Gamos"}}, {"type": "node", "id": 244755792, "lat": 40.4102862, "lon": -3.7008582, "tags": {"amenity": "restaurant", "created_by": "JOSM", "name": "Preity Raj", "note": "Restaurante Hind\u00fa"}}, {"type": "node", "id": 244755796, "lat": 40.4105707, "lon": -3.7007429, "tags": {"amenity": "pub", "name": "La Aguja"}}, {"type": "node", "id": 244757864, "lat": 40.4109653, "lon": -3.7004479, "tags": {"addr:city": "Madrid", "addr:housenumber": "17", "addr:postcode": "28012", "addr:street": "Calle del Ave Mar\u00eda", "amenity": "restaurant", "contact:website": "http://sidreriaacanada.com/", "cuisine": "regional", "name": "A Ca\u00f1ada", "old_name": "Bar Viriato"}}, {"type": "node", "id": 244757871, "lat": 40.4111374, "lon": -3.700326, "tags": {"addr:city": "Madrid", "addr:housenumber": "15", "addr:postcode": "28012", "addr:street": "Calle del Ave Mar\u00eda", "amenity": "restaurant", "contact:website": "http://www.rajamahal.es/", "cuisine": "indian", "name": "Raja Mahal"}}, {"type": "node", "id": 244757875, "lat": 40.4110886, "lon": -3.700589, "tags": {"amenity": "restaurant", "name": "Moharaj", "old_name": "Rani Mahal"}}, {"type": "node", "id": 244761676, "lat": 40.4108202, "lon": -3.7005322, "tags": {"addr:city": "Madrid", "addr:country": "ES", "addr:postcode": "28012", "addr:street": "Calle del Ave Mar\u00eda", "amenity": "restaurant", "cuisine": "pizza", "name": "Nap", "old_name": "SinPecado"}}, {"type": "node", "id": 244761679, "lat": 40.4107264, "lon": -3.7008747, "tags": {"amenity": "restaurant", "name": "Bombay Palace"}}, {"type": "node", "id": 244761689, "lat": 40.4101321, "lon": -3.6995485, "tags": {"amenity": "pub", "old_name": "Bangal\u00e1"}}, {"type": "node", "id": 244761692, "lat": 40.4096555, "lon": -3.7009094, "tags": {"addr:city": "Madrid", "addr:housenumber": "39", "addr:postcode": "28012", "addr:street": "Calle del Ave Mar\u00eda", "amenity": "pub", "name": "La Inquilina"}}, {"type": "node", "id": 244761696, "lat": 40.4093708, "lon": -3.7009194, "tags": {"amenity": "restaurant"}}, {"type": "node", "id": 244761700, "lat": 40.4094201, "lon": -3.7009059, "tags": {"addr:city": "Madrid", "addr:housenumber": "43", "addr:postcode": "28012", "addr:street": "Calle del Ave Mar\u00eda", "amenity": "pub", "contact:facebook": "vivachapataMadrid", "email": "vivachapatalavapies@hotmail.com", "name": "Viva Chapata", "phone": "+34 915 30 10 93", "website": "https://vivachapata.es/", "wheelchair": "no", "wheelchair:description": "Escal\u00f3n a la entrada."}}, {"type": "node", "id": 244763842, "lat": 40.4093334, "lon": -3.7010845, "tags": {"amenity": "pub", "name": "Shisha-Teter\u00eda Babilonia"}}, {"type": "node", "id": 244763856, "lat": 40.4105463, "lon": -3.6993951, "tags": {"amenity": "pub", "name": "El 15"}}, {"type": "node", "id": 244763860, "lat": 40.4106867, "lon": -3.6995223, "tags": {"addr:city": "Madrid", "addr:country": "ES", "addr:housenumber": "20", "addr:postcode": "28012", "addr:street": "Calle de los Tres Peces", "alt_name": "El Aperitivo", "amenity": "restaurant", "bar": "yes", "cuisine": "tapas", "name": "El Aperitivo del Coraz\u00f3n", "opening_hours": "Mo-Su 07:00-02:00", "phone": "+34 915 28 00 43"}}, {"type": "node", "id": 244763863, "lat": 40.4107804, "lon": -3.6994987, "tags": {"amenity": "cafe", "name": "El Despertar", "website": "http://www.cafeeldespertar.com/"}}, {"type": "node", "id": 244766781, "lat": 40.4115173, "lon": -3.6996972, "tags": {"amenity": "cafe", "name": "El Colmo", "old_name": "Kappa"}}, {"type": "node", "id": 244766784, "lat": 40.4115848, "lon": -3.6995961, "tags": {"amenity": "pub", "name": "F.M."}}, {"type": "node", "id": 244766788, "lat": 40.4114924, "lon": -3.6994308, "tags": {"addr:city": "Madrid", "addr:housenumber": "3", "addr:postcode": "28012", "addr:street": "Calle de la Torrecilla del Leal", "amenity": "restaurant", "contact:phone": "+34 915 28 25 42", "contact:website": "http://www.mesonobarquino.es/", "name": "O'Barqui\u00f1o"}}, {"type": "node", "id": 244766792, "lat": 40.4117686, "lon": -3.6995763}, {"type": "node", "id": 244766796, "lat": 40.4117492, "lon": -3.700322, "tags": {"addr:city": "Madrid", "addr:country": "ES", "addr:housenumber": "8", "addr:postcode": "28012", "addr:street": "Calle del Ave Mar\u00eda", "amenity": "restaurant", "cuisine": "italian;creative", "name": "La Temeraria"}}, {"type": "node", "id": 244767593, "lat": 40.4116655, "lon": -3.700364, "tags": {"amenity": "restaurant", "name": "El Dinosaurio", "old_name": "Teter\u00eda Puerta de Damasco"}}, {"type": "node", "id": 244767595, "lat": 40.4115875, "lon": -3.7003917, "tags": {"amenity": "pub", "name": "Bodegas Alfaro"}}, {"type": "node", "id": 266170054, "lat": 40.4193384, "lon": -3.7080248, "tags": {"addr:city": "Madrid", "addr:country": "ES", "addr:housenumber": "16", "addr:postcode": "28013", "addr:street": "Costanilla de los \u00c1ngeles", "amenity": "fast_food", "educamadrid:tipo_via": "Costanilla", "name": "Spicy Grill & Pizza", "old_name": "Centro Europeo de Estudios Profesionales II"}}, {"type": "node", "id": 266390242, "lat": 40.4231999, "lon": -3.6980352, "tags": {"addr:city": "Madrid", "addr:country": "ES", "addr:housenumber": "5", "addr:postcode": "28004", "addr:street": "Calle de Gravina", "addr:subdistrict": "Justicia", "amenity": "pub", "name": "D'Mystic", "phone": "+34 913082460"}}, {"type": "node", "id": 266390246, "lat": 40.4231951, "lon": -3.6982486, "tags": {"amenity": "bar", "name": "El Buo", "old_name": "BAires"}}, {"type": "node", "id": 266390473, "lat": 40.4127776, "lon": -3.7076389, "tags": {"amenity": "pub", "name": "San Bruno"}}, {"type": "node", "id": 305536401, "lat": 40.4230858, "lon": -3.6935468, "tags": {"amenity": "restaurant", "name": "La Castafiore"}}, {"type": "node", "id": 307056158, "lat": 40.4159664, "lon": -3.710711, "tags": {"amenity": "restaurant", "name": "Can Punyetes", "name:ru": "\u041a\u0430\u043a\u0430\u0443\u0446\u0443\u043a"}}, {"type": "node", "id": 324580483, "lat": 40.4226068, "lon": -3.6932565, "tags": {"amenity": "restaurant", "cuisine": "japanese", "name": "Sake Dining Himawari"}}, {"type": "node", "id": 339243711, "lat": 40.4167062, "lon": -3.7007318}, {"type": "node", "id": 339243712, "lat": 40.4167819, "lon": -3.7006584}, {"type": "node", "id": 340219294, "lat": 40.4303643, "lon": -3.714887}, {"type": "node", "id": 340219295, "lat": 40.4302644, "lon": -3.7148146}, {"type": "node", "id": 340219296, "lat": 40.4297199, "lon": -3.7152476}, {"type": "node", "id": 340219297, "lat": 40.4297222, "lon": -3.7153898}, {"type": "node", "id": 340219298, "lat": 40.4303667, "lon": -3.7158662}, {"type": "node", "id": 340219299, "lat": 40.4304578, "lon": -3.7157942}, {"type": "node", "id": 363997548, "lat": 40.4265261, "lon": -3.7008811, "tags": {"addr:city": "Madrid", "addr:housenumber": "3", "addr:postcode": "28004", "addr:street": "Calle de Barcel\u00f3", "amenity": "fast_food", "brand": "Burger King", "brand:wikidata": "Q177054", "brand:wikipedia": "en:Burger King", "cuisine": "burger", "name": "Burger King", "operator": "Burger King", "takeaway": "yes", "website": "https://www.burgerking.es"}}, {"type": "node", "id": 363997551, "lat": 40.4264788, "lon": -3.70103, "tags": {"addr:city": "Madrid", "addr:housenumber": "1", "addr:postcode": "28004", "addr:street": "Calle de Barcel\u00f3", "amenity": "restaurant", "contact:email": "contacto@ninjaramen.es", "contact:phone": "+34 914 939 994", "contact:website": "http://ninjaramen.es/", "cuisine": "japanese", "name": "Ninja Ramen", "old_name": "Moore's & Co"}}, {"type": "node", "id": 390582247, "lat": 40.4267323, "lon": -3.6957653, "tags": {"name": "Cacao Sampaka", "shop": "chocolate"}}, {"type": "node", "id": 453232707, "lat": 40.4158435, "lon": -3.702398, "tags": {"amenity": "restaurant", "cuisine": "cuban", "name": "La Negra Tomasa", "phone": "+34 91 523 58 30", "source": "survey", "website": "https://www.lanegratomasa.com/", "wheelchair": "yes"}}, {"type": "node", "id": 510141904, "lat": 40.4166278, "lon": -3.7047732, "tags": {"addr:city": "Madrid", "addr:country": "ES", "addr:housenumber": "8", "addr:postcode": "28013", "addr:street": "Plaza de la Puerta del Sol", "name": "La Mallorquina", "opening_hours": "Mo-Su 08:30-21:15", "phone": "+34915211201", "shop": "pastry", "website": "https://pastelerialamallorquina.es/", "wikidata": "Q5964187", "wikipedia": "es:La Mallorquina"}}, {"type": "node", "id": 510141905, "lat": 40.4163433, "lon": -3.7056737, "tags": {"amenity": "restaurant", "cuisine": "spanish", "name": "Museo del Jam\u00f3n", "opening_hours": "Mo-Su 13:00-24:00"}}, {"type": "node", "id": 510812793, "lat": 40.4157937, "lon": -3.7060266, "tags": {"amenity": "pub", "name": "Cervecer\u00eda Postas Quince"}}, {"type": "node", "id": 510812799, "lat": 40.4158574, "lon": -3.7059152, "tags": {"amenity": "pub", "name": "Cervecer\u00eda Postas", "phone": "+34 915 211 942"}}, {"type": "node", "id": 510812807, "lat": 40.4158992, "lon": -3.7058118, "tags": {"amenity": "fast_food", "brand": "Pans & Company", "brand:wikidata": "Q11697586", "brand:wikipedia": "es:Pans & Company", "cuisine": "sandwich", "name": "Pans & Company", "takeaway": "yes"}}, {"type": "node", "id": 510812824, "lat": 40.4141745, "lon": -3.707981, "tags": {"addr:housenumber": "17", "addr:street": "Calle de Cuchilleros", "amenity": "restaurant", "description:zh": "\u7c73\u5176\u67972\u661f \u6d77\u660e\u5a01 \u592a\u9633\u7167\u5e38\u5347\u8d77 cochinilo", "name": "Bot\u00edn", "name:es": "Bot\u00edn", "name:zh": "\u4e16\u754c\u4e0a\u6700\u53e4\u8001\u7684\u9910\u9986", "opening_hours": "Mo-Su 13:00-16:00, 20:00-00:00", "phone": "+34 91 366 4217", "website": "http://www.botin.es", "wikidata": "Q2263744"}}, {"type": "node", "id": 510812830, "lat": 40.4144651, "lon": -3.7079513, "tags": {"addr:housenumber": "9", "addr:street": "Calle de Cuchilleros", "amenity": "restaurant", "contact:phone": "+34 91 366 20 18", "contact:website": "http://www.tabernadeladaniela.com/", "name": "La Taberna de la Daniela"}}, {"type": "node", "id": 510812876, "lat": 40.4148583, "lon": -3.7081461, "tags": {"addr:housenumber": "1", "addr:street": "Calle de los Cuchilleros", "amenity": "restaurant", "name": "Las Cuevas de Luis Candelas"}}, {"type": "node", "id": 583524148, "lat": 40.4233171, "lon": -3.702338, "tags": {"addr:city": "Madrid", "addr:country": "ES", "addr:housenumber": "45", "addr:postcode": "28004", "addr:street": "Calle del Barco", "amenity": "restaurant", "cuisine": "pizza", "old_name": "Pizza al Cuadrado"}}, {"type": "node", "id": 583524658, "lat": 40.4242706, "lon": -3.7022092, "tags": {"addr:city": "Madrid", "addr:housenumber": "5", "addr:postcode": "28004", "addr:street": "Plaza de San Ildefonso", "amenity": "fast_food", "cuisine": "italian", "name": "Il Siciliano", "name:zh": "\u4e0d\u8d35\u7684\u5348\u9910", "old_name": "La Vita \u00e9 Bella"}}, {"type": "node", "id": 600212333, "lat": 40.4218494, "lon": -3.7081087, "tags": {"addr:city": "Madrid", "addr:country": "ES", "addr:housenumber": "58", "addr:postcode": "28013", "addr:street": "Gran V\u00eda", "amenity": "cafe", "brand": "Starbucks", "brand:wikidata": "Q37158", "brand:wikipedia": "en:Starbucks", "cuisine": "coffee_shop", "name": "Starbucks", "official_name": "Starbucks Coffee", "opening_hours": "Su-Th 07:30-23:00; Fr,Sa 07:30-24:00", "phone": "+34 91 275 8161", "takeaway": "yes", "website": "https://www.starbucks.com/store/2188/"}}, {"type": "node", "id": 612920897, "lat": 40.4087536, "lon": -3.6929385, "tags": {"amenity": "cafe", "brand": "Starbucks", "brand:wikidata": "Q37158", "brand:wikipedia": "en:Starbucks", "cuisine": "coffee_shop", "name": "Starbucks", "official_name": "Starbucks Coffee", "survey:date": "2022-07-22", "takeaway": "yes"}}, {"type": "node", "id": 612921363, "lat": 40.4090335, "lon": -3.6925909, "tags": {"amenity": "fast_food", "brand": "Taco Bell", "brand:wikidata": "Q752941", "brand:wikipedia": "en:Taco Bell", "cuisine": "tex-mex", "name": "Taco Bell", "takeaway": "yes"}}, {"type": "node", "id": 622103565, "lat": 40.4139635, "lon": -3.7031759}, {"type": "node", "id": 622204562, "lat": 40.4244873, "lon": -3.7103465, "tags": {"addr:city": "Madrid", "addr:housenumber": "7", "addr:street": "Dos Amigos", "amenity": "cafe", "contact:phone": "+34 91 542 90 19", "contact:website": "http://www.cafedosamigos.com/", "name": "Los Dos Amigos", "wheelchair": "no", "wheelchair:description": "escal\u00f3n y escaleras interiores"}}, {"type": "node", "id": 622204563, "lat": 40.4231601, "lon": -3.7108488, "tags": {"addr:city": "Madrid", "addr:housenumber": "73", "addr:postcode": "28013", "addr:street": "Gran V\u00eda", "amenity": "cafe", "brand": "Starbucks", "brand:wikidata": "Q37158", "brand:wikipedia": "en:Starbucks", "cuisine": "coffee_shop", "layer": "1", "name": "Starbucks", "official_name": "Starbucks Coffee", "opening_hours": "Mo-Su 07:30-23:00", "takeaway": "yes", "website": "http://www.starbucks.es/"}}, {"type": "node", "id": 622204567, "lat": 40.4250761, "lon": -3.7125739, "tags": {"amenity": "fast_food", "brand": "McDonald's", "brand:wikidata": "Q38076", "brand:wikipedia": "es:McDonald's", "cuisine": "burger", "name": "McDonald's", "operator": "McDonald's", "takeaway": "yes"}}, {"type": "node", "id": 622204619, "lat": 40.415621, "lon": -3.6989812, "tags": {"amenity": "restaurant", "cuisine": "peruvian", "name": "El Inti de Oro"}}, {"type": "node", "id": 622204620, "lat": 40.4164715, "lon": -3.6991796, "tags": {"amenity": "restaurant", "cuisine": "regional", "name": "El Subastero\u00a0de M\u00e1laga", "old_name": "Pizza Nostra"}}, {"type": "node", "id": 622204621, "lat": 40.4166035, "lon": -3.7010637, "tags": {"addr:city": "Madrid", "addr:housenumber": "16", "addr:street": "Carrera de San Jer\u00f3nimo", "amenity": "restaurant", "contact:phone": "+34 915233556", "contact:website": "http://www.la-catedral.es/", "name": "Restaurante La Catedral"}}, {"type": "node", "id": 622204622, "lat": 40.4160137, "lon": -3.6989734, "tags": {"amenity": "restaurant", "diet:gluten_free": "only", "diet:vegetarian": "only", "name": "Artemisa", "reservation": "yes", "website": "http://restaurantevegetarianohuertascortes.com/"}}, {"type": "node", "id": 622204623, "lat": 40.4151898, "lon": -3.6992792, "tags": {"addr:city": "Madrid", "addr:housenumber": "15", "addr:postcode": "28014", "addr:street": "Calle de Manuel Fern\u00e1ndez y Gonz\u00e1lez", "amenity": "restaurant", "cuisine": "regional", "name": "El Tronco"}}, {"type": "node", "id": 622204625, "lat": 40.4143568, "lon": -3.7011949, "tags": {"amenity": "bar", "cuisine": "hawaiian", "name": "Bar Hawaiano Mauna Loa"}}, {"type": "node", "id": 622204626, "lat": 40.4142649, "lon": -3.7031442, "tags": {"shop": "ice_cream"}}, {"type": "node", "id": 622204631, "lat": 40.4125936, "lon": -3.7045819, "tags": {"addr:city": "Madrid", "addr:housenumber": "16", "addr:postcode": "28012", "addr:street": "Plaza de Tirso de Molina", "brand": "Lidl", "brand:wikidata": "Q151954", "brand:wikipedia": "en:Lidl", "foot": "yes", "level": "0", "name": "Lidl", "opening_hours": "Mo-Sa 09:00-23:00; Su 10:00-23:00", "operator": "LiDL", "shop": "supermarket", "wheelchair": "limited"}}, {"type": "node", "id": 622204635, "lat": 40.4095795, "lon": -3.7023086, "tags": {"addr:city": "Madrid", "addr:country": "ES", "addr:housenumber": "46", "addr:postcode": "28012", "addr:street": "Calle de Lavapi\u00e9s", "amenity": "restaurant", "cuisine": "indian", "name": "Anarkoli", "phone": "+34914676000", "source": "survey"}}, {"type": "node", "id": 622204638, "lat": 40.4083576, "lon": -3.7010047, "tags": {"addr:city": "Madrid", "addr:country": "ES", "addr:housenumber": "2", "addr:postcode": "28012", "addr:street": "Calle de Valencia", "brand": "Carrefour Market", "brand:wikidata": "Q2689639", "brand:wikipedia": "fr:Carrefour Market", "level": "0", "name": "Carrefour Market", "opening_hours": "24/7", "opening_hours:covid19": "Mo-Fr 09:00-19:00; Sa,Su 09:00-15:00", "operator": "Carrefour", "shop": "supermarket", "website": "https://www.carrefour.es/_includes/redirect.aspx?tcmUri=tcm:5-4164", "wheelchair": "yes"}}, {"type": "node", "id": 622204639, "lat": 40.4081287, "lon": -3.6980834, "tags": {"amenity": "restaurant", "name": "Achuri"}}, {"type": "node", "id": 622204643, "lat": 40.4144723, "lon": -3.7002686, "tags": {"amenity": "restaurant", "name": "Miau"}}, {"type": "node", "id": 622204644, "lat": 40.4141634, "lon": -3.7000816, "tags": {"addr:city": "Madrid", "addr:country": "ES", "addr:housenumber": "33", "addr:postcode": "28012", "addr:street": "Calle del Pr\u00edncipe", "amenity": "pub", "description": "Irish pub", "name": "El Parnasillo del Principe", "website": "https://elparnasillo.com/"}}, {"type": "node", "id": 622204646, "lat": 40.4089962, "lon": -3.6997158, "tags": {"addr:city": "Madrid", "addr:country": "ES", "addr:housenumber": "11", "addr:postcode": "28012", "addr:street": "Calle de Argumosa", "amenity": "restaurant", "cuisine": "spanish", "name": "La Buga del Lobo"}}, {"type": "node", "id": 623071230, "lat": 40.4247457, "lon": -3.7157644, "tags": {"addr:city": "Madrid", "addr:housenumber": "20", "addr:postcode": "28008", "addr:street": "Calle de Ferraz", "amenity": "restaurant", "contact:facebook": "https://www.facebook.com/lamalqueridamadrid/", "contact:phone": "+34 915 47 24 34", "name": "La Malquerida"}}, {"type": "node", "id": 623071231, "lat": 40.4252249, "lon": -3.7153795, "tags": {"addr:city": "Madrid", "addr:housenumber": "23", "addr:postcode": "28008", "addr:street": "Calle Luisa Fernanda", "amenity": "cafe", "contact:phone": "+34 915594645", "contact:website": "http://www.vienacapellanes.com/", "name": "Caf\u00e9 Viena"}}, {"type": "node", "id": 623071234, "lat": 40.4251204, "lon": -3.714055, "tags": {"amenity": "bar", "name": "Cervecer\u00eda Rodr\u00edguez"}}, {"type": "node", "id": 623071235, "lat": 40.4250934, "lon": -3.7138414, "tags": {"amenity": "restaurant", "name": "C\u00e1scaras"}}, {"type": "node", "id": 623071236, "lat": 40.4251961, "lon": -3.7143347, "tags": {"amenity": "restaurant", "name": "New Bistr\u00f3"}}, {"type": "node", "id": 623071237, "lat": 40.4254413, "lon": -3.714542, "tags": {"brand": "Dia", "brand:wikidata": "Q925132", "brand:wikipedia": "es:DIA (supermercados)", "name": "Dia", "opening_hours": "Mo-Sa 09:00-21:30", "operator": "Dia", "shop": "supermarket"}}, {"type": "node", "id": 623071238, "lat": 40.4255684, "lon": -3.7144566, "tags": {"amenity": "pub", "name": "Entreacto"}}, {"type": "node", "id": 623071240, "lat": 40.4258671, "lon": -3.7150302, "tags": {"addr:city": "Madrid", "addr:street": "Calle Luisa Fernanda", "amenity": "fast_food", "cuisine": "kebab", "name": "Kebab Antalia"}}, {"type": "node", "id": 623071243, "lat": 40.4240986, "lon": -3.7131456, "tags": {"amenity": "pub", "name": "Colorado"}}, {"type": "node", "id": 623071255, "lat": 40.4211338, "lon": -3.7069741, "tags": {"addr:city": "Madrid", "addr:housenumber": "52", "addr:postcode": "28013", "addr:street": "Gran V\u00eda", "alt_name": "Kentucky Fried Chicken", "amenity": "fast_food", "brand": "KFC", "brand:wikidata": "Q524757", "brand:wikipedia": "en:KFC", "cuisine": "chicken", "name": "KFC", "operator": "Kentucky Fried Chicken", "phone": "+34 91 758 53 30", "takeaway": "yes", "website": "http://www.kfc.es/#/home/"}}, {"type": "node", "id": 623087173, "lat": 40.4218307, "lon": -3.7136481, "tags": {"addr:city": "Madrid", "addr:housenumber": "2", "addr:postcode": "28008", "addr:street": "Cuesta de San Vicente", "amenity": "restaurant", "name": "Dudu\u00e1 Palacio"}}, {"type": "node", "id": 623776667, "lat": 40.4199398, "lon": -3.7127495, "tags": {"addr:city": "Madrid", "addr:postcode": "28013", "addr:street": "Calle de Bail\u00e9n", "amenity": "cafe", "name": "Cafeter\u00eda Sabatini", "wheelchair": "yes"}}, {"type": "node", "id": 623953553, "lat": 40.4180265, "lon": -3.6995474, "tags": {"amenity": "cafe", "brand": "Starbucks", "brand:wikidata": "Q37158", "brand:wikipedia": "en:Starbucks", "cuisine": "coffee_shop", "name": "Starbucks", "official_name": "Starbucks Coffee", "source": "survey", "takeaway": "yes"}}, {"type": "node", "id": 624783098, "lat": 40.4121419, "lon": -3.6933945}, {"type": "node", "id": 624783116, "lat": 40.4199676, "lon": -3.6972689, "tags": {"addr:city": "Madrid", "addr:housenumber": "40", "addr:postcode": "28004", "addr:street": "Calle de las Infantas", "amenity": "cafe", "contact:facebook": "https://www.facebook.com/ConradosCafe/", "contact:phone": "+34 655 75 47 44", "name": "Conrado's Caf\u00e9", "old_name": "Starbucks Coffee", "wheelchair": "no"}}, {"type": "node", "id": 624783119, "lat": 40.4204325, "lon": -3.6980433, "tags": {"brand": "Dia", "brand:wikidata": "Q925132", "brand:wikipedia": "es:DIA (supermercados)", "name": "Dia", "opening_hours": "Mo-Sa 09:15-21:30", "operator": "Dia", "shop": "supermarket"}}, {"type": "node", "id": 632467169, "lat": 40.4047895, "lon": -3.7057289}, {"type": "node", "id": 632467170, "lat": 40.4047322, "lon": -3.7059422}, {"type": "node", "id": 668468365, "lat": 40.4060991, "lon": -3.6981652, "tags": {"amenity": "restaurant", "name": "Restaurante \"El Cartel\""}}, {"type": "node", "id": 674492241, "lat": 40.4254, "lon": -3.7072729, "tags": {"addr:city": "Madrid", "addr:country": "ES", "addr:housenumber": "58", "addr:postcode": "28015", "addr:street": "Calle de San Bernardo", "amenity": "cafe", "brand": "Santagloria", "brand:wikidata": "Q54606497", "check_date:opening_hours": "2022-09-05", "diet:vegetarian": "yes", "name": "Santagloria", "old_name_1": "Rodilla", "old_name_2": "Bake Bar", "opening_hours:signed": "no", "shop": "bakery", "wheelchair": "no"}}, {"type": "node", "id": 674492243, "lat": 40.426473, "lon": -3.7067156, "tags": {"addr:city": "Madrid", "addr:housenumber": "66", "addr:postcode": "28015", "addr:street": "Calle de San Bernardo", "amenity": "bar", "name": "Tempo II", "phone": "+34 91 531 37 68", "website": "http://www.pubtempo2.com/"}}, {"type": "node", "id": 750497101, "lat": 40.4266041, "lon": -3.7037765, "tags": {"addr:city": "Madrid", "addr:housenumber": "9", "addr:postcode": "28004", "addr:street": "Plaza del Dos de Mayo", "amenity": "bar", "contact:phone": "+34 915 311 317", "drink:club-mate": "served", "name": "Malabar"}}, {"type": "node", "id": 818865803, "lat": 40.415143, "lon": -3.6992261, "tags": {"addr:city": "Madrid", "addr:housenumber": "8", "addr:postcode": "28014", "addr:street": "Calle de Manuel Fern\u00e1ndez y Gonz\u00e1lez", "amenity": "restaurant", "cuisine": "spanish", "name": "El Lac\u00f3n", "opening_hours": "Mo-Su 13:00-16:00,20:00+", "phone": "+34 914 29 6042", "website": "http://www.mesonellacon.com", "wheelchair": "no"}}, {"type": "node", "id": 818870699, "lat": 40.4160304, "lon": -3.6987327, "tags": {"addr:city": "Madrid", "addr:country": "ES", "addr:housenumber": "3", "addr:postcode": "28014", "addr:street": "Calle de Ventura de la Vega", "amenity": "restaurant", "name": "Hylogui", "website": "https://restaurantehylogui.com/"}}, {"type": "node", "id": 851942098, "lat": 40.415043, "lon": -3.7065602, "tags": {"addr:housename": "LOS GALAYOS", "addr:housenumber": "5", "addr:postcode": "28012", "addr:street": "Calle Botoneras", "alt_name": "GALAYOS", "amenity": "restaurant", "cuisine": "spanish", "int_name": "LOS GALAYOS", "name": "Los Galayos", "old_name": "LOS GALAYOS", "website": "https://www.losgalayos.net/"}}, {"type": "node", "id": 885680155, "lat": 40.4189929, "lon": -3.7077919, "tags": {"addr:city": "Madrid", "addr:housenumber": "4", "addr:postcode": "28013", "addr:street": "Calle de las Conchas", "amenity": "restaurant", "contact:phone": "+34 91 559 29 39", "contact:website": "http://www.musashimadrid.com/", "cuisine": "japanese", "name": "Musashi"}}, {"type": "node", "id": 885680156, "lat": 40.4189106, "lon": -3.7074573, "tags": {"addr:city": "Madrid", "addr:housenumber": "9", "addr:postcode": "28013", "addr:street": "Calle de los Trujillos", "amenity": "restaurant", "cuisine": "regional", "name": "Casa Parrondo"}}, {"type": "node", "id": 885680159, "lat": 40.4197145, "lon": -3.7088476, "tags": {"addr:city": "Madrid", "addr:postcode": "28013", "addr:street": "Cuesta de Santo Domingo", "amenity": "restaurant", "cuisine": "regional", "name": "A Coru\u00f1a", "old_name": "La Huerta de Lleida"}}, {"type": "node", "id": 885680162, "lat": 40.4197224, "lon": -3.7078497, "tags": {"addr:city": "Madrid", "addr:postcode": "28013", "addr:street": "Plaza de Santo Domingo", "amenity": "cafe", "brand": "Tim Hortons", "brand:wikidata": "Q175106", "brand:wikipedia": "en:Tim Hortons", "cuisine": "coffee_shop", "email": "domicilios@nipponsei.es", "name": "Tim Hortons", "old_name": "Nipponsei Sushi & Club Experience", "takeaway": "yes"}}, {"type": "node", "id": 885681387, "lat": 40.4229516, "lon": -3.7087534, "tags": {"addr:city": "Madrid", "addr:housenumber": "11", "addr:postcode": "28015", "addr:street": "Plaza de los Mostenses", "amenity": "restaurant", "cuisine": "pizza", "name": "Da Nicola", "phone": "+34 91 542 25 74", "website": "http://www.danicola.es/", "wheelchair": "limited", "wheelchair:description": "Puerta de acceso muy pesada para tirar"}}, {"type": "node", "id": 902327015, "lat": 40.424992, "lon": -3.7129223, "tags": {"amenity": "fast_food", "brand": "Burger King", "brand:wikidata": "Q177054", "brand:wikipedia": "es:Burger King", "cuisine": "burger", "name": "Burger King", "operator": "Burger King", "takeaway": "yes", "wheelchair": "yes"}}, {"type": "node", "id": 942770846, "lat": 40.408608, "lon": -3.6928819, "tags": {"addr:city": "Madrid", "addr:country": "ES", "addr:housenumber": "8", "addr:postcode": "28012", "addr:street": "Plaza del Emperador Carlos V", "amenity": "restaurant", "cuisine": "spanish", "name": "El Brillante", "opening_hours": "Mo-Su 06:30-00:30", "phone": "+34 915 28 6966", "website": "http://www.barelbrillante.es", "wheelchair": "no"}}, {"type": "node", "id": 974786923, "lat": 40.4099203, "lon": -3.7010793, "tags": {"addr:city": "Madrid", "addr:country": "ES", "addr:housenumber": "42", "addr:postcode": "28012", "addr:street": "Calle del Ave Mar\u00eda", "drink:club-mate": "retail", "name": "Planeta Vegano", "shop": "convenience", "website": "https://www.planetavegano.com/"}}, {"type": "node", "id": 988698209, "lat": 40.4131935, "lon": -3.7075758, "tags": {"addr:city": "Madrid", "addr:country": "ES", "addr:postcode": "28005", "addr:state": "Madrid", "addr:street": "Plaza Segovia Nueva", "brand": "Dia & Go", "brand:wikidata": "Q925132", "brand:wikipedia": "es:Supermercados DIA", "name": "Dia & Go", "old_name": "DIA Maxi;Dia Market", "shop": "convenience"}}, {"type": "node", "id": 991990955, "lat": 40.4289157, "lon": -3.709595, "tags": {"addr:city": "Madrid", "addr:housenumber": "13", "addr:postcode": "28015", "addr:street": "Calle del Conde Duque", "amenity": "restaurant", "contact:phone": "+34 695 883 964", "contact:website": "https://www.eltorilgourmet.com/", "name": "El Toril", "old_name": "Wakathai", "old_name_1": "Tiradito"}}, {"type": "node", "id": 992768983, "lat": 40.4256394, "lon": -3.7030075, "tags": {"addr:city": "Madrid", "addr:housenumber": "19", "addr:postcode": "28004", "addr:street": "Calle de San Vicente Ferrer", "drink:club-mate": "retail", "email": "info@veggieroom.es", "name": "Veggie Room", "old_name": "Los Sabores de Pueblo", "opening_hours": "Mo-Fr 10:30-14:30,17:30-20:30, Sa 10:30-14:00", "phone": "+32 911 439 173;+34 915213914", "shop": "convenience", "website": "https://www.veggieroom.es/"}}, {"type": "node", "id": 993468828, "lat": 40.4292978, "lon": -3.7149613, "tags": {"amenity": "cafe", "brand": "Starbucks", "brand:wikidata": "Q37158", "brand:wikipedia": "en:Starbucks", "name": "Starbucks"}}, {"type": "node", "id": 1003567802, "lat": 40.4250369, "lon": -3.7003272, "tags": {"addr:city": "Madrid", "addr:housenumber": "4", "addr:postcode": "28004", "addr:street": "Calle de San Mateo", "addr:subdistrict": "Justicia", "amenity": "pub", "drink:club-mate": "served", "name": "In Dreams"}}, {"type": "node", "id": 1007387968, "lat": 40.4058129, "lon": -3.7079461, "tags": {"brand": "Dia", "brand:wikidata": "Q925132", "brand:wikipedia": "es:DIA (supermercados)", "name": "Dia", "shop": "supermarket"}}, {"type": "node", "id": 1010972136, "lat": 40.411457, "lon": -3.6990693, "tags": {"amenity": "bar", "name": "M\u00e1s coraz\u00f3n", "recycling:cans": "yes", "recycling:glass": "yes", "recycling:paper": "yes"}}, {"type": "node", "id": 1010993672, "lat": 40.4122872, "lon": -3.7012279, "tags": {"brand": "Dia", "brand:wikidata": "Q925132", "brand:wikipedia": "es:DIA (supermercados)", "name": "Dia", "shop": "supermarket", "wheelchair": "yes"}}, {"type": "node", "id": 1012470349, "lat": 40.422331, "lon": -3.7041426, "tags": {"addr:city": "Madrid", "addr:country": "ES", "addr:housenumber": "21", "addr:postcode": "28004", "addr:street": "Corredera Baja de San Pablo", "amenity": "bar", "email": "circodelastapas@gmail.com", "name": "Circo de las Tapas", "phone": "+34 911886014", "website": "http://www.circodelastapas.com/"}}, {"type": "node", "id": 1108148051, "lat": 40.4057397, "lon": -3.705086}, {"type": "node", "id": 1108148187, "lat": 40.4057864, "lon": -3.7050706}, {"type": "node", "id": 1108148284, "lat": 40.4057989, "lon": -3.705135}, {"type": "node", "id": 1108148400, "lat": 40.4057522, "lon": -3.7051504}, {"type": "node", "id": 1108148451, "lat": 40.4057776, "lon": -3.7050237}, {"type": "node", "id": 1108148629, "lat": 40.4057612, "lon": -3.7051984}, {"type": "node", "id": 1108148762, "lat": 40.4058151, "lon": -3.7050613}, {"type": "node", "id": 1108148888, "lat": 40.4057262, "lon": -3.7051589}, {"type": "node", "id": 1108148907, "lat": 40.4058272, "lon": -3.7051259}, {"type": "node", "id": 1108148927, "lat": 40.4057141, "lon": -3.7050943}, {"type": "node", "id": 1108149214, "lat": 40.4057309, "lon": -3.7050388}, {"type": "node", "id": 1108149337, "lat": 40.405808, "lon": -3.7051833}, {"type": "node", "id": 1119744698, "lat": 40.4264755, "lon": -3.7037856, "tags": {"addr:city": "Madrid", "addr:housenumber": "9", "addr:postcode": "28004", "addr:street": "Calle de San Andr\u00e9s", "amenity": "bar", "name": "La Taberna", "toilets:wheelchair": "no", "wheelchair": "yes"}}, {"type": "node", "id": 1128664808, "lat": 40.4262429, "lon": -3.694087, "tags": {"addr:city": "Madrid", "addr:country": "ES", "addr:housenumber": "26", "addr:postcode": "28004", "addr:street": "Calle de Argensola", "name": "La Panotheca", "shop": "bakery", "wheelchair": "limited"}}, {"type": "node", "id": 1128664813, "lat": 40.4270827, "lon": -3.6949918, "tags": {"amenity": "restaurant", "brand": "Foster's Hollywood", "brand:wikidata": "Q5864366", "brand:wikipedia": "en:Foster's Hollywood", "cuisine": "american", "name": "Foster's Hollywood"}}, {"type": "node", "id": 1178442295, "lat": 40.4103182, "lon": -3.7076364, "tags": {"addr:city": "Madrid", "addr:housenumber": "5", "addr:postcode": "28005", "addr:street": "Calle de la Ruda", "amenity": "restaurant", "cuisine": "mediterranean;spanish;regional;local", "name": "Malacat\u00edn", "opening_hours": "We-Sa 11:00-00:30; Su-Tu 11:00-17:30", "phone": "+34913655241", "website": "http://www.malacatin.com", "wheelchair": "no", "wheelchair:description": "Escal\u00f3n de 15 cm"}}, {"type": "node", "id": 1178447836, "lat": 40.4110137, "lon": -3.7048963, "tags": {"addr:city": "Madrid", "addr:country": "ES", "addr:housenumber": "18", "addr:postcode": "28012", "addr:street": "Calle del Mes\u00f3n de Paredes", "amenity": "pub", "name": "Marbella"}}, {"type": "node", "id": 1178486749, "lat": 40.4100481, "lon": -3.7064176, "tags": {"shop": "convenience"}}, {"type": "node", "id": 1178492356, "lat": 40.4118363, "lon": -3.7072181, "tags": {"name": "Nanyea", "shop": "convenience"}}, {"type": "node", "id": 1178499022, "lat": 40.4113626, "lon": -3.7110878, "tags": {"amenity": "bar", "name": "Juana la Loca"}}, {"type": "node", "id": 1178501995, "lat": 40.4083754, "lon": -3.7030814, "tags": {"amenity": "bar", "name": "Re Tapas", "survey:date": "2022-07-23"}}, {"type": "node", "id": 1180030639, "lat": 40.41364, "lon": -3.7078009, "tags": {"addr:city": "Madrid", "addr:housenumber": "4", "addr:street": "Calle Tintoreros", "amenity": "restaurant", "name": "La Cueva de La Tina", "old_name": "La Miguela", "old_name_1": "Tercio Viejo de Sarmiento"}}, {"type": "node", "id": 1180035455, "lat": 40.4106324, "lon": -3.7059609, "tags": {"addr:city": "Madrid", "addr:country": "ES", "addr:housenumber": "19", "addr:postcode": "28012", "addr:street": "Calle de la Encomienda", "amenity": "restaurant", "cuisine": "tapas", "diet:vegan": "only", "name": "La Encomienda", "opening_hours": "Mo-Sa 13:30-00:30; Su 11:00-00:30", "phone": "+34910291300", "reservation": "yes", "shop": "convenience", "website": "http://laencomienda.es"}}, {"type": "node", "id": 1180102005, "lat": 40.4109033, "lon": -3.707633, "tags": {"addr:city": "Madrid", "addr:housenumber": "4", "addr:postcode": "28005", "addr:street": "Calle de las Maldonadas", "amenity": "restaurant", "name": "Carol House", "wheelchair": "no", "wheelchair:description": "Escalon > 7cm"}}, {"type": "node", "id": 1186377852, "lat": 40.4120231, "lon": -3.7050231}, {"type": "node", "id": 1187929681, "lat": 40.4157405, "lon": -3.7017617, "tags": {"addr:city": "Madrid", "addr:housenumber": "12", "addr:street": "Calle de la Victoria", "amenity": "restaurant", "contact:website": "http://lacasadelabuelo.es/", "name": "La Casa del Abuelo", "phone": "+34 91 521 2319"}}, {"type": "node", "id": 1187929752, "lat": 40.4129955, "lon": -3.708661, "tags": {"addr:housenumber": "16", "addr:street": "Calle de la Cava Baja", "amenity": "restaurant", "fax": "+34 91 366 44 19", "name": "La Cava de Ill\u00e1n", "phone": "+34 91 366 3883"}}, {"type": "node", "id": 1191045117, "lat": 40.4101325, "lon": -3.7063121, "tags": {"amenity": "cafe", "name": "Pav\u00f3n"}}, {"type": "node", "id": 1191046039, "lat": 40.4117813, "lon": -3.7053261, "tags": {"amenity": "bar", "name": "Mariano"}}, {"type": "node", "id": 1191046494, "lat": 40.4111122, "lon": -3.7048589, "tags": {"addr:housenumber": "13", "addr:street": "Calle del Mes\u00f3n de Paredes", "amenity": "restaurant", "name": "Taberna Antonio S\u00e1nchez", "phone": "+34 91 539 78 26", "website": "https://www.tabernaantoniosanchez.com/?lang=es", "wikidata": "Q6137752"}}, {"type": "node", "id": 1191047689, "lat": 40.4104966, "lon": -3.7068462, "tags": {"shop": "kiosk"}}, {"type": "node", "id": 1191049130, "lat": 40.4113326, "lon": -3.7079597, "tags": {"amenity": "cafe", "name": "San Mill\u00e1n"}}, {"type": "node", "id": 1235011885, "lat": 40.4146902, "lon": -3.7102736, "tags": {"name": "El Jard\u00edn del Convento", "shop": "deli"}}, {"type": "node", "id": 1237726254, "lat": 40.4220427, "lon": -3.69745, "tags": {"brand": "Supercor", "brand:wikidata": "Q6135841", "brand:wikipedia": "es:Supercor", "name": "Supercor", "operator": "El Corte Ingl\u00e9s", "shop": "supermarket", "wheelchair": "yes"}}, {"type": "node", "id": 1259427733, "lat": 40.4147794, "lon": -3.698653, "tags": {"addr:city": "Madrid", "addr:country": "ES", "addr:housenumber": "16", "addr:postcode": "28014", "addr:street": "Calle del Prado", "amenity": "restaurant", "name": "Lamucca de Prado", "opening_hours": "Mo-Th 13:00-01:00; Fr-Su 13:00-02:00", "phone": "+34 915 21 0000", "website": "https://lamuccacompany.com/lamucca-de-prado/"}}, {"type": "node", "id": 1275991418, "lat": 40.424182, "lon": -3.701688, "tags": {"addr:city": "Madrid", "addr:country": "ES", "addr:postcode": "28004", "addr:street": "Plaza de San Ildefonso", "amenity": "restaurant", "internet_access": "no", "name": "Novo", "outdoor_seating": "yes"}}, {"type": "node", "id": 1276018282, "lat": 40.4244673, "lon": -3.7021898, "tags": {"addr:city": "Madrid", "addr:country": "ES", "addr:housenumber": "1", "addr:postcode": "28004", "addr:street": "Corredera Alta de San Pablo", "amenity": "restaurant", "contact:website": "http://www.thegoodburger.com/", "cuisine": "burger", "name": "The Good Burger"}}, {"type": "node", "id": 1276929170, "lat": 40.4195047, "lon": -3.7047777}, {"type": "node", "id": 1276929171, "lat": 40.4197254, "lon": -3.7054983}, {"type": "node", "id": 1276929172, "lat": 40.4194535, "lon": -3.704558}, {"type": "node", "id": 1276929173, "lat": 40.4193054, "lon": -3.7045675}, {"type": "node", "id": 1276929174, "lat": 40.4198745, "lon": -3.7052142}, {"type": "node", "id": 1276929175, "lat": 40.4191591, "lon": -3.7047431}, {"type": "node", "id": 1276929176, "lat": 40.4196759, "lon": -3.705067}, {"type": "node", "id": 1276929177, "lat": 40.4197194, "lon": -3.7054725}, {"type": "node", "id": 1276929178, "lat": 40.419798, "lon": -3.7055538}, {"type": "node", "id": 1276929179, "lat": 40.4197458, "lon": -3.7049672}, {"type": "node", "id": 1276929180, "lat": 40.4192227, "lon": -3.7047246}, {"type": "node", "id": 1276929181, "lat": 40.4198683, "lon": -3.7055394}, {"type": "node", "id": 1276929182, "lat": 40.4195263, "lon": -3.7047323}, {"type": "node", "id": 1276929183, "lat": 40.419331, "lon": -3.7049376}, {"type": "node", "id": 1276929184, "lat": 40.4198818, "lon": -3.7055131}, {"type": "node", "id": 1276929185, "lat": 40.4199063, "lon": -3.7055163}, {"type": "node", "id": 1276929186, "lat": 40.4197597, "lon": -3.7052242}, {"type": "node", "id": 1276929187, "lat": 40.4192543, "lon": -3.7051059}, {"type": "node", "id": 1277025638, "lat": 40.4156034, "lon": -3.7092267, "tags": {"addr:city": "Madrid", "addr:country": "ES", "addr:housenumber": "2", "addr:postcode": "28005", "addr:street": "Plaza de San Miguel", "amenity": "pub", "internet_access": "no", "name": "Cervecer\u00eda La Plaza", "operator": "Esjoan S.L.", "phone": "+34 91 5484111", "smoking": "dedicated"}}, {"type": "node", "id": 1288311611, "lat": 40.4290921, "lon": -3.7215974, "tags": {"addr:city": "Madrid", "addr:housenumber": "48", "addr:postcode": "28008", "addr:street": "Paseo del Pintor Rosales", "amenity": "restaurant", "contact:phone": "+34 910012554", "contact:website": "http://www.noninarosales.com/", "name": "Nonin\u00e1", "old_name": "Helader\u00eda Bruin", "source": "survey"}}, {"type": "node", "id": 1312416809, "lat": 40.4206813, "lon": -3.7111998, "tags": {"addr:city": "Madrid", "addr:housenumber": "1", "addr:postcode": "28013", "addr:street": "Plaza de la Marina Espa\u00f1ola", "alt_name": "El Buey", "amenity": "restaurant", "cuisine": "spanish", "name": "Restaurante El Buey", "phone": "+34 915 413 041", "website": "https://www.restauranteelbuey.com/"}}, {"type": "node", "id": 1312422693, "lat": 40.4198376, "lon": -3.7105593, "tags": {"addr:housenumber": "4", "addr:postcode": "28013", "addr:street": "Calle de la Bola", "amenity": "restaurant", "cuisine": "spanish", "name": "El Mollete"}}, {"type": "node", "id": 1316492166, "lat": 40.4259892, "lon": -3.6937987, "tags": {"amenity": "cafe", "smoking": "no", "wheelchair": "limited"}}, {"type": "node", "id": 1316492227, "lat": 40.4262353, "lon": -3.6937066, "tags": {"amenity": "restaurant", "cuisine": "chinese", "name": "Tri\u00e1ngulo"}}, {"type": "node", "id": 1316546205, "lat": 40.4263016, "lon": -3.6927018, "tags": {"addr:street": "Calle de G\u00e9nova", "amenity": "restaurant", "old_name": "Abrasador"}}, {"type": "node", "id": 1316546220, "lat": 40.4262427, "lon": -3.6925087, "tags": {"amenity": "restaurant", "name": "Fit Food", "old_name": "Santander"}}, {"type": "node", "id": 1316546324, "lat": 40.4264901, "lon": -3.6930277, "tags": {"amenity": "restaurant", "name": "Delina's"}}, {"type": "node", "id": 1316546350, "lat": 40.4259972, "lon": -3.6920004, "tags": {"addr:city": "Madrid", "addr:country": "ES", "addr:housenumber": "27", "addr:postcode": "28004", "addr:street": "Calle de G\u00e9nova", "amenity": "restaurant", "brand": "Vips", "brand:wikidata": "Q66087862", "brand:wikipedia": "es:Vips", "cuisine": "international", "name": "Vips", "operator": "Grupo Vips", "smoking": "no", "website": "https://www.grupovips.com/", "wheelchair": "limited"}}, {"type": "node", "id": 1316546370, "lat": 40.4273159, "lon": -3.6954339, "tags": {"amenity": "cafe", "brand": "Starbucks", "brand:wikidata": "Q37158", "brand:wikipedia": "en:Starbucks", "cuisine": "coffee_shop", "internet_access": "wlan", "internet_access:fee": "no", "name": "Starbucks", "official_name": "Starbucks Coffee", "operator": "Grupo Vips", "smoking": "no", "takeaway": "yes", "website": "http://www.starbucks.es/es-es/"}}, {"type": "node", "id": 1316546469, "lat": 40.4272055, "lon": -3.6944365, "tags": {"amenity": "restaurant", "brand": "Lizarr\u00e1n", "brand:wikidata": "Q1866620", "brand:wikipedia": "de:Lizarran", "cuisine": "spanish", "name": "Lizarr\u00e1n"}}, {"type": "node", "id": 1316546542, "lat": 40.4267037, "lon": -3.6934761, "tags": {"amenity": "restaurant", "brand": "Tony Roma's", "brand:wikidata": "Q2213883", "brand:wikipedia": "en:Tony Roma's", "cuisine": "barbecue", "name": "Tony Roma's"}}, {"type": "node", "id": 1316546599, "lat": 40.4261281, "lon": -3.6922712, "tags": {"addr:city": "Madrid", "addr:country": "ES", "addr:housenumber": "27", "addr:postcode": "28004", "addr:street": "Calle de G\u00e9nova", "amenity": "restaurant", "brand": "Wagamama", "brand:wikidata": "Q503715", "brand:wikipedia": "en:Wagamama", "cuisine": "asian", "name": "Wagamama", "operator": "Grupo Vips", "phone": "+34 912 759 146", "website": "https://www.clubvips.com/marcas/wagamama"}}, {"type": "node", "id": 1316546637, "lat": 40.4272302, "lon": -3.6952847, "tags": {"addr:city": "Madrid", "addr:housenumber": "4", "addr:postcode": "28004", "addr:street": "Calle de G\u00e9nova", "addr:subdistrict": "Justicia", "amenity": "cafe", "name": "Viena Capellanes", "phone": "+34 913192792", "website": "http://www.vienacapellanes.com/stores/lookstore.php?idioma=esp&terminal=linux&store=9"}}, {"type": "node", "id": 1316546688, "lat": 40.4263507, "lon": -3.6928049, "tags": {"addr:country": "ES", "amenity": "fast_food", "brand": "Sushi Shop", "brand:wikidata": "Q3505657", "brand:wikipedia": "fr:Sushi Shop", "cuisine": "sushi", "name": "Sushi Shop", "old_name": "Banca March", "takeaway": "yes"}}, {"type": "node", "id": 1316546690, "lat": 40.4260117, "lon": -3.6921003, "tags": {"addr:city": "Madrid", "addr:country": "ES", "addr:housenumber": "27", "addr:postcode": "28004", "addr:street": "Calle de G\u00e9nova", "amenity": "cafe", "brand": "Starbucks", "brand:wikidata": "Q37158", "brand:wikipedia": "en:Starbucks", "cuisine": "coffee_shop", "internet_access": "wlan", "internet_access:fee": "no", "name": "Starbucks", "official_name": "Starbucks Coffee", "opening_hours": "08:30-21:30", "operator": "Grupo Vips", "smoking": "no", "survey:date": "2022-04-04", "takeaway": "yes", "website": "http://www.starbucks.es/"}}, {"type": "node", "id": 1316546725, "lat": 40.4264335, "lon": -3.6929091, "tags": {"amenity": "restaurant", "cuisine": "german", "diet:vegetarian": "no", "name": "La f\u00e1brica"}}, {"type": "node", "id": 1316546782, "lat": 40.4271017, "lon": -3.6942226, "tags": {"amenity": "restaurant", "internet_access": "no", "name": "Plaza 66", "smoking": "no"}}, {"type": "node", "id": 1316546832, "lat": 40.4265389, "lon": -3.6931302, "tags": {"amenity": "restaurant", "name": "BICE"}}, {"type": "node", "id": 1316546986, "lat": 40.4266377, "lon": -3.6933375, "tags": {"amenity": "fast_food", "brand": "Rodilla", "brand:wikidata": "Q7356777", "brand:wikipedia": "es:Rodilla (franquicia)", "cuisine": "sandwich", "name": "Rodilla", "takeaway": "yes"}}, {"type": "node", "id": 1316546994, "lat": 40.4262843, "lon": -3.6925958, "tags": {"addr:city": "Madrid", "addr:country": "ES", "addr:housenumber": "25", "addr:postcode": "28004", "addr:street": "Calle de G\u00e9nova", "name": "Viena Capellanes", "phone": "+34 91 539 83 53", "shop": "bakery", "website": "http://www.vienacapellanes.com/"}}, {"type": "node", "id": 1319826694, "lat": 40.4260662, "lon": -3.6939824, "tags": {"amenity": "restaurant"}}, {"type": "node", "id": 1319826696, "lat": 40.4266136, "lon": -3.6962385, "tags": {"amenity": "restaurant", "brand": "100 Montaditos", "brand:wikidata": "Q8355805", "brand:wikipedia": "en:Cervecer\u00eda 100 Montaditos", "cuisine": "sandwich", "name": "100 Montaditos", "wheelchair": "limited"}}, {"type": "node", "id": 1319826714, "lat": 40.4253237, "lon": -3.6952866, "tags": {"addr:city": "Madrid", "addr:country": "ES", "addr:housenumber": "14", "addr:postcode": "28004", "addr:street": "Calle de Santa Teresa", "air_conditioning": "yes", "amenity": "pub", "brewery": "mahou;amstel_oro;amstel;san_miguel;san_miguel_selecta;aguila;\u00e1guila;el_\u00e1guila;el_aguila;franziskaner", "email": "elbackstagemadrid@gmail.com", "image": "https://www.tripadvisor.es/Attraction_Review-g187514-d13976522-Reviews-Elbackstage-Madrid.html#/media-atf/13976522/312105394:p/?albumid=-160&type=0&category=-160", "internet_access": "yes", "level": "0", "min_age": "18", "name": "Backstage", "old_name": "The Lock Inn", "opening_hours": "Mo-Fr 19:00-27:00; Sa-Su 19:00-27:30; PH 00:00-03:30; SH 00:00-03:30", "payment:american_express": "yes", "payment:visa": "yes", "smoking": "no", "source": "local knowledge", "wheelchair": "yes"}}, {"type": "node", "id": 1319826727, "lat": 40.4268372, "lon": -3.6944765, "tags": {"amenity": "restaurant", "name": "Mallorca"}}, {"type": "node", "id": 1319826732, "lat": 40.4262381, "lon": -3.6962852, "tags": {"addr:housenumber": "1", "addr:street": "Calle de Santa Teresa", "amenity": "restaurant", "name": "Da Gavino", "old_name": "El Fara\u00f3n", "phone": "+34 91 308 21 98"}}, {"type": "node", "id": 1319826778, "lat": 40.4267584, "lon": -3.6961276, "tags": {"amenity": "fast_food", "brand": "Domino's", "brand:wikidata": "Q839466", "brand:wikipedia": "en:Domino's Pizza", "cuisine": "pizza", "name": "Domino's", "takeaway": "yes"}}, {"type": "node", "id": 1319826784, "lat": 40.426637, "lon": -3.6955608, "tags": {"amenity": "restaurant", "name": "Lady Madonna", "old_name": "Casa Grana"}}, {"type": "node", "id": 1319826796, "lat": 40.4255455, "lon": -3.6953453, "tags": {"amenity": "pub", "name": "Barrutia y el 9", "old_name": "Taberna el nueve"}}, {"type": "node", "id": 1319826802, "lat": 40.4261592, "lon": -3.6964188, "tags": {"addr:city": "Madrid", "addr:housenumber": "2", "addr:postcode": "28004", "addr:street": "Calle de Santa Teresa", "addr:subdistrict": "Justicia", "amenity": "restaurant", "contact:phone": "+34 913 244 999", "email": "hola@somososom.com", "name": "Osom Coffee Atelier", "old_name": "Oishii; Bocacalle", "website": "https://www.somososom.com/"}}, {"type": "node", "id": 1319826813, "lat": 40.4262822, "lon": -3.6936887, "tags": {"amenity": "restaurant", "name": "\u00c9poca"}}, {"type": "node", "id": 1319826818, "lat": 40.4238711, "lon": -3.6926127, "tags": {"addr:city": "Madrid", "addr:postcode": "28004", "addr:street": "Calle del Marqu\u00e9s de la Ensenada", "amenity": "bar", "name": "Hasta los Andares", "old_name": "El Birrete", "smoking": "no"}}, {"type": "node", "id": 1319826820, "lat": 40.4267047, "lon": -3.6961684, "tags": {"addr:city": "Madrid", "addr:housenumber": "9", "addr:postcode": "28004", "addr:street": "Plaza de Santa B\u00e1rbara", "amenity": "restaurant", "name": "Paris Avenue", "phone": "+34 913 198 151", "website": "http://www.parisavenue.es/"}}, {"type": "node", "id": 1319826836, "lat": 40.4261051, "lon": -3.6940576, "tags": {"addr:city": "Madrid", "addr:housenumber": "19", "addr:postcode": "28004", "addr:street": "Calle de Orellana", "amenity": "cafe", "cuisine": "israeli;middle_eastern;healthy", "internet_access": "yes", "internet_access:fee": "no", "name": "Golda Cafe", "opening_hours": "Mo-Su 08:00-20:30", "website": "https://goldacafe.com/"}}, {"type": "node", "id": 1319826838, "lat": 40.4256413, "lon": -3.6957089, "tags": {"addr:city": "Madrid", "addr:housenumber": "8", "addr:postcode": "28004", "addr:street": "Calle de Santa Teresa", "amenity": "restaurant", "contact:facebook": "https://www.facebook.com/Restaurante-Nuevo-Horno-De-Santa-Teresa-423455807723916/info/?entry_point=page_nav_about_item&tab=overview", "contact:phone": "+34 913 08 05 90", "name": "Nuevo Horno de Santa Teresa"}}, {"type": "node", "id": 1319826857, "lat": 40.4253941, "lon": -3.6919785, "tags": {"addr:city": "Madrid", "addr:country": "ES", "addr:housenumber": "28", "addr:postcode": "28004", "addr:street": "Calle de G\u00e9nova", "amenity": "restaurant", "name": "Peyote San", "old_name": "Riofr\u00edo", "phone": "+34 91 088 22 12", "website": "http://www.peyotesan.com/"}}, {"type": "node", "id": 1319826861, "lat": 40.4239163, "lon": -3.6925858, "tags": {"amenity": "cafe", "name": "El Supremo", "smoking": "no"}}, {"type": "node", "id": 1319826863, "lat": 40.4261102, "lon": -3.6963181, "tags": {"addr:city": "Madrid", "addr:housenumber": "4", "addr:postcode": "28004", "addr:street": "Calle de Santa Teresa", "addr:subdistrict": "Justicia", "amenity": "restaurant", "contact:phone": "+34 91 0296041", "contact:website": "http://www.meatmadrid.com/", "name": "Meat", "old_name": "Mi Sushi"}}, {"type": "node", "id": 1319826869, "lat": 40.4268694, "lon": -3.6960433, "tags": {"amenity": "cafe", "name": "Santa B\u00e1rbara", "wheelchair": "limited"}}, {"type": "node", "id": 1324284128, "lat": 40.425659, "lon": -3.6947144, "tags": {"addr:city": "Madrid", "addr:housenumber": "15", "addr:postcode": "28004", "addr:street": "Calle de Argensola", "amenity": "restaurant", "contact:phone": "+34 917003547", "contact:website": "http://www.restaurantecalicanto.com/", "name": "Calicanto", "old_name": "La ca\u00f1a", "old_name_1": "Marujita", "wheelchair": "no"}}, {"type": "node", "id": 1324284197, "lat": 40.4243592, "lon": -3.6951299, "tags": {"amenity": "restaurant", "cuisine": "italian", "name": "Toto e Pepino"}}, {"type": "node", "id": 1324284321, "lat": 40.4246056, "lon": -3.695327, "tags": {"amenity": "pub", "name": "La taberna de Argensola"}}, {"type": "node", "id": 1324284860, "lat": 40.4244609, "lon": -3.6952426, "tags": {"amenity": "restaurant", "name": "D\u00e9fil\u00e9 caf\u00e9"}}, {"type": "node", "id": 1324284960, "lat": 40.4250697, "lon": -3.6951729, "tags": {"addr:city": "Madrid", "addr:housenumber": "7", "addr:postcode": "28004", "addr:street": "Calle de Argensola", "amenity": "restaurant", "contact:phone": "+34 913 080 347", "contact:website": "http://latascasuprema.com/", "name": "La tasca suprema"}}, {"type": "node", "id": 1326816940, "lat": 40.4105154, "lon": -3.707697}, {"type": "node", "id": 1326816974, "lat": 40.4104052, "lon": -3.707709}, {"type": "node", "id": 1326817014, "lat": 40.4104985, "lon": -3.7076659}, {"type": "node", "id": 1326817036, "lat": 40.4105828, "lon": -3.7076333}, {"type": "node", "id": 1326817079, "lat": 40.4105491, "lon": -3.7076804}, {"type": "node", "id": 1326907763, "lat": 40.4103603, "lon": -3.7075056, "tags": {"amenity": "restaurant", "name": "La China Mandarina", "old_name": "Rinc\u00f3n Oriental"}}, {"type": "node", "id": 1326907764, "lat": 40.4108009, "lon": -3.7076291, "tags": {"name": "Plaza Lavapi\u00e9s", "old_name": "Moda Xu Da", "shop": "greengrocer"}}, {"type": "node", "id": 1326907766, "lat": 40.4109173, "lon": -3.7079535, "tags": {"disused:shop": "clothes", "name": "Alimentaci\u00f3n y Bazar", "old_name": "Da Bu Tong", "shop": "convenience"}}, {"type": "node", "id": 1326907770, "lat": 40.4103806, "lon": -3.7076199, "tags": {"addr:city": "Madrid", "addr:country": "ES", "addr:housenumber": "2", "addr:postcode": "28005", "addr:street": "Calle de la Ruda", "shop": "bakery", "wheelchair": "no"}}, {"type": "node", "id": 1326907771, "lat": 40.4109462, "lon": -3.7080342, "tags": {"addr:housenumber": "7", "addr:street": "Calle de las Maldonadas", "amenity": "restaurant", "disused:shop": "clothes", "name": "Origen", "old_name": "Xiaoliang"}}, {"type": "node", "id": 1326907774, "lat": 40.4107542, "lon": -3.7074989, "tags": {"addr:city": "Madrid", "addr:housenumber": "1", "addr:postcode": "28005", "addr:street": "Calle de las Maldonadas", "amenity": "cafe", "name": "Cruz", "smoking": "no", "wheelchair": "limited", "wheelchair:description": "Ba\u00f1o inaccessible, barra demasiada alta"}}, {"type": "node", "id": 1326907775, "lat": 40.4106629, "lon": -3.7074954, "tags": {"amenity": "restaurant", "name": "La Barca del Patio", "old_name": "Duland Textil", "website": "https://www.labarcadelpatio.es/"}}, {"type": "node", "id": 1326907776, "lat": 40.4108664, "lon": -3.7085915, "tags": {"addr:city": "Madrid", "addr:housenumber": "69", "addr:postcode": "28005", "addr:street": "Calle de Toledo", "brand": "Carrefour Express", "brand:wikidata": "Q2940190", "brand:wikipedia": "fr:Carrefour Express", "contact:website": "http://www.carrefour.es/tiendas-carrefour/supermercados/carrefour-express/Carrefour_Expres_calle_toledo_madrid.aspx", "name": "Carrefour Express", "old_name": "Ferreter\u00eda Hoyos", "operator": "Groupe Carrefour", "operator:wikidata": "Q3117359", "operator:wikipedia": "fr:Groupe Carrefour", "shop": "convenience"}}, {"type": "node", "id": 1326907779, "lat": 40.4108979, "lon": -3.7078995, "tags": {"addr:city": "Madrid", "addr:housenumber": "5", "addr:postcode": "28005", "addr:street": "Calle de las Maldonadas", "amenity": "pub", "disused:amenity": "restaurant", "name": "La Tienda de la Cerveza", "old_name": "El Patio Andaluz;Casa Rodr\u00edguez", "opening_hours": "Tu-Fr 11:00-14:00,17:00-21:00; Sa,Su 10:30-14:30", "phone": "+34 910279081", "real_ale": "yes"}}, {"type": "node", "id": 1327533383, "lat": 40.4111236, "lon": -3.7080273}, {"type": "node", "id": 1327625370, "lat": 40.4111073, "lon": -3.7074118, "tags": {"amenity": "restaurant", "name": "Cascorro", "old_name": "Complementos Renu", "old_name_1": "No Pasa Nada"}}, {"type": "node", "id": 1327625383, "lat": 40.411009, "lon": -3.7079077, "tags": {"addr:city": "Madrid", "addr:country": "ES", "addr:housenumber": "8", "addr:postcode": "28005", "addr:street": "Calle de las Maldonadas", "name": "Marisquer\u00eda", "shop": "seafood", "wheelchair": "yes"}}, {"type": "node", "id": 1329671720, "lat": 40.410562, "lon": -3.7088396, "tags": {"name": "Los Andes", "shop": "convenience"}}, {"type": "node", "id": 1329671725, "lat": 40.4104908, "lon": -3.708171, "tags": {"name": "V\u00edctor Jos\u00e9 Aguilera", "shop": "convenience"}}, {"type": "node", "id": 1329671726, "lat": 40.4100488, "lon": -3.7088348, "tags": {"amenity": "restaurant", "cuisine": "chinese", "name": "Solofirme", "smoking": "no"}}, {"type": "node", "id": 1329671734, "lat": 40.4096809, "lon": -3.7086337, "tags": {"amenity": "restaurant", "cuisine": "regional", "name": "Mes\u00f3n del Rastro", "smoking": "no"}}, {"type": "node", "id": 1329671738, "lat": 40.4097854, "lon": -3.7087205, "tags": {"addr:city": "Madrid", "addr:housenumber": "7", "addr:postcode": "28005", "addr:street": "Calle L\u00f3pez Silva", "amenity": "fast_food", "name": "Asador de pollos Navarro", "wheelchair": "limited", "wheelchair:description": "Escal\u00f3n de 5 cm y mostrador alto"}}, {"type": "node", "id": 1329671739, "lat": 40.4103944, "lon": -3.7078876, "tags": {"amenity": "cafe", "name": "San Tana", "smoking": "no"}}, {"type": "node", "id": 1329671762, "lat": 40.4106751, "lon": -3.7087326, "tags": {"amenity": "restaurant", "cuisine": "regional", "name": "Los Tiernos", "old_name": "Onis", "smoking": "no"}}, {"type": "node", "id": 1329861087, "lat": 40.412118, "lon": -3.7091871, "tags": {"addr:city": "Madrid", "addr:country": "ES", "addr:housenumber": "17", "addr:postcode": "28005", "addr:street": "Calle de la Cava Alta", "amenity": "restaurant", "cuisine": "regional", "microbrewery": "no", "name": "Taberna Matritum", "opening_hours": "Mo-Su 20:30-00:30, Sa-Su 13:00-16:30", "phone": "+34 913658237", "smoking": "no", "website": "https://www.matritum.es/"}}, {"type": "node", "id": 1329861098, "lat": 40.4115506, "lon": -3.7100487, "tags": {"name": "Alimentaci\u00f3n", "shop": "convenience"}}, {"type": "node", "id": 1329861103, "lat": 40.4114684, "lon": -3.7098595, "tags": {"addr:city": "Madrid", "addr:housenumber": "9", "addr:postcode": "28005", "addr:street": "Plaza de la Cebada", "amenity": "restaurant", "contact:website": "http://www.tapiocamadrid.es/", "cuisine": "pizza", "name": "Tapioca", "old_name": "Croccos"}}, {"type": "node", "id": 1329861133, "lat": 40.4124541, "lon": -3.7084514, "tags": {"amenity": "restaurant", "name": "Cava Mar\u00eda", "old_name": "Cava blanca", "smoking": "no", "website": "http://www.cavamaria.es/about/"}}, {"type": "node", "id": 1329861135, "lat": 40.4121488, "lon": -3.7080352, "tags": {"amenity": "restaurant", "cuisine": "regional", "name": "Cantalejo", "smoking": "no"}}, {"type": "node", "id": 1329861138, "lat": 40.4122248, "lon": -3.7081255, "tags": {"amenity": "restaurant", "cuisine": "regional", "name": "La Latina", "smoking": "no"}}, {"type": "node", "id": 1329861145, "lat": 40.4114997, "lon": -3.709931, "tags": {"amenity": "bar", "name": "La extreme\u00f1a"}}, {"type": "node", "id": 1329861148, "lat": 40.4122689, "lon": -3.7088555, "tags": {"addr:city": "Madrid", "addr:housenumber": "13", "addr:postcode": "28005", "addr:street": "Calle de la Cava Alta", "amenity": "restaurant", "cuisine": "burger", "name": "Mad Caf\u00e9", "wifi": "no"}}, {"type": "node", "id": 1329909010, "lat": 40.4119683, "lon": -3.7073879}, {"type": "node", "id": 1329909018, "lat": 40.4115679, "lon": -3.7076879}, {"type": "node", "id": 1329909036, "lat": 40.4120685, "lon": -3.7074091}, {"type": "node", "id": 1329909095, "lat": 40.4119436, "lon": -3.7074835}, {"type": "node", "id": 1329909108, "lat": 40.4115285, "lon": -3.7077133}, {"type": "node", "id": 1329909115, "lat": 40.4114914, "lon": -3.7076529}, {"type": "node", "id": 1329909143, "lat": 40.4115898, "lon": -3.7074564}, {"type": "node", "id": 1329909147, "lat": 40.4115929, "lon": -3.7074149}, {"type": "node", "id": 1329909187, "lat": 40.4114793, "lon": -3.7077151, "tags": {"entrance": "main"}}, {"type": "node", "id": 1329909235, "lat": 40.4119684, "lon": -3.7074567}, {"type": "node", "id": 1329909249, "lat": 40.4115645, "lon": -3.7077145}, {"type": "node", "id": 1329909254, "lat": 40.4120645, "lon": -3.7075176}, {"type": "node", "id": 1329909264, "lat": 40.4115867, "lon": -3.7075908}, {"type": "node", "id": 1329909279, "lat": 40.4115285, "lon": -3.7073139}, {"type": "node", "id": 1332770268, "lat": 40.4263466, "lon": -3.6956787, "tags": {"amenity": "restaurant", "name": "Mad Grill", "old_name": "Rebote"}}, {"type": "node", "id": 1332770270, "lat": 40.4260706, "lon": -3.6956282, "tags": {"addr:city": "Madrid", "addr:housenumber": "12", "addr:postcode": "28004", "addr:street": "Calle de Campoamor", "amenity": "bar", "contact:website": "http://www.grupocherokee.es/", "name": "Cherokee", "old_name": "Ma\u00efbar"}}, {"type": "node", "id": 1332770271, "lat": 40.4256381, "lon": -3.6952666, "tags": {"amenity": "restaurant", "name": "IL COC"}}, {"type": "node", "id": 1357992365, "lat": 40.4296447, "lon": -3.7024341, "tags": {"addr:city": "Madrid", "addr:housenumber": "114", "addr:postcode": "28010", "addr:street": "Calle de Fuencarral", "amenity": "restaurant", "name": "Cervecer\u00eda La Camocha"}}, {"type": "node", "id": 1388259232, "lat": 40.4232145, "lon": -3.7047281, "tags": {"addr:housenumber": "7", "addr:postcode": "28004", "addr:street": "Calle del Pez", "amenity": "pub", "name": "Zombie Bar"}}, {"type": "node", "id": 1388332887, "lat": 40.4241816, "lon": -3.7037685, "tags": {"addr:city": "Madrid", "addr:housenumber": "35", "addr:postcode": "28004", "addr:street": "Calle de la Madera", "amenity": "bar", "name": "Ferrari", "old_name": "Do\u00f1a Pepita", "old_name_1": "Metropolitain"}}, {"type": "node", "id": 1388356941, "lat": 40.4232926, "lon": -3.703864, "tags": {"addr:housenumber": "4", "addr:street": "Plaza de Carlos Cambronero", "amenity": "restaurant", "name": "Lamucca"}}, {"type": "node", "id": 1388375038, "lat": 40.4237635, "lon": -3.7027651, "tags": {"addr:city": "Madrid", "addr:country": "ES", "addr:housenumber": "4", "addr:postcode": "28004", "addr:street": "Calle de El Escorial", "amenity": "pub", "name": "La Cueva del Oso", "old_name": "Mala Fe; Shake It"}}, {"type": "node", "id": 1388375039, "lat": 40.4235671, "lon": -3.7026322, "tags": {"addr:city": "Madrid", "addr:country": "ES", "addr:housenumber": "51", "addr:postcode": "28004", "addr:street": "Corredera Baja de San Pablo", "amenity": "pub", "name": "La Realidad"}}, {"type": "node", "id": 1388375468, "lat": 40.4230846, "lon": -3.7043878, "tags": {"addr:city": "Madrid", "addr:housenumber": "8", "addr:postcode": "28004", "addr:street": "Calle del Pez", "amenity": "restaurant", "name": "Pez 8", "old_name": "Palentino"}}, {"type": "node", "id": 1416648305, "lat": 40.4170322, "lon": -3.6995917, "tags": {"addr:housenumber": "1", "addr:postcode": "28014", "addr:street": "Calle de Arlab\u00e1n", "amenity": "restaurant", "cuisine": "spanish", "name": "El Patio"}}, {"type": "node", "id": 1423714820, "lat": 40.421242, "lon": -3.697297, "tags": {"addr:housenumber": "37", "addr:postcode": "28004", "addr:street": "Calle de San Marcos", "amenity": "cafe", "cuisine": "mediterranean", "name": "Diurno"}}, {"type": "node", "id": 1428141699, "lat": 40.4157993, "lon": -3.6995741, "tags": {"addr:city": "Madrid", "addr:country": "ES", "addr:housenumber": "7", "addr:postcode": "28014", "addr:street": "Calle de Echegaray", "amenity": "bar", "cuisine": "tapas", "description": "Mo-Su 12:30-15:30,19:30+", "name": "La Venencia", "opening_hours": "Mo-Su 12:30-15:30,19:30+"}}, {"type": "node", "id": 1428147941, "lat": 40.4145296, "lon": -3.6997834, "tags": {"amenity": "restaurant", "name": "Caff\u00e9 dei Poeti"}}, {"type": "node", "id": 1428173987, "lat": 40.4150912, "lon": -3.6995411, "tags": {"addr:city": "Madrid", "addr:housenumber": "19", "addr:postcode": "28014", "addr:street": "Calle de Echegaray", "contact:facebook": "https://es-es.facebook.com/licorescabello/", "contact:phone": "+34 914 29 60 88", "name": "Licores Cabello", "shop": "alcohol", "wheelchair": "no"}}, {"type": "node", "id": 1429333765, "lat": 40.415914, "lon": -3.6989759, "tags": {"amenity": "restaurant", "cuisine": "indian", "name": "Aroma"}}, {"type": "node", "id": 1434283780, "lat": 40.4288389, "lon": -3.7058704, "tags": {"addr:city": "Madrid", "addr:housenumber": "88", "addr:postcode": "28015", "addr:street": "Calle de San Bernardo", "amenity": "restaurant", "cuisine": "spanish", "email": "info@latape.com", "name": "La Tape", "old_name": "La Taper\u00eda", "phone": "+34  915930422", "real_ale": "yes", "website": "https://latape.com", "wikidata": "Q57446341"}}, {"type": "node", "id": 1434467193, "lat": 40.428722, "lon": -3.7074518, "tags": {"addr:housenumber": "1", "addr:street": "Calle de Santa Cruz de Marcenado", "name": "Don Finardo", "shop": "deli", "website": "http://www.donfinardojamones.com"}}, {"type": "node", "id": 1434542478, "lat": 40.4294586, "lon": -3.706212, "tags": {"addr:street": "Glorieta de Ruiz Jim\u00e9nez", "name": "Kiosco de prensa", "shop": "kiosk"}}, {"type": "node", "id": 1434581409, "lat": 40.4296017, "lon": -3.7049083, "tags": {"addr:city": "Madrid", "addr:housenumber": "20", "addr:postcode": "28004", "addr:street": "Calle de Carranza", "amenity": "cafe", "name": "Dolce e Salato", "old_name": "Imaginarium", "old_name_1": "Valentinas & Coffee", "wheelchair": "no"}}, {"type": "node", "id": 1436029706, "lat": 40.4290586, "lon": -3.7079437, "tags": {"addr:housenumber": "33", "addr:street": "Calle del Acuerdo", "shop": "convenience"}}, {"type": "node", "id": 1436032983, "lat": 40.4289641, "lon": -3.7092753, "tags": {"addr:housenumber": "42", "addr:street": "Calle del Conde Duque", "name": "Fruter\u00eda San Miguel", "shop": "greengrocer"}}, {"type": "node", "id": 1436033441, "lat": 40.4295696, "lon": -3.708931, "tags": {"addr:housenumber": "48", "addr:street": "Calle del Conde Duque", "name": "Kiosco de prensa", "shop": "kiosk"}}, {"type": "node", "id": 1436439157, "lat": 40.4296937, "lon": -3.7083499, "tags": {"name": "Sprint", "shop": "convenience"}}, {"type": "node", "id": 1436529301, "lat": 40.4265493, "lon": -3.6940626, "tags": {"addr:housenumber": "27", "addr:street": "Calle de Argensola", "name": "Poncelet", "opening_hours": "Mo-Sa 10:30 - 20:30", "phone": "+34 91 308 02 21", "shop": "deli", "website": "https://poncelet.es/"}}, {"type": "node", "id": 1437050993, "lat": 40.4268601, "lon": -3.7194291, "tags": {"addr:city": "Madrid", "addr:housenumber": "28", "addr:postcode": "28008", "addr:street": "Paseo del Pintor Rosales", "amenity": "restaurant", "name": "La Creperie Easycrep", "phone": "+34 91 548 23 58", "website": "http://www.lacreperie-easycrep.es/"}}, {"type": "node", "id": 1457528577, "lat": 40.4077371, "lon": -3.6963231, "tags": {"addr:city": "Madrid", "addr:housenumber": "39", "addr:postcode": "28012", "addr:street": "Calle de Argumosa", "amenity": "cafe", "cuisine": "breakfast;crepe;tea;cake;coffee_shop", "name": "La Libre", "survey:date": "2022-07-23"}}, {"type": "node", "id": 1495392982, "lat": 40.4080907, "lon": -3.6976117, "tags": {"amenity": "restaurant", "cuisine": "indian", "name": "Fant\u00e1stico"}}, {"type": "node", "id": 1517405720, "lat": 40.4238791, "lon": -3.7014995, "tags": {"addr:city": "Madrid", "addr:housenumber": "14", "addr:postcode": "28004", "addr:street": "Calle de Col\u00f3n", "amenity": "cafe", "contact:facebook": "https://www.facebook.com/pages/Cr%C3%AAperie-La-Rue/118120001543910?sk=info&tab=overview", "contact:phone": "+34 911 89 70 87", "cuisine": "crepe", "name": "La Rue", "old_name": "Al Laboratorio", "wheelchair": "no"}}, {"type": "node", "id": 1517405725, "lat": 40.4141212, "lon": -3.7012349, "tags": {"addr:city": "Madrid", "addr:housenumber": "3", "addr:postcode": "28012", "addr:street": "Calle de las Huertas", "amenity": "restaurant", "contact:website": "http://delolivorestaurante.es/", "name": "Del Olivo", "old_name": "Huertas Uno", "old_name_1": "Phenicio", "old_name_2": "Al-Batra"}}, {"type": "node", "id": 1517405726, "lat": 40.4163668, "lon": -3.7015661, "tags": {"amenity": "bar", "name": "La Fontana de Oro"}}, {"type": "node", "id": 1517405727, "lat": 40.4088976, "lon": -3.6990671, "tags": {"amenity": "bar", "name": "Il Morto Che Parla"}}, {"type": "node", "id": 1517405731, "lat": 40.4256127, "lon": -3.7027497, "tags": {"addr:city": "Madrid", "addr:housenumber": "17", "addr:postcode": "28004", "addr:street": "Calle de San Vicente Ferrer", "amenity": "bar", "contact:website": "http://www.maderfaker.com/es/club.html", "name": "Mader Faker", "note": "This is the actual name of this funky bar/pub/club"}}, {"type": "node", "id": 1517405734, "lat": 40.4090165, "lon": -3.6936473, "tags": {"addr:city": "Madrid", "addr:housenumber": "5", "addr:postcode": "28012", "addr:street": "Calle de S\u00e1nchez Bustillo", "amenity": "restaurant", "contact:email": "atencioncliente@pinocchio.es", "contact:phone": "+34 91 468 73 73", "contact:website": "http://www.pinocchio.es/", "cuisine": "italian", "name": "Trattoria Pinocchio", "wheelchair": "limited"}}, {"type": "node", "id": 1517405735, "lat": 40.4131464, "lon": -3.6960507, "tags": {"amenity": "bar", "cuisine": "irish", "name": "The Harp", "old_name": "The Variety"}}, {"type": "node", "id": 1517405742, "lat": 40.4089409, "lon": -3.6992747, "tags": {"addr:city": "Madrid", "addr:housenumber": "38", "addr:postcode": "28012", "addr:street": "Calle del Salitre", "amenity": "pub", "email": "barchinaskilavapies@gmail.com", "name": "Chinaski Lavapi\u00e9s", "opening_hours": "Mo-We 18:00-00:00; Th 18:00-01:00; Fr 18:00-02:00; Sa 13:00-02:00; Su 13:00-00:00", "phone": "+34 911 28 31 77", "real_ale": "yes", "website": "https://www.chinaskilavapies.com/"}}, {"type": "node", "id": 1517405743, "lat": 40.4091828, "lon": -3.6940348, "tags": {"addr:city": "Madrid", "addr:housenumber": "3", "addr:postcode": "28012", "addr:street": "Calle del Doctor Mata", "amenity": "restaurant", "contact:website": "http://www.elsanabria.es/en/", "cuisine": "regional", "name": "Sanabria", "wheelchair": "limited"}},