{"version": 0.6, "generator": "Overpass API 0.7.58.5 b0c4acbb", "osm3s": {"timestamp_osm_base": "2022-09-06T16:29:24Z", "copyright": "The data included in this document is from www.openstreetmap.org. The data is made available under ODbL."}, "elements": [{"type": "node", "id": 21990738, "lat": 40.4267032, "lon": -3.7045657}, {"type": "node", "id": 26480850, "lat": 40.4125308, "lon": -3.7114737}, {"type": "node", "id": 60672265, "lat": 40.4299811, "lon": -3.7119921}, {"type": "node", "id": 60672266, "lat": 40.4295406, "lon": -3.7122593}, {"type": "node", "id": 60672267, "lat": 40.4291686, "lon": -3.7107358}, {"type": "node", "id": 60672268, "lat": 40.4296492, "lon": -3.7106291}, {"type": "node", "id": 60672269, "lat": 40.429768, "lon": -3.7111106}, {"type": "node", "id": 60672270, "lat": 40.4298736, "lon": -3.7110674}, {"type": "node", "id": 60672271, "lat": 40.4299739, "lon": -3.7114797}, {"type": "node", "id": 60672272, "lat": 40.4298696, "lon": -3.711525}, {"type": "node", "id": 167302403, "lat": 40.4061991, "lon": -3.6977054}, {"type": "node", "id": 167302420, "lat": 40.4065833, "lon": -3.6964224}, {"type": "node", "id": 167302427, "lat": 40.4054366, "lon": -3.6956249}, {"type": "node", "id": 167302431, "lat": 40.4052054, "lon": -3.6970409}, {"type": "node", "id": 167386167, "lat": 40.4237276, "lon": -3.6899043, "tags": {"addr:city": "Madrid", "addr:country": "ES", "addr:housenumber": "20-22", "addr:postcode": "28071", "addr:street": "Paseo de Recoletos", "amenity": "library", "name": "Biblioteca Nacional de Espa\u00f1a", "name:de": "Spanische Nationalbibliothek", "name:en": "National Library of Spain", "name:es": "Biblioteca Nacional de Espa\u00f1a", "name:fr": "Biblioth\u00e8que nationale d'Espagne", "opening_hours": "Tu-Sa 10:00-21:00; Su 10:00-14:00", "phone": "+34 91 580 7759", "website": "http://www.bne.es/", "wikidata": "Q750403", "wikipedia": "es:Biblioteca Nacional de Espa\u00f1a"}}, {"type": "node", "id": 266167536, "lat": 40.4262288, "lon": -3.7134168, "tags": {"addr:city": "Madrid", "addr:country": "ES", "addr:housenumber": "19", "addr:postcode": "28008", "addr:street": "Calle de la Princesa", "amenity": "school", "educamadrid:bilingue": "no", "educamadrid:cod_centro": "28007103", "educamadrid:codigo_postal": "28008", "educamadrid:comedor": "yes", "educamadrid:distrito": "Moncloa-Aravaca", "educamadrid:fax": "915474027", "educamadrid:horario_amp": "yes", "educamadrid:municipio": "Madrid", "educamadrid:nombre_via": "De La Princesa", "educamadrid:numero_portal": "19", "educamadrid:publico_bilingue": "no", "educamadrid:telefono": "915424901 , 915424901", "educamadrid:tipo": "Centro Privado de Educaci\u00f3n Infantil, Primaria y Secundaria", "educamadrid:tipo_via": "Calle", "educamadrid:transporte": "yes", "educamadrid:url": "http://www.educa.madrid.org/cc.mmconcepcionistas.madrid", "name": "Colegio Madres Concepcionistas", "source:url": "http://educa.madrid.org", "wheelchair": "no"}}, {"type": "node", "id": 266167563, "lat": 40.4274181, "lon": -3.7089933, "tags": {"amenity": "kindergarten", "educamadrid:bilingue": "no", "educamadrid:cod_centro": "28007085", "educamadrid:codigo_postal": "28015", "educamadrid:comedor": "no", "educamadrid:distrito": "Centro", "educamadrid:fax": "915400070", "educamadrid:horario_amp": "no", "educamadrid:municipio": "Madrid", "educamadrid:nombre_via": "de las Comendadoras", "educamadrid:numero_portal": "10", "educamadrid:publico_bilingue": "no", "educamadrid:telefono": "915481842 , 915481842", "educamadrid:tipo": "Centro Privado de Educaci\u00f3n Infantil", "educamadrid:tipo_via": "Plaza", "educamadrid:transporte": "no", "name": "E.I. Comendadoras de Santiago", "source:url": "http://www.educa.madrid.org"}}, {"type": "node", "id": 266167703, "lat": 40.4270218, "lon": -3.7017956, "tags": {"amenity": "college", "educamadrid:bilingue": "no", "educamadrid:cod_centro": "28012706", "educamadrid:codigo_postal": "28004", "educamadrid:comedor": "no", "educamadrid:distrito": "Centro", "educamadrid:fax": "914488971", "educamadrid:horario_amp": "no", "educamadrid:municipio": "Madrid", "educamadrid:nombre_via": "de Fuencarral", "educamadrid:numero_portal": "95", "educamadrid:publico_bilingue": "no", "educamadrid:telefono": "914488971 , 914488971", "educamadrid:tipo": "Centro Privado de Educaci\u00f3n Secundaria", "educamadrid:tipo_via": "Calle", "educamadrid:transporte": "no", "name": "Colegio Mar\u00edn Amat", "source:url": "http://educa.madrid.org"}}, {"type": "node", "id": 266167821, "lat": 40.4215066, "lon": -3.7021039, "tags": {"amenity": "school", "educamadrid:bilingue": "no", "educamadrid:cod_centro": "28012779", "educamadrid:codigo_postal": "28004", "educamadrid:comedor": "yes", "educamadrid:distrito": "Centro", "educamadrid:fax": "915327756", "educamadrid:horario_amp": "no", "educamadrid:municipio": "Madrid", "educamadrid:nombre_via": "De Valverde", "educamadrid:numero_portal": "15", "educamadrid:publico_bilingue": "no", "educamadrid:telefono": "915224615 , 915224615", "educamadrid:tipo": "Centro Privado de Educaci\u00f3n Infantil, Primaria y Secundaria", "educamadrid:tipo_via": "Calle", "educamadrid:transporte": "no", "educamadrid:url": "http://www.educa.madrid.org/cc.mmjuandealarcon.madrid", "name": "Colegio de las Madres Mercedarias de Don Juan de Alarc\u00f3n", "source:url": "http://www.educa.madrid.org"}}, {"type": "node", "id": 266167885, "lat": 40.4205733, "lon": -3.7101674, "tags": {"addr:city": "Madrid", "addr:housenumber": "9", "addr:postcode": "28013", "addr:street": "Calle de Fomento", "alt_name": "Instituto Educaci\u00f3n Superior Santa Teresa de Jes\u00fas", "amenity": "school", "educamadrid:bilingue": "no", "educamadrid:cod_centro": "28018344", "educamadrid:codigo_postal": "28013", "educamadrid:comedor": "no", "educamadrid:distrito": "Centro", "educamadrid:fax": "915418034", "educamadrid:horario_amp": "no", "educamadrid:municipio": "Madrid", "educamadrid:nombre_via": "Del Fomento", "educamadrid:numero_portal": "9", "educamadrid:publico_bilingue": "no", "educamadrid:telefono": "915415996 , 915415996", "educamadrid:tipo": "Instituto de Educaci\u00f3n Secundaria", "educamadrid:tipo_via": "Calle", "educamadrid:transporte": "no", "educamadrid:url": "http://www.educa.madrid.org/ies.santateresa.madrid", "internet_access": "wlan", "name": "IES Santa Teresa de Jes\u00fas", "phone": "+34 915 41 59 96", "source:url": "http://educa.madrid.org", "wheelchair": "yes"}}, {"type": "node", "id": 266167939, "lat": 40.4224323, "lon": -3.7098461, "tags": {"amenity": "school", "created_by": "xybot", "educamadrid:bilingue": "no", "educamadrid:cod_centro": "28019907", "educamadrid:codigo_postal": "28013", "educamadrid:comedor": "no", "educamadrid:distrito": "Centro", "educamadrid:fax": "915474084", "educamadrid:horario_amp": "no", "educamadrid:municipio": "Madrid", "educamadrid:nombre_via": "Gran V\u00eda", "educamadrid:numero_portal": "63", "educamadrid:publico_bilingue": "no", "educamadrid:telefono": "915411515 , 915411515", "educamadrid:tipo": "Centro Privado De Educacion Secundaria", "educamadrid:tipo_via": "Calle", "educamadrid:transporte": "no", "name": "Dario Estudio", "source:url": "http://educa.madrid.org"}}, {"type": "node", "id": 266167949, "lat": 40.4298609, "lon": -3.7069054, "tags": {"amenity": "school", "educamadrid:bilingue": "no", "educamadrid:cod_centro": "28020399", "educamadrid:codigo_postal": "28015", "educamadrid:comedor": "no", "educamadrid:distrito": "Chamber\u00ed", "educamadrid:fax": "914474425", "educamadrid:horario_amp": "no", "educamadrid:municipio": "Madrid", "educamadrid:nombre_via": "De Alberto Aguilera", "educamadrid:numero_portal": "8", "educamadrid:publico_bilingue": "no", "educamadrid:telefono": "914457350 , 914457350", "educamadrid:tipo": "Centro Privado De Formacion Profesional Especifica", "educamadrid:tipo_via": "Calle", "educamadrid:transporte": "no", "educamadrid:url": "http://www.educa.madrid.org/cc.epjaveriana.madrid", "name": "Escuela Profesional Javeriana", "source:url": "http://www.educa.madrid.org"}}, {"type": "node", "id": 266167967, "lat": 40.4107469, "lon": -3.7129528, "tags": {"amenity": "college", "educamadrid:bilingue": "no", "educamadrid:cod_centro": "28018514", "educamadrid:codigo_postal": "28005", "educamadrid:comedor": "no", "educamadrid:distrito": "Centro", "educamadrid:fax": "913653863", "educamadrid:horario_amp": "no", "educamadrid:municipio": "Madrid", "educamadrid:nombre_via": "de San Francisco", "educamadrid:numero_portal": "11", "educamadrid:publico_bilingue": "no", "educamadrid:telefono": "913653863 , 913653863", "educamadrid:tipo": "Centro Privado de Formaci\u00f3n Profesional Espec\u00edfica", "educamadrid:tipo_via": "Carrera", "educamadrid:transporte": "no", "name": "Centro de ense\u00f1anza Afuera II", "source:url": "http://educa.madrid.org"}}, {"type": "node", "id": 266167968, "lat": 40.4284328, "lon": -3.7023644, "tags": {"amenity": "school", "educamadrid:bilingue": "no", "educamadrid:cod_centro": "28018563", "educamadrid:codigo_postal": "28004", "educamadrid:comedor": "no", "educamadrid:distrito": "Centro", "educamadrid:fax": "914481344", "educamadrid:horario_amp": "no", "educamadrid:municipio": "Madrid", "educamadrid:nombre_via": "De Fuencarral", "educamadrid:numero_portal": "105", "educamadrid:publico_bilingue": "no", "educamadrid:telefono": "914489404 , 914489404", "educamadrid:tipo": "Centro Privado de Formaci\u00f3n Profesional Espec\u00edfica", "educamadrid:tipo_via": "Calle", "educamadrid:transporte": "no", "name": "Colegio Gonz\u00e1lez Ca\u00f1adas", "source:url": "http://educa.madrid.org"}}, {"type": "node", "id": 266167969, "lat": 40.4267633, "lon": -3.6943266, "tags": {"amenity": "school", "educamadrid:bilingue": "no", "educamadrid:cod_centro": "28018587", "educamadrid:codigo_postal": "28004", "educamadrid:comedor": "no", "educamadrid:distrito": "Centro", "educamadrid:fax": "913080384", "educamadrid:horario_amp": "no", "educamadrid:municipio": "Madrid", "educamadrid:nombre_via": "de G\u00e9nova", "educamadrid:numero_portal": "14", "educamadrid:publico_bilingue": "no", "educamadrid:telefono": "913080384 , 913080384", "educamadrid:tipo": "Centro Privado de Educaci\u00f3n Secundaria", "educamadrid:tipo_via": "Calle", "educamadrid:transporte": "no", "name": "Academia J.E.A.", "source:url": "http://www.educa.madrid.org"}}, {"type": "node", "id": 266167970, "lat": 40.4259867, "lon": -3.6985632, "tags": {"amenity": "college", "educamadrid:bilingue": "no", "educamadrid:cod_centro": "28018678", "educamadrid:codigo_postal": "28004", "educamadrid:comedor": "no", "educamadrid:distrito": "Centro", "educamadrid:fax": "915942379", "educamadrid:horario_amp": "no", "educamadrid:municipio": "Madrid", "educamadrid:nombre_via": "De San Mateo", "educamadrid:numero_portal": "15", "educamadrid:publico_bilingue": "no", "educamadrid:telefono": "914453510 , 914453510", "educamadrid:tipo": "Centro Privado de Educaci\u00f3n Secundaria", "educamadrid:tipo_via": "Calle", "educamadrid:transporte": "no", "name": "Torval'l Formaci\u00f3n", "source:url": "http://educa.madrid.org"}}, {"type": "node", "id": 266167978, "lat": 40.4219785, "lon": -3.7091246, "tags": {"amenity": "college", "educamadrid:bilingue": "no", "educamadrid:cod_centro": "28018988", "educamadrid:codigo_postal": "28013", "educamadrid:comedor": "no", "educamadrid:distrito": "Centro", "educamadrid:fax": "915472753", "educamadrid:horario_amp": "yes", "educamadrid:municipio": "Madrid", "educamadrid:nombre_via": "Gran V\u00eda", "educamadrid:numero_portal": "59", "educamadrid:publico_bilingue": "no", "educamadrid:telefono": "915471763 , 915471763", "educamadrid:tipo": "Centro Privado de Educaci\u00f3n Secundaria", "educamadrid:tipo_via": "Calle", "educamadrid:transporte": "no", "name": "Instituto Vox", "source:url": "http://educa.madrid.org", "website": "https://www.institutovox.es/"}}, {"type": "node", "id": 266167979, "lat": 40.4232128, "lon": -3.7100844, "tags": {"amenity": "college", "educamadrid:bilingue": "no", "educamadrid:cod_centro": "28018927", "educamadrid:codigo_postal": "28015", "educamadrid:comedor": "no", "educamadrid:distrito": "Centro", "educamadrid:horario_amp": "no", "educamadrid:municipio": "Madrid", "educamadrid:nombre_via": "Gran V\u00eda", "educamadrid:numero_portal": "76", "educamadrid:publico_bilingue": "no", "educamadrid:telefono": "915474196 , 915474196", "educamadrid:tipo": "Centro Privado de Educaci\u00f3n Secundaria", "educamadrid:tipo_via": "Calle", "educamadrid:transporte": "no", "name": "Quick", "source:url": "http://educa.madrid.org"}}, {"type": "node", "id": 266168024, "lat": 40.4143134, "lon": -3.7012985, "tags": {"amenity": "college", "educamadrid:bilingue": "no", "educamadrid:cod_centro": "28021604", "educamadrid:codigo_postal": "28012", "educamadrid:comedor": "no", "educamadrid:distrito": "Centro", "educamadrid:fax": "914296406", "educamadrid:horario_amp": "no", "educamadrid:municipio": "Madrid", "educamadrid:nombre_via": "de Santa Ana", "educamadrid:numero_portal": "13", "educamadrid:publico_bilingue": "no", "educamadrid:telefono": "914295151 , 914295151", "educamadrid:tipo": "Centro Privado de Formaci\u00f3n Profesional Espec\u00edfica", "educamadrid:tipo_via": "Plaza", "educamadrid:transporte": "no", "name": "Centro de ense\u00f1anza Afuera I", "source:url": "http://educa.madrid.org"}}, {"type": "node", "id": 266168104, "lat": 40.4157649, "lon": -3.7091042, "tags": {"amenity": "college", "educamadrid:bilingue": "no", "educamadrid:cod_centro": "28022323", "educamadrid:codigo_postal": "28013", "educamadrid:comedor": "no", "educamadrid:distrito": "Centro", "educamadrid:fax": "91 5483931", "educamadrid:horario_amp": "no", "educamadrid:municipio": "Madrid", "educamadrid:nombre_via": "Mayor", "educamadrid:numero_portal": "49", "educamadrid:publico_bilingue": "no", "educamadrid:telefono": "915483931 , 915483931", "educamadrid:tipo": "Centro Privado de Formaci\u00f3n Profesional Espec\u00edfica", "educamadrid:tipo_via": "Calle", "educamadrid:transporte": "no", "name": "Centro Teide II", "source:url": "http://educa.madrid.org"}}, {"type": "node", "id": 266168383, "lat": 40.4115325, "lon": -3.7067618, "tags": {"addr:city": "Madrid", "addr:country": "ES", "addr:housenumber": "15", "addr:postcode": "28012", "addr:street": "Calle del Duque de Alba", "amenity": "school", "educamadrid:bilingue": "no", "educamadrid:cod_centro": "28029263", "educamadrid:codigo_postal": "28012", "educamadrid:comedor": "no", "educamadrid:distrito": "Centro", "educamadrid:horario_amp": "no", "educamadrid:municipio": "Madrid", "educamadrid:nombre_via": "del Duque de Alba", "educamadrid:numero_portal": "15", "educamadrid:publico_bilingue": "no", "educamadrid:telefono": "913690411 , 913690411", "educamadrid:tipo": "Centro Privado de Formaci\u00f3n Profesional Espec\u00edfica", "educamadrid:tipo_via": "Calle", "educamadrid:transporte": "no", "name": "Antiguo Centro de Estudios Sol", "source:url": "http://educa.madrid.org"}}, {"type": "node", "id": 266168728, "lat": 40.4148943, "lon": -3.7035557, "tags": {"amenity": "college", "educamadrid:bilingue": "no", "educamadrid:cod_centro": "28031592", "educamadrid:codigo_postal": "28012", "educamadrid:comedor": "no", "educamadrid:distrito": "Centro", "educamadrid:fax": "915317966", "educamadrid:horario_amp": "no", "educamadrid:municipio": "Madrid", "educamadrid:nombre_via": "de Carretas", "educamadrid:numero_portal": "14", "educamadrid:publico_bilingue": "no", "educamadrid:telefono": "915211939 , 915211939", "educamadrid:tipo": "Centro Privado de Formaci\u00f3n Profesional Espec\u00edfica", "educamadrid:tipo_via": "Calle", "educamadrid:transporte": "no", "name": "Centro de Formaci\u00f3n T\u00e9cnica", "source:url": "http://www.educa2.madrid.org/educamadrid/"}}, {"type": "node", "id": 266168778, "lat": 40.4111037, "lon": -3.6963686, "tags": {"amenity": "school", "educamadrid:bilingue": "no", "educamadrid:cod_centro": "28036802", "educamadrid:codigo_postal": "28014", "educamadrid:comedor": "no", "educamadrid:distrito": "Centro", "educamadrid:horario_amp": "no", "educamadrid:municipio": "Madrid", "educamadrid:nombre_via": "de Atocha", "educamadrid:numero_portal": "93", "educamadrid:publico_bilingue": "no", "educamadrid:telefono": ",", "educamadrid:tipo": "Centro Privado de Educaci\u00f3n de Personas Adultas", "educamadrid:tipo_via": "Calle", "educamadrid:transporte": "no", "name": "Practivox", "source:url": "http://educa.madrid.org", "website": "http://www.cursospractivox.com/"}}, {"type": "node", "id": 266168827, "lat": 40.4244706, "lon": -3.707302, "tags": {"addr:city": "Madrid", "addr:housenumber": "44", "addr:postcode": "28015", "addr:street": "Calle de San Bernardo", "amenity": "university", "educamadrid:bilingue": "no", "educamadrid:cod_centro": "28034416", "educamadrid:codigo_postal": "28015", "educamadrid:comedor": "no", "educamadrid:distrito": "Centro", "educamadrid:fax": "915328059", "educamadrid:horario_amp": "no", "educamadrid:municipio": "Madrid", "educamadrid:nombre_via": "de San Bernardo", "educamadrid:numero_portal": "44", "educamadrid:publico_bilingue": "no", "educamadrid:telefono": "915328533 , 915328533", "educamadrid:tipo": "Escuela Superior de Canto", "educamadrid:tipo_via": "Calle", "educamadrid:transporte": "no", "educamadrid:url": "http://www.educa.madrid.org/es.canto.madrid", "name": "Escuela Superior de Canto de Madrid", "source:url": "http://educa.madrid.org", "website": "http://www.escm.es/"}}, {"type": "node", "id": 266168972, "lat": 40.412213, "lon": -3.707299, "tags": {"amenity": "school", "educamadrid:bilingue": "no", "educamadrid:cod_centro": "28037934", "educamadrid:codigo_postal": "28012", "educamadrid:comedor": "no", "educamadrid:distrito": "Centro", "educamadrid:fax": "913641050", "educamadrid:horario_amp": "no", "educamadrid:municipio": "Madrid", "educamadrid:nombre_via": "De Los Estudios", "educamadrid:numero_portal": "1", "educamadrid:publico_bilingue": "no", "educamadrid:telefono": "913654834 , 913654834", "educamadrid:tipo": "Escuela de Arte", "educamadrid:tipo_via": "Calle", "educamadrid:transporte": "no", "educamadrid:url": "http://www.educa.madrid.org/ea.numerotres.madrid", "name": "Escuela de Arte de Madrid N.3", "source:url": "http://educa.madrid.org"}}, {"type": "node", "id": 266168979, "lat": 40.4170421, "lon": -3.6954101, "tags": {"amenity": "school", "educamadrid:bilingue": "no", "educamadrid:cod_centro": "28037831", "educamadrid:codigo_postal": "28014", "educamadrid:comedor": "no", "educamadrid:distrito": "Centro", "educamadrid:fax": "915329359", "educamadrid:horario_amp": "no", "educamadrid:municipio": "Madrid", "educamadrid:nombre_via": "Del Marqu\u00e9s De Cubas", "educamadrid:numero_portal": "15", "educamadrid:publico_bilingue": "no", "educamadrid:telefono": "915212405 , 915212405", "educamadrid:tipo": "Escuela de Arte", "educamadrid:tipo_via": "Calle", "educamadrid:transporte": "no", "educamadrid:url": "http://www.educa.madrid.org/ea.numerodos.madrid", "name": "Escuela de Arte de Madrid N.2", "source:url": "http://www.educa.madrid.org"}}, {"type": "node", "id": 266169121, "lat": 40.4249909, "lon": -3.7090304, "tags": {"amenity": "school", "educamadrid:bilingue": "no", "educamadrid:cod_centro": "28039906", "educamadrid:codigo_postal": "28015", "educamadrid:comedor": "no", "educamadrid:distrito": "Centro", "educamadrid:fax": "915324442", "educamadrid:horario_amp": "no", "educamadrid:municipio": "Madrid", "educamadrid:nombre_via": "De Amaniel", "educamadrid:numero_portal": "2", "educamadrid:publico_bilingue": "no", "educamadrid:telefono": "915312843 , 915312843", "educamadrid:tipo": "Conservatorio Profesional de M\u00fasica", "educamadrid:tipo_via": "Calle", "educamadrid:transporte": "no", "educamadrid:url": "http://www.educa.madrid.org/cpm.amaniel.madrid", "name": "Conservatorio Profesional de M\u00fasica", "source:url": "http://educa.madrid.org", "website": "http://www.conservatorioamaniel.com/"}}, {"type": "node", "id": 266169371, "lat": 40.4106956, "lon": -3.7116612, "tags": {"amenity": "kindergarten", "educamadrid:bilingue": "no", "educamadrid:cod_centro": "28044859", "educamadrid:codigo_postal": "28005", "educamadrid:comedor": "yes", "educamadrid:distrito": "Centro", "educamadrid:fax": "913669006", "educamadrid:horario_amp": "yes", "educamadrid:municipio": "Madrid", "educamadrid:nombre_via": "de Tabernillas", "educamadrid:numero_portal": "4", "educamadrid:publico_bilingue": "no", "educamadrid:telefono": "913642491 , 913642491", "educamadrid:tipo": "Escuela de Educaci\u00f3n Infantil", "educamadrid:tipo_via": "Calle", "educamadrid:transporte": "no", "educamadrid:url": "http://www.educa.madrid.org/eei.municipallapaloma.madrid", "name": "Escuela infantil municipal La Paloma", "source:url": "http://educa.madrid.org"}}, {"type": "node", "id": 266169579, "lat": 40.4259239, "lon": -3.698625, "tags": {"amenity": "college", "educamadrid:bilingue": "no", "educamadrid:cod_centro": "28045827", "educamadrid:codigo_postal": "28004", "educamadrid:comedor": "no", "educamadrid:distrito": "Centro", "educamadrid:fax": "915942379", "educamadrid:horario_amp": "no", "educamadrid:municipio": "Madrid", "educamadrid:nombre_via": "De San Mateo", "educamadrid:numero_portal": "15", "educamadrid:publico_bilingue": "no", "educamadrid:telefono": "914453510 , 914453510", "educamadrid:tipo": "Centro Privado de Formaci\u00f3n Profesional Especifica", "educamadrid:tipo_via": "Calle", "educamadrid:transporte": "no", "name": "Torval'l Formaci\u00f3n", "source:url": "http://educa.madrid.org"}}, {"type": "node", "id": 266169602, "lat": 40.424745, "lon": -3.7146664, "tags": {"amenity": "school", "educamadrid:bilingue": "no", "educamadrid:cod_centro": "28045657", "educamadrid:codigo_postal": "28008", "educamadrid:comedor": "no", "educamadrid:distrito": "Moncloa-Aravaca", "educamadrid:fax": "915597397", "educamadrid:horario_amp": "no", "educamadrid:municipio": "Madrid", "educamadrid:nombre_via": "de Juan \u00c1lvarez Mendiz\u00e1bal", "educamadrid:numero_portal": "20", "educamadrid:publico_bilingue": "no", "educamadrid:telefono": "915597397 , 915597397", "educamadrid:tipo": "Centro P\u00fablico de Educaci\u00f3n de Personas Adultas", "educamadrid:tipo_via": "Calle", "educamadrid:transporte": "no", "educamadrid:url": "http://www.educa.madrid.org/cepa.moncloa.madrid", "name": "CEPA Moncloa", "source:url": "http://educa.madrid.org"}}, {"type": "node", "id": 266169676, "lat": 40.4263547, "lon": -3.7045344, "tags": {"amenity": "school", "educamadrid:bilingue": "no", "educamadrid:cod_centro": "28048488", "educamadrid:codigo_postal": "28004", "educamadrid:comedor": "no", "educamadrid:distrito": "Centro", "educamadrid:horario_amp": "no", "educamadrid:municipio": "Madrid", "educamadrid:nombre_via": "De La Palma", "educamadrid:numero_portal": "35", "educamadrid:publico_bilingue": "no", "educamadrid:telefono": "915211156 , 915211156", "educamadrid:tipo": "Escuela Privada de M\u00fasica", "educamadrid:tipo_via": "Calle", "educamadrid:transporte": "no", "name": "Escuela de M\u00fasica Creativa", "source:url": "http://educa.madrid.org"}}, {"type": "node", "id": 266169952, "lat": 40.4262782, "lon": -3.7158514, "tags": {"amenity": "kindergarten", "educamadrid:bilingue": "no", "educamadrid:cod_centro": "28056874", "educamadrid:codigo_postal": "28008", "educamadrid:comedor": "yes", "educamadrid:distrito": "Moncloa-Aravaca", "educamadrid:horario_amp": "yes", "educamadrid:municipio": "Madrid", "educamadrid:nombre_via": "De Evaristo San Miguel", "educamadrid:numero_portal": "11", "educamadrid:publico_bilingue": "no", "educamadrid:telefono": "915478067 , 915478067", "educamadrid:tipo": "Centro Privado de Educaci\u00f3n Infantil", "educamadrid:tipo_via": "Calle", "educamadrid:transporte": "no", "name": "El Jard\u00edn de los Genios", "source:url": "http://educa.madrid.org"}}, {"type": "node", "id": 266170046, "lat": 40.4262692, "lon": -3.7044672, "tags": {"amenity": "school", "educamadrid:bilingue": "no", "educamadrid:cod_centro": "28049808", "educamadrid:codigo_postal": "28004", "educamadrid:comedor": "no", "educamadrid:distrito": "Centro", "educamadrid:fax": "915217564", "educamadrid:horario_amp": "no", "educamadrid:municipio": "Madrid", "educamadrid:nombre_via": "de la Palma", "educamadrid:numero_portal": "35", "educamadrid:publico_bilingue": "no", "educamadrid:telefono": "915211156 , 915211156", "educamadrid:tipo": "Centro Autorizado Profesional de M\u00fasica", "educamadrid:tipo_via": "Calle", "educamadrid:transporte": "no", "name": "Escuela de M\u00fasica Creativa - C. Estudios Profesionales", "source:url": "http://educa.madrid.org"}}, {"type": "node", "id": 266170079, "lat": 40.4287645, "lon": -3.7070715, "tags": {"amenity": "school", "educamadrid:bilingue": "no", "educamadrid:cod_centro": "28050203", "educamadrid:codigo_postal": "28015", "educamadrid:comedor": "no", "educamadrid:distrito": "Centro", "educamadrid:fax": "914470411", "educamadrid:horario_amp": "no", "educamadrid:municipio": "Madrid", "educamadrid:nombre_via": "de Santa Cruz de Marcenado", "educamadrid:numero_portal": "1", "educamadrid:publico_bilingue": "no", "educamadrid:telefono": "915934855 , 915934855", "educamadrid:tipo": "Centro Autorizado Profesional de M\u00fasica", "educamadrid:tipo_via": "Calle", "educamadrid:transporte": "no", "name": "Escuela de M\u00fasica Soto Mesa", "source:url": "http://educa.madrid.org", "website": "http://www.sotomesa.com/"}}, {"type": "node", "id": 266170111, "lat": 40.4303389, "lon": -3.7078484, "tags": {"addr:housenumber": "3", "addr:street": "Plaza del Conde del Valle Suchil", "amenity": "kindergarten", "educamadrid:bilingue": "no", "educamadrid:cod_centro": "28058536", "educamadrid:codigo_postal": "28015", "educamadrid:comedor": "yes", "educamadrid:distrito": "Chamber\u00ed", "educamadrid:fax": "91 4471679", "educamadrid:horario_amp": "yes", "educamadrid:municipio": "Madrid", "educamadrid:nombre_via": "Del Conde del Valle de S\u00fachil", "educamadrid:numero_portal": "3", "educamadrid:publico_bilingue": "no", "educamadrid:telefono": "915931480 , 915931480", "educamadrid:tipo": "Centro Privado de Educaci\u00f3n Infantil", "educamadrid:tipo_via": "Plaza", "educamadrid:transporte": "no", "name": "Los Locos Bajitos", "source:url": "http://educa.madrid.org"}}, {"type": "node", "id": 266170325, "lat": 40.4279565, "lon": -3.7189135, "tags": {"addr:city": "Madrid", "addr:housenumber": "60", "addr:postcode": "28008", "addr:street": "Calle de Ferraz", "amenity": "kindergarten", "educamadrid:bilingue": "no", "educamadrid:cod_centro": "28058950", "educamadrid:codigo_postal": "28008", "educamadrid:comedor": "yes", "educamadrid:distrito": "Moncloa-Aravaca", "educamadrid:fax": "NO HAY FAX", "educamadrid:horario_amp": "yes", "educamadrid:municipio": "Madrid", "educamadrid:nombre_via": "De Ferraz", "educamadrid:numero_portal": "60", "educamadrid:publico_bilingue": "no", "educamadrid:telefono": "915484132 , 915484132", "educamadrid:tipo": "Centro Privado de Educaci\u00f3n Infantil", "educamadrid:tipo_via": "Calle", "educamadrid:transporte": "no", "name": "Alicia", "source:url": "http://educa.madrid.org"}}, {"type": "node", "id": 266170355, "lat": 40.4222168, "lon": -3.7141346, "tags": {"amenity": "college", "educamadrid:bilingue": "no", "educamadrid:cod_centro": "28059206", "educamadrid:codigo_postal": "28008", "educamadrid:comedor": "no", "educamadrid:distrito": "Moncloa-Aravaca", "educamadrid:fax": "915592967", "educamadrid:horario_amp": "no", "educamadrid:municipio": "Madrid", "educamadrid:nombre_via": "de Espa\u00f1a", "educamadrid:numero_portal": "11", "educamadrid:publico_bilingue": "no", "educamadrid:telefono": "915410212 , 915410212", "educamadrid:tipo": "Centro Privado de Formaci\u00f3n Profesional Espec\u00edfica", "educamadrid:tipo_via": "Plaza", "educamadrid:transporte": "no", "name": "Centro de Estudios Tur\u00edsticos \u00c1baco", "source:url": "http://educa.madrid.org", "website": "https://abaco.com.es/"}}, {"type": "node", "id": 266170452, "lat": 40.4277342, "lon": -3.698531, "tags": {"amenity": "school", "educamadrid:bilingue": "no", "educamadrid:cod_centro": "28059322", "educamadrid:codigo_postal": "28004", "educamadrid:comedor": "no", "educamadrid:distrito": "Centro", "educamadrid:fax": "914478947", "educamadrid:horario_amp": "no", "educamadrid:municipio": "Madrid", "educamadrid:nombre_via": "de Serrano Anguita", "educamadrid:numero_portal": "14", "educamadrid:publico_bilingue": "no", "educamadrid:telefono": "913194393 , 913194393", "educamadrid:tipo": "Centro Privado de Formaci\u00f3n Profesional Espec\u00edfica", "educamadrid:tipo_via": "Calle", "educamadrid:transporte": "no", "name": "Centro de estudios Acua", "old_name": "Centro de Estudios Trabasse", "source:url": "http://educa.madrid.org", "website": "http://www.acuaformacion.es/"}}, {"type": "node", "id": 266170562, "lat": 40.408637, "lon": -3.6993859, "tags": {"addr:city": "Madrid", "addr:country": "ES", "addr:housenumber": "33", "addr:postcode": "28012", "addr:street": "Calle del Salitre", "amenity": "kindergarten", "educamadrid:bilingue": "no", "educamadrid:cod_centro": "28059668", "educamadrid:codigo_postal": "28012", "educamadrid:comedor": "no", "educamadrid:distrito": "Centro", "educamadrid:fax": "914685818", "educamadrid:horario_amp": "no", "educamadrid:municipio": "Madrid", "educamadrid:nombre_via": "De Salitre", "educamadrid:numero_portal": "33", "educamadrid:publico_bilingue": "no", "educamadrid:telefono": "914685818 , 914685818", "educamadrid:tipo": "Centro Privado de Educaci\u00f3n Infantil", "educamadrid:tipo_via": "Calle", "educamadrid:transporte": "no", "name": "El Camino", "source:url": "http://educa.madrid.org"}}, {"type": "node", "id": 266170644, "lat": 40.4267611, "lon": -3.7046693, "tags": {"amenity": "kindergarten", "educamadrid:bilingue": "no", "educamadrid:cod_centro": "28057696", "educamadrid:codigo_postal": "28004", "educamadrid:comedor": "yes", "educamadrid:distrito": "Centro", "educamadrid:fax": "915227256", "educamadrid:horario_amp": "yes", "educamadrid:municipio": "Madrid", "educamadrid:nombre_via": "del Dos de Mayo", "educamadrid:numero_portal": "2", "educamadrid:publico_bilingue": "no", "educamadrid:telefono": "915227256 , 915227256", "educamadrid:tipo": "Escuela de Educaci\u00f3n Infantil", "educamadrid:tipo_via": "Plaza", "educamadrid:transporte": "no", "educamadrid:url": "http://www.educa.madrid.org/eei.elduende.madrid", "name": "Escuela infantil municipal El Duende", "source:url": "http://educa.madrid.org"}}, {"type": "node", "id": 266170796, "lat": 40.4277773, "lon": -3.7009655, "tags": {"amenity": "school", "educamadrid:bilingue": "no", "educamadrid:cod_centro": "28061161", "educamadrid:codigo_postal": "28004", "educamadrid:comedor": "no", "educamadrid:distrito": "Centro", "educamadrid:fax": "915116705", "educamadrid:horario_amp": "no", "educamadrid:municipio": "Madrid", "educamadrid:nombre_via": "de Churruca", "educamadrid:numero_portal": "14", "educamadrid:publico_bilingue": "no", "educamadrid:telefono": "915329365 , 915329365", "educamadrid:tipo": "Centro Privado de Formaci\u00f3n Profesional Espec\u00edfica", "educamadrid:tipo_via": "Calle", "educamadrid:transporte": "no", "name": "V\u00edaFormaci\u00f3n", "source:url": "http://educa.madrid.org", "website": "http://viaformacion.es/es/"}}, {"type": "node", "id": 266170846, "lat": 40.4219683, "lon": -3.7091222, "tags": {"amenity": "college", "educamadrid:bilingue": "no", "educamadrid:cod_centro": "28062084", "educamadrid:codigo_postal": "28013", "educamadrid:comedor": "no", "educamadrid:distrito": "Centro", "educamadrid:horario_amp": "no", "educamadrid:municipio": "Madrid", "educamadrid:nombre_via": "Gran V\u00eda", "educamadrid:numero_portal": "59", "educamadrid:publico_bilingue": "no", "educamadrid:telefono": ",", "educamadrid:tipo": "Centro Privado de Formaci\u00f3n Profesional Espec\u00edfica", "educamadrid:tipo_via": "Calle", "educamadrid:transporte": "no", "name": "Instituto Vox (FP)", "source:url": "http://educa.madrid.org", "website": "https://www.institutovox.es/"}}, {"type": "node", "id": 266171119, "lat": 40.427113, "lon": -3.6974625, "tags": {"amenity": "school", "educamadrid:bilingue": "no", "educamadrid:cod_centro": "28061031", "educamadrid:codigo_postal": "28004", "educamadrid:comedor": "no", "educamadrid:distrito": "Centro", "educamadrid:horario_amp": "no", "educamadrid:municipio": "Madrid", "educamadrid:nombre_via": "De Los Hermanos \u00c1lvarez Quintero", "educamadrid:numero_portal": "2", "educamadrid:publico_bilingue": "no", "educamadrid:telefono": ",", "educamadrid:tipo": "Centro Privado De Educaci\u00f3n De Personas Adultas", "educamadrid:tipo_via": "Calle", "educamadrid:transporte": "no", "name": "Radio Ecca", "source:url": "http://educa.madrid.org"}}, {"type": "node", "id": 266171140, "lat": 40.4075478, "lon": -3.7102564, "tags": {"addr:city": "Madrid", "addr:housenumber": "9", "addr:postcode": "28005", "addr:street": "Calle Capit\u00e1n Salazar Mart\u00ednez", "amenity": "kindergarten", "educamadrid:bilingue": "no", "educamadrid:cod_centro": "28061110", "educamadrid:codigo_postal": "28005", "educamadrid:comedor": "no", "educamadrid:distrito": "Centro", "educamadrid:horario_amp": "no", "educamadrid:municipio": "Madrid", "educamadrid:nombre_via": "del Capit\u00e1n Salazar Mart\u00ednez", "educamadrid:numero_portal": "9", "educamadrid:publico_bilingue": "no", "educamadrid:telefono": "913657910 , 913657910", "educamadrid:tipo": "Centro Privado de Educaci\u00f3n Infantil", "educamadrid:tipo_via": "Calle", "educamadrid:transporte": "no", "name": "Cuatro Pecas El Carmen", "source:url": "http://educa.madrid.org", "website": "http://www.cuatropecas.com/escuela/cuatro-pecas-el-carmen/"}}, {"type": "node", "id": 266171641, "lat": 40.4162497, "lon": -3.6984191, "tags": {"amenity": "kindergarten", "educamadrid:bilingue": "no", "educamadrid:cod_centro": "28067291", "educamadrid:codigo_postal": "28014", "educamadrid:comedor": "no", "educamadrid:distrito": "Centro", "educamadrid:fax": "916595000", "educamadrid:horario_amp": "no", "educamadrid:municipio": "Madrid", "educamadrid:nombre_via": "de San Jer\u00f3nimo", "educamadrid:numero_portal": "36", "educamadrid:publico_bilingue": "no", "educamadrid:telefono": "913905491 , 913905491", "educamadrid:tipo": "Escuela de Educaci\u00f3n Infantil", "educamadrid:tipo_via": "Carrera", "educamadrid:transporte": "no", "name": "Guarder\u00eda Congreso de los Diputados", "source:url": "http://www.educa.madrid.org"}}, {"type": "node", "id": 266171836, "lat": 40.4279992, "lon": -3.6995777, "tags": {"amenity": "kindergarten", "educamadrid:bilingue": "no", "educamadrid:cod_centro": "28066247", "educamadrid:codigo_postal": "28004", "educamadrid:comedor": "no", "educamadrid:distrito": "Centro", "educamadrid:fax": "914472234", "educamadrid:horario_amp": "no", "educamadrid:municipio": "Madrid", "educamadrid:nombre_via": "de Mej\u00eda Lequerica", "educamadrid:numero_portal": "21", "educamadrid:publico_bilingue": "no", "educamadrid:telefono": "914472234 , 914472234", "educamadrid:tipo": "Escuela de Educaci\u00f3n Infantil", "educamadrid:tipo_via": "Calle", "educamadrid:transporte": "no", "educamadrid:url": "http://www.educa.madrid.org/eei.numerotres-centro.madrid", "name": "Escuela infantil municipal Osa Menor", "old_name": "Madrid-Centro N\u00ba 3", "source:url": "http://educa.madrid.org"}}, {"type": "node", "id": 266172089, "lat": 40.4280353, "lon": -3.7147403, "tags": {"amenity": "school", "educamadrid:bilingue": "no", "educamadrid:cod_centro": "28700143", "educamadrid:codigo_postal": "28008", "educamadrid:comedor": "no", "educamadrid:distrito": "Moncloa-Aravaca", "educamadrid:fax": "915598897", "educamadrid:horario_amp": "no", "educamadrid:municipio": "Madrid", "educamadrid:numero_portal": "31", "educamadrid:publico_bilingue": "no", "educamadrid:telefono": "915474134 , 915474134", "educamadrid:tipo": "Centro De Apoyo Al Profesorado", "educamadrid:tipo_via": "Calle", "educamadrid:transporte": "no", "educamadrid:url": "http://www.educa.madrid.org/cap.madridcentro", "name": "C.A.P. De Madrid-Centro", "source:url": "http://educa.madrid.org"}}, {"type": "node", "id": 266172275, "lat": 40.4286944, "lon": -3.701625, "tags": {"amenity": "school", "educamadrid:bilingue": "no", "educamadrid:cod_centro": "28068578", "educamadrid:comedor": "no", "educamadrid:distrito": "Centro", "educamadrid:horario_amp": "no", "educamadrid:municipio": "Madrid", "educamadrid:nombre_via": "de Sagasta", "educamadrid:numero_portal": "4", "educamadrid:publico_bilingue": "no", "educamadrid:telefono": ",", "educamadrid:tipo": "Centro Privado de Educaci\u00f3n de Personas Adultas", "educamadrid:tipo_via": "Calle", "educamadrid:transporte": "no", "name": "Master-D", "source:url": "http://educa.madrid.org", "website": "https://www.masterd.es/"}}, {"type": "node", "id": 319477734, "lat": 40.4118103, "lon": -3.7135381}, {"type": "node", "id": 319477735, "lat": 40.4121854, "lon": -3.7130377}, {"type": "node", "id": 319477737, "lat": 40.4117154, "lon": -3.7131049}, {"type": "node", "id": 319478526, "lat": 40.4110692, "lon": -3.712029}, {"type": "node", "id": 319478527, "lat": 40.4112815, "lon": -3.7113275}, {"type": "node", "id": 319478528, "lat": 40.4105607, "lon": -3.7116036}, {"type": "node", "id": 319482824, "lat": 40.4082615, "lon": -3.7118346}, {"type": "node", "id": 319482825, "lat": 40.4081018, "lon": -3.7110736}, {"type": "node", "id": 319482826, "lat": 40.4079407, "lon": -3.7111825}, {"type": "node", "id": 319482827, "lat": 40.4080388, "lon": -3.7118899}, {"type": "node", "id": 319488341, "lat": 40.4055568, "lon": -3.7050291}, {"type": "node", "id": 319488343, "lat": 40.4063182, "lon": -3.7033861}, {"type": "node", "id": 319488345, "lat": 40.4055317, "lon": -3.7029362}, {"type": "node", "id": 319488347, "lat": 40.4052345, "lon": -3.7032718}, {"type": "node", "id": 319488404, "lat": 40.4061163, "lon": -3.7069131}, {"type": "node", "id": 319488406, "lat": 40.4063428, "lon": -3.7063219}, {"type": "node", "id": 319488407, "lat": 40.4059985, "lon": -3.706179}, {"type": "node", "id": 319488408, "lat": 40.4057697, "lon": -3.706184}, {"type": "node", "id": 319488409, "lat": 40.4058982, "lon": -3.7068987}, {"type": "node", "id": 319489743, "lat": 40.4059052, "lon": -3.7049292}, {"type": "node", "id": 390582269, "lat": 40.4220517, "lon": -3.6906886, "tags": {"amenity": "college", "contact:website": "http://www.isdemasters.com/", "name": "Instituto Superior de Derecho y Econom\u00eda"}}, {"type": "node", "id": 618805771, "lat": 40.4067842, "lon": -3.7057689}, {"type": "node", "id": 618805774, "lat": 40.4068875, "lon": -3.7058137}, {"type": "node", "id": 618805777, "lat": 40.4066713, "lon": -3.705493}, {"type": "node", "id": 618805779, "lat": 40.4068945, "lon": -3.7055056}, {"type": "node", "id": 618805781, "lat": 40.4065382, "lon": -3.7059988}, {"type": "node", "id": 618805784, "lat": 40.4065225, "lon": -3.7059585}, {"type": "node", "id": 618805787, "lat": 40.4068148, "lon": -3.7060034}, {"type": "node", "id": 618805788, "lat": 40.4056472, "lon": -3.7039112}, {"type": "node", "id": 618805791, "lat": 40.4056224, "lon": -3.7041052}, {"type": "node", "id": 618805793, "lat": 40.4056313, "lon": -3.7041054}, {"type": "node", "id": 618805796, "lat": 40.4056181, "lon": -3.7040888}, {"type": "node", "id": 618805799, "lat": 40.405618, "lon": -3.7041025}, {"type": "node", "id": 618805801, "lat": 40.4056197, "lon": -3.7040072}, {"type": "node", "id": 618805803, "lat": 40.4056044, "lon": -3.704055}, {"type": "node", "id": 618805806, "lat": 40.4056043, "lon": -3.7040433}, {"type": "node", "id": 618805809, "lat": 40.4056075, "lon": -3.7040431}, {"type": "node", "id": 618805811, "lat": 40.4056078, "lon": -3.704055}, {"type": "node", "id": 618805813, "lat": 40.4056366, "lon": -3.7039229}, {"type": "node", "id": 618805816, "lat": 40.4056406, "lon": -3.7039112}, {"type": "node", "id": 618805819, "lat": 40.4056456, "lon": -3.7039254}, {"type": "node", "id": 618805822, "lat": 40.4056227, "lon": -3.703997}, {"type": "node", "id": 618805842, "lat": 40.4056566, "lon": -3.7041194}, {"type": "node", "id": 618805843, "lat": 40.4056563, "lon": -3.704125}, {"type": "node", "id": 618805846, "lat": 40.4056652, "lon": -3.7041254}, {"type": "node", "id": 618805849, "lat": 40.4056651, "lon": -3.7041204}, {"type": "node", "id": 618805851, "lat": 40.4057059, "lon": -3.7040998}, {"type": "node", "id": 618805853, "lat": 40.4057034, "lon": -3.7040932}, {"type": "node", "id": 618805855, "lat": 40.4056943, "lon": -3.7041061}, {"type": "node", "id": 618805857, "lat": 40.405704, "lon": -3.7041059}, {"type": "node", "id": 618805859, "lat": 40.4057187, "lon": -3.7040463}, {"type": "node", "id": 618805861, "lat": 40.4057185, "lon": -3.7040554}, {"type": "node", "id": 618805862, "lat": 40.4057495, "lon": -3.7039875}, {"type": "node", "id": 618805864, "lat": 40.4057419, "lon": -3.7039819}, {"type": "node", "id": 618805866, "lat": 40.4057501, "lon": -3.7039706}, {"type": "node", "id": 618805867, "lat": 40.405755, "lon": -3.703974}, {"type": "node", "id": 618805869, "lat": 40.4056604, "lon": -3.7038329}, {"type": "node", "id": 618805871, "lat": 40.4056607, "lon": -3.7038383}, {"type": "node", "id": 618805872, "lat": 40.4056689, "lon": -3.7038431}, {"type": "node", "id": 618805873, "lat": 40.4056673, "lon": -3.70385}, {"type": "node", "id": 618805875, "lat": 40.4056625, "lon": -3.7038464}, {"type": "node", "id": 618805877, "lat": 40.4056632, "lon": -3.7038639}, {"type": "node", "id": 618805878, "lat": 40.405658, "lon": -3.7038612}, {"type": "node", "id": 618805880, "lat": 40.4057723, "lon": -3.703925}, {"type": "node", "id": 618805882, "lat": 40.4057658, "lon": -3.7039241}, {"type": "node", "id": 618805884, "lat": 40.4057739, "lon": -3.7039119}, {"type": "node", "id": 618805887, "lat": 40.4057826, "lon": -3.7039025}, {"type": "node", "id": 618805889, "lat": 40.4057814, "lon": -3.7039086}, {"type": "node", "id": 618805891, "lat": 40.4057719, "lon": -3.7039029}, {"type": "node", "id": 618805894, "lat": 40.4057716, "lon": -3.7039092}, {"type": "node", "id": 618805897, "lat": 40.4059386, "lon": -3.7039937}, {"type": "node", "id": 618805899, "lat": 40.4060955, "lon": -3.7043463}, {"type": "node", "id": 618805901, "lat": 40.4059995, "lon": -3.7042901}, {"type": "node", "id": 618805903, "lat": 40.4055877, "lon": -3.7034873}, {"type": "node", "id": 618805906, "lat": 40.4055935, "lon": -3.7034871}, {"type": "node", "id": 618805909, "lat": 40.4055087, "lon": -3.7037415}, {"type": "node", "id": 618805911, "lat": 40.4055881, "lon": -3.7034761}, {"type": "node", "id": 618805914, "lat": 40.4055529, "lon": -3.7034551}, {"type": "node", "id": 618805917, "lat": 40.4055485, "lon": -3.7034628}, {"type": "node", "id": 618805918, "lat": 40.4055386, "lon": -3.703451}, {"type": "node", "id": 618805922, "lat": 40.4055443, "lon": -3.7034419}, {"type": "node", "id": 618805924, "lat": 40.4056053, "lon": -3.7032867}, {"type": "node", "id": 618805926, "lat": 40.4056427, "lon": -3.7033179}, {"type": "node", "id": 618805929, "lat": 40.4056051, "lon": -3.7032967}, {"type": "node", "id": 618805930, "lat": 40.4056448, "lon": -3.7033089}, {"type": "node", "id": 618805933, "lat": 40.4056518, "lon": -3.703309}, {"type": "node", "id": 618805936, "lat": 40.4055564, "lon": -3.7033151}, {"type": "node", "id": 618805937, "lat": 40.4055405, "lon": -3.703321}, {"type": "node", "id": 618805940, "lat": 40.4055924, "lon": -3.7032867}, {"type": "node", "id": 618805943, "lat": 40.4055924, "lon": -3.7032962}, {"type": "node", "id": 618805946, "lat": 40.4055504, "lon": -3.7033087}, {"type": "node", "id": 618805949, "lat": 40.4055283, "lon": -3.7033914}, {"type": "node", "id": 618805950, "lat": 40.4055209, "lon": -3.7033739}, {"type": "node", "id": 618805953, "lat": 40.4055213, "lon": -3.7033918}, {"type": "node", "id": 618805956, "lat": 40.4055301, "lon": -3.7033741}, {"type": "node", "id": 618805958, "lat": 40.405546, "lon": -3.703327}, {"type": "node", "id": 618805965, "lat": 40.4060702, "lon": -3.7037541}, {"type": "node", "id": 618805967, "lat": 40.4060324, "lon": -3.7037334}, {"type": "node", "id": 618805969, "lat": 40.4060312, "lon": -3.7037398}, {"type": "node", "id": 618805971, "lat": 40.4060246, "lon": -3.7037409}, {"type": "node", "id": 618805974, "lat": 40.4060828, "lon": -3.7037526}, {"type": "node", "id": 618805975, "lat": 40.4060823, "lon": -3.7037647}, {"type": "node", "id": 618805977, "lat": 40.4060705, "lon": -3.7037643}, {"type": "node", "id": 618805979, "lat": 40.4061219, "lon": -3.7037368}, {"type": "node", "id": 618805980, "lat": 40.4061557, "lon": -3.7036543}, {"type": "node", "id": 618805982, "lat": 40.4061548, "lon": -3.703675}, {"type": "node", "id": 618805983, "lat": 40.4061485, "lon": -3.703672}, {"type": "node", "id": 618805985, "lat": 40.4061313, "lon": -3.7037255}, {"type": "node", "id": 618805986, "lat": 40.4061221, "lon": -3.7035952}, {"type": "node", "id": 618805988, "lat": 40.4061345, "lon": -3.70373}, {"type": "node", "id": 618805989, "lat": 40.4061373, "lon": -3.7035989}, {"type": "node", "id": 618805991, "lat": 40.4061345, "lon": -3.7036053}, {"type": "node", "id": 618805992, "lat": 40.4061482, "lon": -3.7036547}, {"type": "node", "id": 618805994, "lat": 40.406127, "lon": -3.7037406}, {"type": "node", "id": 618805995, "lat": 40.4060877, "lon": -3.7035729}, {"type": "node", "id": 618805997, "lat": 40.4061282, "lon": -3.7035876}, {"type": "node", "id": 618805998, "lat": 40.4060849, "lon": -3.7035613}, {"type": "node", "id": 618806007, "lat": 40.4060892, "lon": -3.7035643}, {"type": "node", "id": 618806009, "lat": 40.4061717, "lon": -3.7033023}, {"type": "node", "id": 618806010, "lat": 40.4057378, "lon": -3.7030542}, {"type": "node", "id": 618806030, "lat": 40.4045018, "lon": -3.7001396}, {"type": "node", "id": 618806031, "lat": 40.4049598, "lon": -3.6998064}, {"type": "node", "id": 618806033, "lat": 40.4045148, "lon": -3.700183}, {"type": "node", "id": 618806035, "lat": 40.4046282, "lon": -3.6997212}, {"type": "node", "id": 618806040, "lat": 40.4053876, "lon": -3.7007532}, {"type": "node", "id": 618806042, "lat": 40.4053536, "lon": -3.7007717}, {"type": "node", "id": 618806043, "lat": 40.4049721, "lon": -3.6997328}, {"type": "node", "id": 618806045, "lat": 40.4052688, "lon": -3.6998156}, {"type": "node", "id": 618806052, "lat": 40.4056879, "lon": -3.6996649}, {"type": "node", "id": 618806054, "lat": 40.4053699, "lon": -3.6994737}, {"type": "node", "id": 618806056, "lat": 40.4055826, "lon": -3.6995761}, {"type": "node", "id": 618806058, "lat": 40.4055725, "lon": -3.6996088}, {"type": "node", "id": 618806070, "lat": 40.4080036, "lon": -3.7036123}, {"type": "node", "id": 622103400, "lat": 40.4071828, "lon": -3.7112026}, {"type": "node", "id": 622103403, "lat": 40.407346, "lon": -3.7111471}, {"type": "node", "id": 622103404, "lat": 40.4073546, "lon": -3.7108663}, {"type": "node", "id": 622103405, "lat": 40.4070625, "lon": -3.7109266}, {"type": "node", "id": 622103406, "lat": 40.407078, "lon": -3.7109276}, {"type": "node", "id": 622103408, "lat": 40.4073216, "lon": -3.7108365}, {"type": "node", "id": 622103410, "lat": 40.4072903, "lon": -3.7108236}, {"type": "node", "id": 622103411, "lat": 40.4072028, "lon": -3.7111823}, {"type": "node", "id": 622103413, "lat": 40.407062, "lon": -3.7109614}, {"type": "node", "id": 622103414, "lat": 40.407158, "lon": -3.7110974}, {"type": "node", "id": 622103416, "lat": 40.4070797, "lon": -3.7108151}, {"type": "node", "id": 622103418, "lat": 40.4071202, "lon": -3.7110321}, {"type": "node", "id": 622103419, "lat": 40.407353, "lon": -3.7111797}, {"type": "node", "id": 622103421, "lat": 40.4073966, "lon": -3.7109511}, {"type": "node", "id": 622103422, "lat": 40.4073796, "lon": -3.710903}, {"type": "node", "id": 622103424, "lat": 40.4073749, "lon": -3.7111066}, {"type": "node", "id": 622103431, "lat": 40.4073928, "lon": -3.7110661}, {"type": "node", "id": 622103433, "lat": 40.4074009, "lon": -3.7110073}, {"type": "node", "id": 622103501, "lat": 40.4081899, "lon": -3.7114553}, {"type": "node", "id": 632467171, "lat": 40.4046677, "lon": -3.7043642}, {"type": "node", "id": 632467172, "lat": 40.4046906, "lon": -3.7043996}, {"type": "node", "id": 632467173, "lat": 40.4049022, "lon": -3.7035368}, {"type": "node", "id": 632467176, "lat": 40.4051172, "lon": -3.7042648}, {"type": "node", "id": 632467177, "lat": 40.4051349, "lon": -3.7042272}, {"type": "node", "id": 632467178, "lat": 40.4050099, "lon": -3.7035806}, {"type": "node", "id": 946113402, "lat": 40.4061962, "lon": -3.7066701}, {"type": "node", "id": 946113456, "lat": 40.4056615, "lon": -3.7036204}, {"type": "node", "id": 946113640, "lat": 40.4059043, "lon": -3.7037613}, {"type": "node", "id": 946113796, "lat": 40.4057683, "lon": -3.703304}, {"type": "node", "id": 946113821, "lat": 40.4062292, "lon": -3.7066758}, {"type": "node", "id": 946113826, "lat": 40.4053449, "lon": -3.7031726}, {"type": "node", "id": 946113861, "lat": 40.4060116, "lon": -3.7034444}, {"type": "node", "id": 946113929, "lat": 40.4062097, "lon": -3.7066739}, {"type": "node", "id": 946114093, "lat": 40.4061737, "lon": -3.7066641}, {"type": "node", "id": 1007414259, "lat": 40.412751, "lon": -3.7067671}, {"type": "node", "id": 1007414282, "lat": 40.4128311, "lon": -3.7074074}, {"type": "node", "id": 1086766738, "lat": 40.411229, "lon": -3.7146443}, {"type": "node", "id": 1086766894, "lat": 40.4110863, "lon": -3.7141864}, {"type": "node", "id": 1086767458, "lat": 40.4109707, "lon": -3.7144431}, {"type": "node", "id": 1086767620, "lat": 40.4113311, "lon": -3.7143491}, {"type": "node", "id": 1152646823, "lat": 40.4061189, "lon": -3.6976523}, {"type": "node", "id": 1215457463, "lat": 40.4112479, "lon": -3.7144117}, {"type": "node", "id": 1215457476, "lat": 40.4110481, "lon": -3.714414}, {"type": "node", "id": 1215457496, "lat": 40.4111086, "lon": -3.7143195}, {"type": "node", "id": 1215457525, "lat": 40.4112051, "lon": -3.7145346}, {"type": "node", "id": 1215457556, "lat": 40.4110829, "lon": -3.7143457}, {"type": "node", "id": 1215457581, "lat": 40.4110696, "lon": -3.7143435}, {"type": "node", "id": 1235011879, "lat": 40.4141338, "lon": -3.7099173}, {"type": "node", "id": 1316546301, "lat": 40.4276143, "lon": -3.6934449}, {"type": "node", "id": 1316546445, "lat": 40.4274325, "lon": -3.693436}, {"type": "node", "id": 1316546515, "lat": 40.4276243, "lon": -3.6936843}, {"type": "node", "id": 1316546953, "lat": 40.4274429, "lon": -3.6936612}, {"type": "node", "id": 1591329842, "lat": 40.4267412, "lon": -3.699516}, {"type": "node", "id": 1634750489, "lat": 40.4127, "lon": -3.712307}, {"type": "node", "id": 1634750491, "lat": 40.4130381, "lon": -3.7127341}, {"type": "node", "id": 1634750492, "lat": 40.4129169, "lon": -3.7119809}, {"type": "node", "id": 1634750494, "lat": 40.413291, "lon": -3.7123101}, {"type": "node", "id": 1675773635, "lat": 40.4108793, "lon": -3.711925}, {"type": "node", "id": 1675773638, "lat": 40.410652, "lon": -3.7117218}, {"type": "node", "id": 1753220811, "lat": 40.40649, "lon": -3.702257}, {"type": "node", "id": 1753220812, "lat": 40.406972, "lon": -3.7026317}, {"type": "node", "id": 1855023733, "lat": 40.4222463, "lon": -3.7033743}, {"type": "node", "id": 1855023739, "lat": 40.4227871, "lon": -3.7032336}, {"type": "node", "id": 1855023741, "lat": 40.4228183, "lon": -3.7032921}, {"type": "node", "id": 2277540474, "lat": 40.4246367, "lon": -3.7146442}, {"type": "node", "id": 2277540477, "lat": 40.4247288, "lon": -3.7144797}, {"type": "node", "id": 2277540480, "lat": 40.4248844, "lon": -3.7143889}, {"type": "node", "id": 2277540482, "lat": 40.4249507, "lon": -3.7145054}, {"type": "node", "id": 2277540485, "lat": 40.4249694, "lon": -3.7144698}, {"type": "node", "id": 2277540488, "lat": 40.4252402, "lon": -3.7152069}, {"type": "node", "id": 2277540491, "lat": 40.4254005, "lon": -3.7149096}, {"type": "node", "id": 2297581635, "lat": 40.4052197, "lon": -3.6970797}, {"type": "node", "id": 2297581637, "lat": 40.4052843, "lon": -3.6965579}, {"type": "node", "id": 2297581640, "lat": 40.4053427, "lon": -3.6962022, "tags": {"entrance": "yes"}}, {"type": "node", "id": 2297581643, "lat": 40.4053739, "lon": -3.696008}, {"type": "node", "id": 2297581644, "lat": 40.4053754, "lon": -3.6971804}, {"type": "node", "id": 2297581657, "lat": 40.4055869, "lon": -3.6956941}, {"type": "node", "id": 2297581678, "lat": 40.4061813, "lon": -3.6959764}, {"type": "node", "id": 2297581679, "lat": 40.4062331, "lon": -3.6976866, "tags": {"addr:city": "Madrid", "addr:country": "ES", "addr:housenumber": "27", "addr:postcode": "28012", "addr:street": "Ronda de Atocha", "entrance": "main"}}, {"type": "node", "id": 2297581684, "lat": 40.4063756, "lon": -3.6963227}, {"type": "node", "id": 2297581685, "lat": 40.4064059, "lon": -3.6970631}, {"type": "node", "id": 2297581686, "lat": 40.4064378, "lon": -3.6960987}, {"type": "node", "id": 2457654400, "lat": 40.4097186, "lon": -3.6967076, "tags": {"addr:city": "Madrid", "addr:country": "ES", "addr:housenumber": "46", "addr:postcode": "28012", "addr:street": "Calle de Santa Isabel", "entrance": "main"}}, {"type": "node", "id": 2502444830, "lat": 40.4080024, "lon": -3.6968026}, {"type": "node", "id": 2502444831, "lat": 40.4080271, "lon": -3.6970903}, {"type": "node", "id": 2502444832, "lat": 40.4080463, "lon": -3.6970802}, {"type": "node", "id": 2502444833, "lat": 40.4085429, "lon": -3.6961055}, {"type": "node", "id": 2502444834, "lat": 40.4085869, "lon": -3.6960707}, {"type": "node", "id": 2502444835, "lat": 40.408631, "lon": -3.6962821}, {"type": "node", "id": 2502444836, "lat": 40.4086597, "lon": -3.6963451}, {"type": "node", "id": 2502444837, "lat": 40.4086674, "lon": -3.6963023}, {"type": "node", "id": 2502444838, "lat": 40.4086719, "lon": -3.6983934}, {"type": "node", "id": 2502444839, "lat": 40.4086923, "lon": -3.6962897}, {"type": "node", "id": 2502444840, "lat": 40.4087441, "lon": -3.6965112}, {"type": "node", "id": 2502444841, "lat": 40.4088658, "lon": -3.6964068}, {"type": "node", "id": 2502444842, "lat": 40.4090288, "lon": -3.6967428}, {"type": "node", "id": 2502444843, "lat": 40.409197, "lon": -3.6965838}, {"type": "node", "id": 2502444844, "lat": 40.4092033, "lon": -3.696597}, {"type": "node", "id": 2502444845, "lat": 40.4093273, "lon": -3.6964856}, {"type": "node", "id": 2502444846, "lat": 40.4093275, "lon": -3.6972541}, {"type": "node", "id": 2502444847, "lat": 40.4094347, "lon": -3.6964012}, {"type": "node", "id": 2502444849, "lat": 40.4094605, "lon": -3.6964566}, {"type": "node", "id": 2502444851, "lat": 40.4094721, "lon": -3.6974556}, {"type": "node", "id": 2502444855, "lat": 40.4095516, "lon": -3.6963761}, {"type": "node", "id": 2502444857, "lat": 40.409744, "lon": -3.6967601}, {"type": "node", "id": 2502488567, "lat": 40.408681, "lon": -3.6962954}, {"type": "node", "id": 2502488593, "lat": 40.4092736, "lon": -3.6976783}, {"type": "node", "id": 2502488608, "lat": 40.4093877, "lon": -3.69718}, {"type": "node", "id": 2502488614, "lat": 40.4095769, "lon": -3.6969521}, {"type": "node", "id": 2502522047, "lat": 40.4086991, "lon": -3.6964226}, {"type": "node", "id": 2502522060, "lat": 40.4090023, "lon": -3.6980057}, {"type": "node", "id": 2502522090, "lat": 40.4091198, "lon": -3.6978658}, {"type": "node", "id": 2502522091, "lat": 40.4091387, "lon": -3.6978444}, {"type": "node", "id": 2502522094, "lat": 40.4091817, "lon": -3.6977958}, {"type": "node", "id": 2525444125, "lat": 40.4072739, "lon": -3.7108203}, {"type": "node", "id": 2525444129, "lat": 40.407306, "lon": -3.7108285}, {"type": "node", "id": 2525444131, "lat": 40.4073389, "lon": -3.7108489}, {"type": "node", "id": 2525444133, "lat": 40.4073678, "lon": -3.7108827}, {"type": "node", "id": 2525444135, "lat": 40.4073889, "lon": -3.7109256}, {"type": "node", "id": 2525444139, "lat": 40.4073982, "lon": -3.7110372}, {"type": "node", "id": 2525444141, "lat": 40.4074005, "lon": -3.710979}, {"type": "node", "id": 2525444192, "lat": 40.407976, "lon": -3.7113318}, {"type": "node", "id": 2525444194, "lat": 40.4079847, "lon": -3.7113702}, {"type": "node", "id": 2525444197, "lat": 40.4079988, "lon": -3.7114292}, {"type": "node", "id": 2525444198, "lat": 40.4080044, "lon": -3.7117275}, {"type": "node", "id": 2525444201, "lat": 40.4080559, "lon": -3.7117102}, {"type": "node", "id": 2583991934, "lat": 40.4216656, "lon": -3.7072674, "tags": {"addr:city": "Madrid", "addr:housenumber": "8", "addr:postcode": "28004", "addr:street": "Calle de la Flor Alta", "amenity": "college", "name": "IED Madrid", "website": "https://iedmadrid.com/"}}, {"type": "node", "id": 2595989251, "lat": 40.411065, "lon": -3.7141968, "tags": {"addr:city": "Madrid", "addr:country": "ES", "addr:housenumber": "5", "addr:postcode": "28005", "addr:street": "Plaza de San Francisco"}}, {"type": "node", "id": 2595989252, "lat": 40.4110426, "lon": -3.7142077}, {"type": "node", "id": 2595989253, "lat": 40.4111017, "lon": -3.7143408}, {"type": "node", "id": 2597522141, "lat": 40.4118726, "lon": -3.7140005}, {"type": "node", "id": 2597522142, "lat": 40.4118804, "lon": -3.7139902}, {"type": "node", "id": 2597522144, "lat": 40.411897, "lon": -3.7141813}, {"type": "node", "id": 2597522145, "lat": 40.4119371, "lon": -3.7144616}, {"type": "node", "id": 2597522147, "lat": 40.4119945, "lon": -3.7144376}, {"type": "node", "id": 2597522160, "lat": 40.4120308, "lon": -3.7144225}, {"type": "node", "id": 2597522166, "lat": 40.4120596, "lon": -3.7144104}, {"type": "node", "id": 2597522173, "lat": 40.4120895, "lon": -3.714398}, {"type": "node", "id": 2597522183, "lat": 40.4121294, "lon": -3.7143813}, {"type": "node", "id": 2597522188, "lat": 40.4121568, "lon": -3.7143699}, {"type": "node", "id": 2597522194, "lat": 40.4121856, "lon": -3.7143578}, {"type": "node", "id": 2597522201, "lat": 40.4122017, "lon": -3.7143511}, {"type": "node", "id": 2597522206, "lat": 40.4122181, "lon": -3.7143443}, {"type": "node", "id": 2597522213, "lat": 40.4122412, "lon": -3.7143346}, {"type": "node", "id": 2597522218, "lat": 40.4122484, "lon": -3.7143316}, {"type": "node", "id": 2597522222, "lat": 40.4122569, "lon": -3.7143281}, {"type": "node", "id": 2597522228, "lat": 40.4122851, "lon": -3.7143163}, {"type": "node", "id": 2597522232, "lat": 40.4122946, "lon": -3.7143123}, {"type": "node", "id": 2597522235, "lat": 40.4123022, "lon": -3.7139428}, {"type": "node", "id": 2597522239, "lat": 40.4123148, "lon": -3.7139435}, {"type": "node", "id": 2597522240, "lat": 40.4123147, "lon": -3.7143039}, {"type": "node", "id": 2597522244, "lat": 40.412324, "lon": -3.7139547}, {"type": "node", "id": 2597522248, "lat": 40.4123302, "lon": -3.7142975}, {"type": "node", "id": 2597522256, "lat": 40.4123749, "lon": -3.7142788}, {"type": "node", "id": 2597522265, "lat": 40.4124122, "lon": -3.7142632}, {"type": "node", "id": 2597522271, "lat": 40.4124386, "lon": -3.7142522}, {"type": "node", "id": 2597522279, "lat": 40.412473, "lon": -3.7142018}, {"type": "node", "id": 2597522283, "lat": 40.4124906, "lon": -3.7142305}, {"type": "node", "id": 2611796091, "lat": 40.41179, "lon": -3.7130755}, {"type": "node", "id": 2611796093, "lat": 40.4119183, "lon": -3.7133941}, {"type": "node", "id": 2611796094, "lat": 40.4119298, "lon": -3.7128258}, {"type": "node", "id": 2676855006, "lat": 40.4228962, "lon": -3.7070523, "tags": {"addr:city": "Madrid", "addr:housenumber": "19", "addr:postcode": "28004", "addr:street": "Calle de la Luna", "amenity": "college", "name": "IDEM", "phone": "+34 91 521 12 68", "website": "http://www.institutoidem.es/"}}, {"type": "node", "id": 2699804643, "lat": 40.4224116, "lon": -3.7061127, "tags": {"addr:city": "Madrid", "addr:housenumber": "20", "addr:postcode": "28004", "addr:street": "Calle de la Luna", "amenity": "college", "name": "Laocoonte", "phone": "+34 911 403 568", "website": "http://www.laocoonte.org/"}}, {"type": "node", "id": 2824456972, "lat": 40.4202423, "lon": -3.7086547, "tags": {"addr:city": "Madrid", "addr:housenumber": "13", "addr:postcode": "28013", "addr:street": "Cuesta de Santo Domingo", "amenity": "college", "email": "informacion2@alliancefrancaisemadrid.net", "name": "Alliance Fran\u00e7aise", "phone": "+34 91 435 15 32", "website": "http://madrid.alliance-francaise.es/"}}, {"type": "node", "id": 2862547652, "lat": 40.4265076, "lon": -3.7054427}, {"type": "node", "id": 2862547665, "lat": 40.4265911, "lon": -3.7046186}, {"type": "node", "id": 2862547667, "lat": 40.4265934, "lon": -3.7046384}, {"type": "node", "id": 2862547669, "lat": 40.4265856, "lon": -3.7062233}, {"type": "node", "id": 2862547672, "lat": 40.4265788, "lon": -3.7044527}, {"type": "node", "id": 2862547673, "lat": 40.4266149, "lon": -3.7048456}, {"type": "node", "id": 2862547678, "lat": 40.4266236, "lon": -3.7049224}, {"type": "node", "id": 2862547679, "lat": 40.4266243, "lon": -3.7049792}, {"type": "node", "id": 2862547684, "lat": 40.4265976, "lon": -3.704617}, {"type": "node", "id": 2862547686, "lat": 40.4266349, "lon": -3.7050978}, {"type": "node", "id": 2862547687, "lat": 40.4266328, "lon": -3.7050755}, {"type": "node", "id": 2862547688, "lat": 40.4266395, "lon": -3.7051426}, {"type": "node", "id": 2862547689, "lat": 40.426646, "lon": -3.705218}, {"type": "node", "id": 2862547690, "lat": 40.426624, "lon": -3.7054256}, {"type": "node", "id": 2862547691, "lat": 40.4266514, "lon": -3.7052696}, {"type": "node", "id": 2862547693, "lat": 40.4266535, "lon": -3.7049178}, {"type": "node", "id": 2862547694, "lat": 40.4266592, "lon": -3.7049738}, {"type": "node", "id": 2862547696, "lat": 40.4266663, "lon": -3.7054196}, {"type": "node", "id": 2862547698, "lat": 40.4266901, "lon": -3.7044319}, {"type": "node", "id": 2862547700, "lat": 40.4267238, "lon": -3.704962}, {"type": "node", "id": 2862554101, "lat": 40.426741, "lon": -3.7058341}, {"type": "node", "id": 2862554102, "lat": 40.4267658, "lon": -3.7060975}, {"type": "node", "id": 2862554103, "lat": 40.426791, "lon": -3.7056674}, {"type": "node", "id": 2862554105, "lat": 40.4268047, "lon": -3.7058183}, {"type": "node", "id": 2862554107, "lat": 40.4268321, "lon": -3.7060894}, {"type": "node", "id": 2862554109, "lat": 40.426835, "lon": -3.7049447}, {"type": "node", "id": 2862554110, "lat": 40.4268437, "lon": -3.7062168}, {"type": "node", "id": 2862554111, "lat": 40.4268323, "lon": -3.7058099}, {"type": "node", "id": 2862554112, "lat": 40.4268733, "lon": -3.7064908}, {"type": "node", "id": 2862554114, "lat": 40.4268597, "lon": -3.7060614}, {"type": "node", "id": 2862554117, "lat": 40.4268623, "lon": -3.7061248}, {"type": "node", "id": 2862554118, "lat": 40.426878, "lon": -3.7062996}, {"type": "node", "id": 2862554119, "lat": 40.426937, "lon": -3.7045291}, {"type": "node", "id": 2862554121, "lat": 40.4269554, "lon": -3.7056365}, {"type": "node", "id": 2862554122, "lat": 40.4269375, "lon": -3.7058009}, {"type": "node", "id": 2862554123, "lat": 40.4269477, "lon": -3.7060429}, {"type": "node", "id": 2862554124, "lat": 40.4269501, "lon": -3.7061148}, {"type": "node", "id": 2862554125, "lat": 40.4269773, "lon": -3.7049172}, {"type": "node", "id": 2862554126, "lat": 40.4269844, "lon": -3.7062384}, {"type": "node", "id": 2862554127, "lat": 40.427049, "lon": -3.70562}, {"type": "node", "id": 2862554129, "lat": 40.427125, "lon": -3.7063506}, {"type": "node", "id": 2873138238, "lat": 40.4243747, "lon": -3.7089872}, {"type": "node", "id": 2873138240, "lat": 40.4243965, "lon": -3.7081653}, {"type": "node", "id": 2873138243, "lat": 40.4244644, "lon": -3.7090804}, {"type": "node", "id": 2873138246, "lat": 40.4245292, "lon": -3.7090876}, {"type": "node", "id": 2873138247, "lat": 40.424552, "lon": -3.7083293}, {"type": "node", "id": 2873138250, "lat": 40.4246066, "lon": -3.7083349}, {"type": "node", "id": 2873138251, "lat": 40.4246119, "lon": -3.70817}, {"type": "node", "id": 2873138296, "lat": 40.4253549, "lon": -3.7080917}, {"type": "node", "id": 2873138297, "lat": 40.4253549, "lon": -3.7080817}, {"type": "node", "id": 2873138298, "lat": 40.4253466, "lon": -3.7077355}, {"type": "node", "id": 2873141507, "lat": 40.4254508, "lon": -3.7078162}, {"type": "node", "id": 2873141508, "lat": 40.4254536, "lon": -3.7078563}, {"type": "node", "id": 2873141509, "lat": 40.4253452, "lon": -3.7078317}, {"type": "node", "id": 2873141510, "lat": 40.4253931, "lon": -3.7078247}, {"type": "node", "id": 2873141511, "lat": 40.4253427, "lon": -3.707971}, {"type": "node", "id": 2873141512, "lat": 40.4253398, "lon": -3.7080826}, {"type": "node", "id": 2873141514, "lat": 40.4254343, "lon": -3.7079124}, {"type": "node", "id": 2873141515, "lat": 40.4254374, "lon": -3.7079167}, {"type": "node", "id": 2873141519, "lat": 40.4254357, "lon": -3.7078579}, {"type": "node", "id": 2873141520, "lat": 40.4254315, "lon": -3.7078621}, {"type": "node", "id": 2873141521, "lat": 40.425458, "lon": -3.7079159}, {"type": "node", "id": 2873141522, "lat": 40.4254605, "lon": -3.7079552}, {"type": "node", "id": 2873141527, "lat": 40.4254686, "lon": -3.7077171}, {"type": "node", "id": 2873141528, "lat": 40.425492, "lon": -3.708074}, {"type": "node", "id": 2873141544, "lat": 40.4255677, "lon": -3.7077171}, {"type": "node", "id": 2873141547, "lat": 40.425596, "lon": -3.70806}, {"type": "node", "id": 2904920345, "lat": 40.4104042, "lon": -3.6932781}, {"type": "node", "id": 2904920348, "lat": 40.4104833, "lon": -3.692861}, {"type": "node", "id": 2904920349, "lat": 40.4107209, "lon": -3.6929394}, {"type": "node", "id": 2904920351, "lat": 40.4107613, "lon": -3.6929762}, {"type": "node", "id": 2904920352, "lat": 40.4107711, "lon": -3.6930019}, {"type": "node", "id": 2904920353, "lat": 40.4108018, "lon": -3.6932809}, {"type": "node", "id": 2904920354, "lat": 40.4108142, "lon": -3.6932547}, {"type": "node", "id": 2911833793, "lat": 40.4241614, "lon": -3.6994334}, {"type": "node", "id": 2911833794, "lat": 40.4241783, "lon": -3.6997978}, {"type": "node", "id": 2911833796, "lat": 40.4241911, "lon": -3.6997978}, {"type": "node", "id": 2911833800, "lat": 40.4243858, "lon": -3.699422}, {"type": "node", "id": 2925397737, "lat": 40.407291, "lon": -3.6950399}, {"type": "node", "id": 2925397740, "lat": 40.4074019, "lon": -3.6950919}, {"type": "node", "id": 2925397741, "lat": 40.4074485, "lon": -3.6951138}, {"type": "node", "id": 2925397742, "lat": 40.4074798, "lon": -3.6943489}, {"type": "node", "id": 2925397751, "lat": 40.4076373, "lon": -3.6944228}, {"type": "node", "id": 2925397789, "lat": 40.4080053, "lon": -3.6968002}, {"type": "node", "id": 2925398825, "lat": 40.4080821, "lon": -3.696736}, {"type": "node", "id": 2973127115, "lat": 40.4289995, "lon": -3.7135573}, {"type": "node", "id": 2973127130, "lat": 40.4288948, "lon": -3.7129311}, {"type": "node", "id": 2973128845, "lat": 40.4290442, "lon": -3.7136727}, {"type": "node", "id": 3048869766, "lat": 40.4110824, "lon": -3.7011876}, {"type": "node", "id": 3048869767, "lat": 40.4111008, "lon": -3.7015131}, {"type": "node", "id": 3048869768, "lat": 40.4114918, "lon": -3.7014735}, {"type": "node", "id": 3048869769, "lat": 40.4114981, "lon": -3.7011228}, {"type": "node", "id": 3048869770, "lat": 40.4121033, "lon": -3.7069595}, {"type": "node", "id": 3048869771, "lat": 40.4121079, "lon": -3.7068757}, {"type": "node", "id": 3048869772, "lat": 40.412119, "lon": -3.7071329}, {"type": "node", "id": 3048869773, "lat": 40.4121499, "lon": -3.7069636}, {"type": "node", "id": 3048869774, "lat": 40.4122375, "lon": -3.7071915}, {"type": "node", "id": 3048869775, "lat": 40.412243, "lon": -3.7071688}, {"type": "node", "id": 3048869776, "lat": 40.4122507, "lon": -3.7061697}, {"type": "node", "id": 3048869777, "lat": 40.412261, "lon": -3.7064138}, {"type": "node", "id": 3048869778, "lat": 40.4122669, "lon": -3.7063124}, {"type": "node", "id": 3048869779, "lat": 40.4122762, "lon": -3.7073597}, {"type": "node", "id": 3048869780, "lat": 40.4122779, "lon": -3.7061452}, {"type": "node", "id": 3048869781, "lat": 40.4122806, "lon": -3.7069315}, {"type": "node", "id": 3048869782, "lat": 40.4122829, "lon": -3.7064199}, {"type": "node", "id": 3048869783, "lat": 40.4122985, "lon": -3.7065468}, {"type": "node", "id": 3048869784, "lat": 40.4123053, "lon": -3.7072135}, {"type": "node", "id": 3048869785, "lat": 40.4123153, "lon": -3.7064021}, {"type": "node", "id": 3048869786, "lat": 40.412317, "lon": -3.7064591}, {"type": "node", "id": 3048869787, "lat": 40.4123524, "lon": -3.706926}, {"type": "node", "id": 3048869788, "lat": 40.4124357, "lon": -3.7060644}, {"type": "node", "id": 3048869789, "lat": 40.4124792, "lon": -3.7074292}, {"type": "node", "id": 3048869790, "lat": 40.4124889, "lon": -3.7062216}, {"type": "node", "id": 3048869791, "lat": 40.4125296, "lon": -3.7061976}, {"type": "node", "id": 3048869792, "lat": 40.4125992, "lon": -3.7065807}, {"type": "node", "id": 3048869793, "lat": 40.4126243, "lon": -3.7064682}, {"type": "node", "id": 3048869794, "lat": 40.4126377, "lon": -3.7064618}, {"type": "node", "id": 3048869795, "lat": 40.4126692, "lon": -3.7065369}, {"type": "node", "id": 3048869796, "lat": 40.4126767, "lon": -3.7068098}, {"type": "node", "id": 3050347083, "lat": 40.4273327, "lon": -3.701988}, {"type": "node", "id": 3050347084, "lat": 40.4273757, "lon": -3.7022327}, {"type": "node", "id": 3050347090, "lat": 40.4274552, "lon": -3.7018436}, {"type": "node", "id": 3050347436, "lat": 40.4278332, "lon": -3.7019964}, {"type": "node", "id": 3050347438, "lat": 40.4278509, "lon": -3.7020985}, {"type": "node", "id": 3050556978, "lat": 40.4276392, "lon": -3.701918, "tags": {"addr:housenumber": "97", "addr:street": "Calle de Fuencarral"}}, {"type": "node", "id": 3050572854, "lat": 40.4260824, "lon": -3.6994925}, {"type": "node", "id": 3050572855, "lat": 40.4260964, "lon": -3.6995388}, {"type": "node", "id": 3050572856, "lat": 40.426212, "lon": -3.6992103}, {"type": "node", "id": 3050572859, "lat": 40.4262739, "lon": -3.6992456}, {"type": "node", "id": 3050572892, "lat": 40.4266355, "lon": -3.6997406}, {"type": "node", "id": 3050572898, "lat": 40.4266693, "lon": -3.6997218}, {"type": "node", "id": 3050572900, "lat": 40.4266804, "lon": -3.6994806}, {"type": "node", "id": 3056667819, "lat": 40.4259232, "lon": -3.7138284}, {"type": "node", "id": 3056667820, "lat": 40.4259352, "lon": -3.7135525}, {"type": "node", "id": 3056667821, "lat": 40.4259871, "lon": -3.7137047}, {"type": "node", "id": 3056667822, "lat": 40.4262301, "lon": -3.7133796}, {"type": "node", "id": 3056667823, "lat": 40.4262357, "lon": -3.7134027}, {"type": "node", "id": 3056667824, "lat": 40.4262611, "lon": -3.7133895}, {"type": "node", "id": 3056667825, "lat": 40.4262887, "lon": -3.713387}, {"type": "node", "id": 3056667826, "lat": 40.4263149, "lon": -3.7133929}, {"type": "node", "id": 3056667828, "lat": 40.4263403, "lon": -3.7134081}, {"type": "node", "id": 3056667829, "lat": 40.4263478, "lon": -3.7133865}, {"type": "node", "id": 3056667830, "lat": 40.4264151, "lon": -3.7139629}, {"type": "node", "id": 3056667831, "lat": 40.4267451, "lon": -3.7136711}, {"type": "node", "id": 3056667832, "lat": 40.4267462, "lon": -3.7154681}, {"type": "node", "id": 3056667833, "lat": 40.4267477, "lon": -3.715514}, {"type": "node", "id": 3056667834, "lat": 40.4269243, "lon": -3.7152504}, {"type": "node", "id": 3056667843, "lat": 40.4272216, "lon": -3.7159281}, {"type": "node", "id": 3056667847, "lat": 40.4273628, "lon": -3.7156114}, {"type": "node", "id": 3068950088, "lat": 40.4223126, "lon": -3.703745}, {"type": "node", "id": 3068950089, "lat": 40.4224577, "lon": -3.703536}, {"type": "node", "id": 3068950090, "lat": 40.4225603, "lon": -3.7036589}, {"type": "node", "id": 3094981309, "lat": 40.4279782, "lon": -3.7189346}, {"type": "node", "id": 3094981311, "lat": 40.4281649, "lon": -3.7191145}, {"type": "node", "id": 3094981312, "lat": 40.4282632, "lon": -3.7188907}, {"type": "node", "id": 3115515448, "lat": 40.4247968, "lon": -3.7144399}, {"type": "node", "id": 3115515455, "lat": 40.4248461, "lon": -3.7144111}, {"type": "node", "id": 3115515457, "lat": 40.4248982, "lon": -3.7144021}, {"type": "node", "id": 3117508258, "lat": 40.42471, "lon": -3.7145136}, {"type": "node", "id": 3117508259, "lat": 40.4247242, "lon": -3.7144882}, {"type": "node", "id": 3117508260, "lat": 40.4247584, "lon": -3.7144625}, {"type": "node", "id": 3126837362, "lat": 40.4246529, "lon": -3.7146593}, {"type": "node", "id": 3126837365, "lat": 40.4248024, "lon": -3.7147987}, {"type": "node", "id": 3126837372, "lat": 40.4249405, "lon": -3.7144424}, {"type": "node", "id": 3126837373, "lat": 40.4249608, "lon": -3.7144862}, {"type": "node", "id": 3126837377, "lat": 40.4250265, "lon": -3.7145736}, {"type": "node", "id": 3126837384, "lat": 40.4250877, "lon": -3.7150648}, {"type": "node", "id": 3126837404, "lat": 40.4252604, "lon": -3.7147839}, {"type": "node", "id": 3128485762, "lat": 40.4250998, "lon": -3.7146395}, {"type": "node", "id": 3128485774, "lat": 40.42525, "lon": -3.7147745}, {"type": "node", "id": 3137147948, "lat": 40.4265204, "lon": -3.7055544, "tags": {"addr:city": "Madrid", "addr:country": "ES", "addr:housenumber": "44", "addr:postcode": "28004", "addr:street": "Calle de la Palma"}}, {"type": "node", "id": 3137147950, "lat": 40.426565, "lon": -3.7060065, "tags": {"addr:city": "Madrid", "addr:country": "ES", "addr:housenumber": "46", "addr:postcode": "28004", "addr:street": "Calle de la Palma"}}, {"type": "node", "id": 3144095496, "lat": 40.4262783, "lon": -3.699073}, {"type": "node", "id": 3144095504, "lat": 40.4267852, "lon": -3.6993938}, {"type": "node", "id": 3160671620, "lat": 40.4252718, "lon": -3.7151483}, {"type": "node", "id": 3163811479, "lat": 40.4254658, "lon": -3.6982493, "tags": {"addr:city": "Madrid", "addr:country": "ES", "addr:housenumber": "5", "addr:postcode": "28004", "addr:street": "Traves\u00eda de San Mateo", "addr:subdistrict": "Justicia"}}, {"type": "node", "id": 3163841293, "lat": 40.4230986, "lon": -3.6967258}, {"type": "node", "id": 3163841294, "lat": 40.4231163, "lon": -3.6968173}, {"type": "node", "id": 3163841295, "lat": 40.423129, "lon": -3.696894}, {"type": "node", "id": 3163841298, "lat": 40.4231567, "lon": -3.6970413}, {"type": "node", "id": 3163841302, "lat": 40.4232073, "lon": -3.6973057}, {"type": "node", "id": 3163841304, "lat": 40.4232269, "lon": -3.6974087}, {"type": "node", "id": 3163841320, "lat": 40.4235587, "lon": -3.6972609}, {"type": "node", "id": 3163841324, "lat": 40.4236582, "lon": -3.6972167}, {"type": "node", "id": 3163841327, "lat": 40.4236947, "lon": -3.696541}, {"type": "node", "id": 3163841328, "lat": 40.4237138, "lon": -3.6967653}, {"type": "node", "id": 3163841329, "lat": 40.4237239, "lon": -3.696883}, {"type": "node", "id": 3163841330, "lat": 40.4237306, "lon": -3.6969698}, {"type": "node", "id": 3163841331, "lat": 40.4237361, "lon": -3.6970413}, {"type": "node", "id": 3163841332, "lat": 40.4237474, "lon": -3.6971778}, {"type": "node", "id": 3186637498, "lat": 40.4077563, "lon": -3.7034309}, {"type": "node", "id": 3186637499, "lat": 40.4077749, "lon": -3.7033889}, {"type": "node", "id": 3186661576, "lat": 40.4078577, "lon": -3.7031815}, {"type": "node", "id": 3190268533, "lat": 40.406494, "lon": -3.7022453}, {"type": "node", "id": 3213249867, "lat": 40.4296067, "lon": -3.7124235}, {"type": "node", "id": 3213249868, "lat": 40.4295936, "lon": -3.7124674}, {"type": "node", "id": 3213249870, "lat": 40.4295835, "lon": -3.7122808}, {"type": "node", "id": 3213249871, "lat": 40.4297135, "lon": -3.7129544}, {"type": "node", "id": 3213249872, "lat": 40.4291929, "lon": -3.7106823}, {"type": "node", "id": 3213249874, "lat": 40.4298312, "lon": -3.7128661}, {"type": "node", "id": 3213249875, "lat": 40.4298389, "lon": -3.7128978}, {"type": "node", "id": 3213249876, "lat": 40.4298735, "lon": -3.7128891}, {"type": "node", "id": 3213249877, "lat": 40.4299088, "lon": -3.7128786}, {"type": "node", "id": 3213249878, "lat": 40.4299637, "lon": -3.7128675}, {"type": "node", "id": 3213249879, "lat": 40.4299599, "lon": -3.712817}, {"type": "node", "id": 3213249880, "lat": 40.4300714, "lon": -3.71279}, {"type": "node", "id": 3213249881, "lat": 40.4300765, "lon": -3.7128384}, {"type": "node", "id": 3213249882, "lat": 40.4301562, "lon": -3.7128186}, {"type": "node", "id": 3213467984, "lat": 40.40663, "lon": -3.7019626}, {"type": "node", "id": 3213467985, "lat": 40.4068018, "lon": -3.7025048}, {"type": "node", "id": 3213467986, "lat": 40.4071029, "lon": -3.702333}, {"type": "node", "id": 3217915448, "lat": 40.4119826, "lon": -3.7127925}, {"type": "node", "id": 3218099371, "lat": 40.4126044, "lon": -3.7111678}, {"type": "node", "id": 3218099375, "lat": 40.4127599, "lon": -3.7111399}, {"type": "node", "id": 3218099376, "lat": 40.4127907, "lon": -3.7114275}, {"type": "node", "id": 3237239085, "lat": 40.4113976, "lon": -3.7043023}, {"type": "node", "id": 3237239087, "lat": 40.4114407, "lon": -3.7042331}, {"type": "node", "id": 3237239088, "lat": 40.4114702, "lon": -3.7042647}, {"type": "node", "id": 3237239089, "lat": 40.4114931, "lon": -3.7041487}, {"type": "node", "id": 3237239090, "lat": 40.4115186, "lon": -3.7044133}, {"type": "node", "id": 3237239091, "lat": 40.4115226, "lon": -3.7041804}, {"type": "node", "id": 3237239092, "lat": 40.4115335, "lon": -3.7040837}, {"type": "node", "id": 3237239093, "lat": 40.4115516, "lon": -3.7044019}, {"type": "node", "id": 3237239094, "lat": 40.4116237, "lon": -3.7041704}, {"type": "node", "id": 3240923397, "lat": 40.426167, "lon": -3.7073135, "tags": {"addr:city": "Madrid", "addr:housenumber": "64", "addr:postcode": "28015", "addr:street": "Calle de San Vicente Ferrer", "amenity": "college", "email": "comemai@comemai.it", "name": "Come mai?", "phone": "+34 915210335", "website": "http://www.comemai.it/"}}, {"type": "node", "id": 3255241722, "lat": 40.4107433, "lon": -3.6929531}, {"type": "node", "id": 3258173545, "lat": 40.4105169, "lon": -3.6932194}, {"type": "node", "id": 3258173546, "lat": 40.4105553, "lon": -3.6930174}, {"type": "node", "id": 3258173547, "lat": 40.4106722, "lon": -3.6930557}, {"type": "node", "id": 3258173548, "lat": 40.410685, "lon": -3.6930722}, {"type": "node", "id": 3258173549, "lat": 40.4107089, "lon": -3.6932211}, {"type": "node", "id": 3260763679, "lat": 40.4106008, "lon": -3.7116817}, {"type": "node", "id": 3260763686, "lat": 40.4106391, "lon": -3.7117376}, {"type": "node", "id": 3260763694, "lat": 40.410688, "lon": -3.7117546}, {"type": "node", "id": 3260763702, "lat": 40.4107458, "lon": -3.7115178}, {"type": "node", "id": 3260763718, "lat": 40.4108502, "lon": -3.7118989}, {"type": "node", "id": 3260763727, "lat": 40.4109052, "lon": -3.7118845}, {"type": "node", "id": 3260763730, "lat": 40.4109253, "lon": -3.7119021}, {"type": "node", "id": 3260763739, "lat": 40.4109977, "lon": -3.711966}, {"type": "node", "id": 3260763741, "lat": 40.4110159, "lon": -3.711982}, {"type": "node", "id": 3260763748, "lat": 40.4112503, "lon": -3.7112837}, {"type": "node", "id": 3293613503, "lat": 40.4200471, "lon": -3.7103737}, {"type": "node", "id": 3293613504, "lat": 40.4202122, "lon": -3.7101218}, {"type": "node", "id": 3293613505, "lat": 40.4203375, "lon": -3.7106879}, {"type": "node", "id": 3293613506, "lat": 40.4204996, "lon": -3.7104333}, {"type": "node", "id": 3293613507, "lat": 40.4253468, "lon": -3.6977045}, {"type": "node", "id": 3293613508, "lat": 40.4253577, "lon": -3.6981298}, {"type": "node", "id": 3293613509, "lat": 40.42551, "lon": -3.6979852}, {"type": "node", "id": 3293613510, "lat": 40.4255727, "lon": -3.6983674}, {"type": "node", "id": 3293613511, "lat": 40.4255926, "lon": -3.6983382}, {"type": "node", "id": 3293613512, "lat": 40.4256188, "lon": -3.6982598}, {"type": "node", "id": 3293613513, "lat": 40.4256647, "lon": -3.6982996}, {"type": "node", "id": 3293613514, "lat": 40.4256801, "lon": -3.6982672}, {"type": "node", "id": 3293613515, "lat": 40.4257197, "lon": -3.6983129}, {"type": "node", "id": 3293613516, "lat": 40.4257826, "lon": -3.6974091}, {"type": "node", "id": 3293613517, "lat": 40.4258381, "lon": -3.6980587}, {"type": "node", "id": 3293613518, "lat": 40.4260524, "lon": -3.6978374}, {"type": "node", "id": 3311191009, "lat": 40.4252939, "lon": -3.6999941}, {"type": "node", "id": 3311191011, "lat": 40.4256199, "lon": -3.7002191}, {"type": "node", "id": 3311191012, "lat": 40.4258258, "lon": -3.6997721}, {"type": "node", "id": 3312744513, "lat": 40.4226022, "lon": -3.7035993, "tags": {"addr:housenumber": "16", "addr:street": "Corredera Baja de San Pablo"}}, {"type": "node", "id": 3312744515, "lat": 40.4222839, "lon": -3.7035848, "tags": {"addr:city": "Madrid", "addr:country": "ES", "addr:housenumber": "20", "addr:postcode": "28004", "addr:street": "Calle de la Puebla", "addr:subdistrict": "Universidad"}}, {"type": "node", "id": 3313107083, "lat": 40.426012, "lon": -3.7136547}, {"type": "node", "id": 3313107084, "lat": 40.4260215, "lon": -3.7137077}, {"type": "node", "id": 3313107085, "lat": 40.4260499, "lon": -3.713731}, {"type": "node", "id": 3313107086, "lat": 40.4260535, "lon": -3.7137481}, {"type": "node", "id": 3313107087, "lat": 40.4261553, "lon": -3.7140185}, {"type": "node", "id": 3313107088, "lat": 40.4262217, "lon": -3.7138813}, {"type": "node", "id": 3313107089, "lat": 40.4262303, "lon": -3.713529}, {"type": "node", "id": 3313107090, "lat": 40.4262401, "lon": -3.7135565}, {"type": "node", "id": 3313107092, "lat": 40.4262722, "lon": -3.7135376}, {"type": "node", "id": 3313107093, "lat": 40.4262917, "lon": -3.713538}, {"type": "node", "id": 3313107094, "lat": 40.4263331, "lon": -3.713566}, {"type": "node", "id": 3313107095, "lat": 40.4263414, "lon": -3.713538}, {"type": "node", "id": 3313107096, "lat": 40.4263651, "lon": -3.7139221}, {"type": "node", "id": 3313107097, "lat": 40.4263728, "lon": -3.7138999}, {"type": "node", "id": 3313107098, "lat": 40.4265193, "lon": -3.7136677}, {"type": "node", "id": 3313107099, "lat": 40.4265234, "lon": -3.7136576}, {"type": "node", "id": 3313107100, "lat": 40.4265436, "lon": -3.7137531}, {"type": "node", "id": 3313107101, "lat": 40.4265503, "lon": -3.713774}, {"type": "node", "id": 3313107102, "lat": 40.4265548, "lon": -3.7137033}, {"type": "node", "id": 3313107103, "lat": 40.4265629, "lon": -3.7136853}, {"type": "node", "id": 3313107104, "lat": 40.4265975, "lon": -3.7137352}, {"type": "node", "id": 3325120980, "lat": 40.4202709, "lon": -3.7101856}, {"type": "node", "id": 3325120982, "lat": 40.4203085, "lon": -3.7102264}, {"type": "node", "id": 3325120986, "lat": 40.4204152, "lon": -3.7105641}, {"type": "node", "id": 3325120987, "lat": 40.4204182, "lon": -3.7105594}, {"type": "node", "id": 3325120988, "lat": 40.4204969, "lon": -3.7104303}, {"type": "node", "id": 3326469085, "lat": 40.4129185, "lon": -3.7125136}, {"type": "node", "id": 3326469086, "lat": 40.4129488, "lon": -3.7126453}, {"type": "node", "id": 3326469087, "lat": 40.4131004, "lon": -3.712154}, {"type": "node", "id": 3326469088, "lat": 40.4131911, "lon": -3.7124886}, {"type": "node", "id": 3355218947, "lat": 40.4101629, "lon": -3.6965105}, {"type": "node", "id": 3355218948, "lat": 40.4102567, "lon": -3.6966934}, {"type": "node", "id": 3355218949, "lat": 40.410424, "lon": -3.6963312}, {"type": "node", "id": 3355218950, "lat": 40.4104906, "lon": -3.6964606}, {"type": "node", "id": 3357109496, "lat": 40.4262446, "lon": -3.7083968}, {"type": "node", "id": 3357109497, "lat": 40.4262893, "lon": -3.7088918}, {"type": "node", "id": 3357109498, "lat": 40.4265282, "lon": -3.7087749}, {"type": "node", "id": 3357109499, "lat": 40.4265359, "lon": -3.7088569}, {"type": "node", "id": 3357109500, "lat": 40.4265454, "lon": -3.7083309}, {"type": "node", "id": 3357109501, "lat": 40.4265787, "lon": -3.7086161}, {"type": "node", "id": 3357109502, "lat": 40.4267612, "lon": -3.7085662}, {"type": "node", "id": 3357109503, "lat": 40.4267785, "lon": -3.7087195}, {"type": "node", "id": 3361624782, "lat": 40.4250896, "lon": -3.7050959, "tags": {"addr:city": "Madrid", "addr:housenumber": "14", "addr:postcode": "28004", "addr:street": "Calle del Tesoro", "amenity": "college", "email": "info@macluque.com", "name": "MacLuque School of English", "website": "http://macluque.com/", "wheelchair": "yes"}}, {"type": "node", "id": 3363077867, "lat": 40.4114958, "lon": -3.7012927, "tags": {"addr:city": "Madrid", "addr:country": "ES", "addr:housenumber": "4", "addr:postcode": "28012", "addr:street": "Calle del Olmo", "entrance": "main"}}, {"type": "node", "id": 3363078051, "lat": 40.4110984, "lon": -3.7014439}, {"type": "node", "id": 3363078052, "lat": 40.4111005, "lon": -3.7014993}, {"type": "node", "id": 3363078061, "lat": 40.4111326, "lon": -3.7015105}, {"type": "node", "id": 3363078070, "lat": 40.411174, "lon": -3.701506}, {"type": "node", "id": 3363078081, "lat": 40.4111866, "lon": -3.7011732}, {"type": "node", "id": 3363078195, "lat": 40.4112509, "lon": -3.7011612}, {"type": "node", "id": 3363078204, "lat": 40.4112836, "lon": -3.701159}, {"type": "node", "id": 3363078206, "lat": 40.4112908, "lon": -3.7013406}, {"type": "node", "id": 3363078209, "lat": 40.4113006, "lon": -3.7014366}, {"type": "node", "id": 3363078219, "lat": 40.4113536, "lon": -3.7014302}, {"type": "node", "id": 3363078220, "lat": 40.4113541, "lon": -3.7013322}, {"type": "node", "id": 3363078223, "lat": 40.4113566, "lon": -3.7014874}, {"type": "node", "id": 3368048351, "lat": 40.4236895, "lon": -3.7028536, "tags": {"addr:city": "Madrid", "addr:country": "ES", "addr:housenumber": "3", "addr:postcode": "28004", "addr:street": "Calle de El Escorial", "amenity": "college", "description": "Escuela de Teatro", "email": "hola@devorador.es", "name": "devorador.es", "phone": "+34 917825878", "website": "https://www.devorador.es/"}}, {"type": "node", "id": 3370051205, "lat": 40.4278637, "lon": -3.7075402, "tags": {"addr:city": "Madrid", "addr:housenumber": "15", "addr:postcode": "28015", "addr:street": "Calle de San Dimas", "amenity": "college", "name": "ACYM", "phone": "+34 913 15 31 67", "website": "http://acym.es/"}}, {"type": "node", "id": 3370089385, "lat": 40.4302083, "lon": -3.7077568, "tags": {"addr:city": "Madrid", "addr:housenumber": "3", "addr:postcode": "28015", "addr:street": "Plaza del Conde del Valle Suchil", "amenity": "college", "name": "C\u00edrculo de Baile", "phone": "+34 91 308 16 26", "website": "https://circulodebaile.es/"}}, {"type": "node", "id": 3374152201, "lat": 40.4277614, "lon": -3.6994509, "tags": {"amenity": "school", "name": "Escuela municipal de arte dram\u00e1tico"}}, {"type": "node", "id": 3374152530, "lat": 40.4092298, "lon": -3.7052799}, {"type": "node", "id": 3374152531, "lat": 40.409261, "lon": -3.7052073}, {"type": "node", "id": 3374152532, "lat": 40.4093913, "lon": -3.7054201}, {"type": "node", "id": 3374152533, "lat": 40.4094214, "lon": -3.705354}, {"type": "node", "id": 3397305066, "lat": 40.4094567, "lon": -3.701738}, {"type": "node", "id": 3397305067, "lat": 40.4094656, "lon": -3.7016763}, {"type": "node", "id": 3397305068, "lat": 40.4094797, "lon": -3.7014906}, {"type": "node", "id": 3397305069, "lat": 40.4095192, "lon": -3.7017924}, {"type": "node", "id": 3397305070, "lat": 40.4095234, "lon": -3.7017555}, {"type": "node", "id": 3397305071, "lat": 40.4095654, "lon": -3.7018044}, {"type": "node", "id": 3397305072, "lat": 40.4095739, "lon": -3.701736}, {"type": "node", "id": 3397305073, "lat": 40.4095977, "lon": -3.7015223}, {"type": "node", "id": 3423225666, "lat": 40.4053024, "lon": -3.7032216}, {"type": "node", "id": 3423225676, "lat": 40.4080959, "lon": -3.7033278}, {"type": "node", "id": 3423261326, "lat": 40.4059003, "lon": -3.7068984}, {"type": "node", "id": 3423331710, "lat": 40.4047148, "lon": -3.6997436}, {"type": "node", "id": 3423331714, "lat": 40.4050965, "lon": -3.7005909}, {"type": "node", "id": 3423331720, "lat": 40.4052385, "lon": -3.7006899}, {"type": "node", "id": 3423331723, "lat": 40.4053219, "lon": -3.6996455}, {"type": "node", "id": 3423331727, "lat": 40.4054575, "lon": -3.7004991}, {"type": "node", "id": 3423331731, "lat": 40.4056697, "lon": -3.6997308}, {"type": "node", "id": 3461905401, "lat": 40.426217, "lon": -3.7123422, "tags": {"addr:housenumber": "6", "addr:street": "Calle del Duque de Liria", "amenity": "school", "name": "Don Quijote", "website": "https://www.donquijote.org/", "wheelchair": "limited"}}, {"type": "node", "id": 3461927965, "lat": 40.424513, "lon": -3.7074822, "tags": {"addr:city": "Madrid", "addr:housenumber": "49", "addr:postcode": "28015", "addr:street": "Calle de San Bernardo", "amenity": "school", "name": "Escuela de Relaciones Laborales", "wheelchair": "limited", "wheelchair:description": "Salvaescaleras que da acceso para unicamente la primera planta"}}, {"type": "node", "id": 3507768877, "lat": 40.4266787, "lon": -3.7055581}, {"type": "node", "id": 3507768878, "lat": 40.4267399, "lon": -3.7055497}, {"type": "node", "id": 3507768879, "lat": 40.4267509, "lon": -3.7056741}, {"type": "node", "id": 3508270463, "lat": 40.4241796, "lon": -3.6998782}, {"type": "node", "id": 3508270464, "lat": 40.4244663, "lon": -3.6999407}, {"type": "node", "id": 3508270465, "lat": 40.4244964, "lon": -3.699673}, {"type": "node", "id": 3508270466, "lat": 40.4244991, "lon": -3.6997556}, {"type": "node", "id": 3517146957, "lat": 40.42444, "lon": -3.7060826, "tags": {"addr:city": "Madrid", "addr:housenumber": "6", "addr:postcode": "28004", "addr:street": "Calle de Minas", "amenity": "kindergarten", "contact:facebook": "https://www.facebook.com/espaciofamilymoon", "contact:phone": "+34 625 19 06 53", "contact:website": "http://www.familymoon.es/", "name": "Family Moon"}}, {"type": "node", "id": 3545717527, "lat": 40.4083333, "lon": -3.6965283}, {"type": "node", "id": 3545717529, "lat": 40.408367, "lon": -3.6965004}, {"type": "node", "id": 3545717545, "lat": 40.408541, "lon": -3.6963565}, {"type": "node", "id": 3545717550, "lat": 40.4085687, "lon": -3.6963337}, {"type": "node", "id": 3545717553, "lat": 40.4086023, "lon": -3.6963058}, {"type": "node", "id": 3580943303, "lat": 40.4129073, "lon": -3.712503}, {"type": "node", "id": 3580943304, "lat": 40.4129784, "lon": -3.7126747}, {"type": "node", "id": 3607694608, "lat": 40.4079314, "lon": -3.702978}, {"type": "node", "id": 3607694609, "lat": 40.4079357, "lon": -3.7029823}, {"type": "node", "id": 3607694610, "lat": 40.407955, "lon": -3.7029181}, {"type": "node", "id": 3607694612, "lat": 40.4081807, "lon": -3.70307}, {"type": "node", "id": 3625876680, "lat": 40.4204256, "lon": -3.691246}, {"type": "node", "id": 3625876681, "lat": 40.4205083, "lon": -3.6912281}, {"type": "node", "id": 3625876684, "lat": 40.4205545, "lon": -3.6912179}, {"type": "node", "id": 3625891815, "lat": 40.4206185, "lon": -3.6911207}, {"type": "node", "id": 3631781471, "lat": 40.425965, "lon": -3.7055374, "tags": {"addr:city": "Madrid", "addr:housenumber": "48", "addr:postcode": "28004", "addr:street": "Calle de San Vicente Ferrer", "amenity": "college", "contact:email": "info@quattrocento.es", "contact:phone": "+34 630 76 41 29", "contact:website": "http://www.quattrocento.es/", "name": "Quattrocento"}}, {"type": "node", "id": 3643554298, "lat": 40.4265329, "lon": -3.7138594}, {"type": "node", "id": 3643554303, "lat": 40.4266943, "lon": -3.713716}, {"type": "node", "id": 3643554306, "lat": 40.4266569, "lon": -3.7137493}, {"type": "node", "id": 3643554307, "lat": 40.4265858, "lon": -3.7138127}, {"type": "node", "id": 3645229638, "lat": 40.427286, "lon": -3.7157837}, {"type": "node", "id": 3645229642, "lat": 40.4270308, "lon": -3.715339}, {"type": "node", "id": 3645229651, "lat": 40.427153, "lon": -3.7154391}, {"type": "node", "id": 3645229658, "lat": 40.4273286, "lon": -3.7156889}, {"type": "node", "id": 3645231319, "lat": 40.4287279, "lon": -3.7172283}, {"type": "node", "id": 3645231322, "lat": 40.4289206, "lon": -3.7168393}, {"type": "node", "id": 3645231333, "lat": 40.4288789, "lon": -3.7167038}, {"type": "node", "id": 3645231335, "lat": 40.4285748, "lon": -3.7171014}, {"type": "node", "id": 3645231336, "lat": 40.4286896, "lon": -3.7168817}, {"type": "node", "id": 3645231337, "lat": 40.4287616, "lon": -3.716943}, {"type": "node", "id": 3645231338, "lat": 40.4288724, "lon": -3.7167166}, {"type": "node", "id": 3645231339, "lat": 40.4289554, "lon": -3.7167678}, {"type": "node", "id": 3645231340, "lat": 40.428795, "lon": -3.7170928}, {"type": "node", "id": 3645231341, "lat": 40.4287713, "lon": -3.7170717}, {"type": "node", "id": 3645231342, "lat": 40.4287391, "lon": -3.7171361}, {"type": "node", "id": 3645231343, "lat": 40.4287629, "lon": -3.7171575}, {"type": "node", "id": 3646061963, "lat": 40.407754, "lon": -3.7034376}, {"type": "node", "id": 3646862759, "lat": 40.4290856, "lon": -3.7133839}, {"type": "node", "id": 3646862760, "lat": 40.4292047, "lon": -3.7132993}, {"type": "node", "id": 3646862763, "lat": 40.4294583, "lon": -3.7132054}, {"type": "node", "id": 3646862764, "lat": 40.4295886, "lon": -3.7131507}, {"type": "node", "id": 3646862765, "lat": 40.429452, "lon": -3.7125863}, {"type": "node", "id": 3646862766, "lat": 40.4294103, "lon": -3.7125646}, {"type": "node", "id": 3646869636, "lat": 40.4286437, "lon": -3.7169708}, {"type": "node", "id": 3646869639, "lat": 40.4286598, "lon": -3.7169401}, {"type": "node", "id": 3656719766, "lat": 40.4068099, "lon": -3.702099}, {"type": "node", "id": 3656819073, "lat": 40.4115363, "lon": -3.7044072, "tags": {"entrance": "main"}}, {"type": "node", "id": 3673734260, "lat": 40.4126594, "lon": -3.7065434}, {"type": "node", "id": 3757433145, "lat": 40.4271892, "lon": -3.7186407, "tags": {"addr:city": "Madrid", "addr:housenumber": "21", "addr:postcode": "28008", "addr:street": "Calle de Quintana", "amenity": "university", "contact:website": "https://www.urjc.es/en/", "name": "Universidad Rey Juan Carlos", "old_name": "Universidad Camilo Jos\u00e9 Cela"}}, {"type": "node", "id": 3777397771, "lat": 40.412343, "lon": -3.6975503}, {"type": "node", "id": 3787856199, "lat": 40.410245, "lon": -3.6966709}, {"type": "node", "id": 3787856200, "lat": 40.410211, "lon": -3.6966054}, {"type": "node", "id": 3787856235, "lat": 40.4102055, "lon": -3.6964817}, {"type": "node", "id": 3787856236, "lat": 40.4102985, "lon": -3.6966507}, {"type": "node", "id": 3791714988, "lat": 40.413911, "lon": -3.70969}, {"type": "node", "id": 3791714989, "lat": 40.4138549, "lon": -3.7096936}, {"type": "node", "id": 3791714993, "lat": 40.4138073, "lon": -3.7097527}, {"type": "node", "id": 3791714994, "lat": 40.4138028, "lon": -3.709809}, {"type": "node", "id": 3791714996, "lat": 40.4137827, "lon": -3.7099938}, {"type": "node", "id": 3791714998, "lat": 40.414108, "lon": -3.7097652}, {"type": "node", "id": 3791714999, "lat": 40.4140364, "lon": -3.7097817}, {"type": "node", "id": 3791715000, "lat": 40.4140109, "lon": -3.7096257}, {"type": "node", "id": 3791715001, "lat": 40.4139068, "lon": -3.7096074}, {"type": "node", "id": 3791715002, "lat": 40.4138431, "lon": -3.7096941}, {"type": "node", "id": 3791715003, "lat": 40.4138378, "lon": -3.7096949}, {"type": "node", "id": 3791715004, "lat": 40.4138123, "lon": -3.709696}, {"type": "node", "id": 3793334234, "lat": 40.4231332, "lon": -3.6969165}, {"type": "node", "id": 3793334241, "lat": 40.4231612, "lon": -3.6970669}, {"type": "node", "id": 3793334242, "lat": 40.4231397, "lon": -3.696951}, {"type": "node", "id": 3793334246, "lat": 40.4231876, "lon": -3.6972068}, {"type": "node", "id": 3797409401, "lat": 40.4112045, "lon": -3.7015029}, {"type": "node", "id": 3802045126, "lat": 40.4080446, "lon": -3.7066179}, {"type": "node", "id": 3802045127, "lat": 40.4080757, "lon": -3.7064531}, {"type": "node", "id": 3802045128, "lat": 40.4080822, "lon": -3.7064538}, {"type": "node", "id": 3802045130, "lat": 40.4081106, "lon": -3.706301}, {"type": "node", "id": 3802045141, "lat": 40.4082872, "lon": -3.7066507}, {"type": "node", "id": 3802045142, "lat": 40.4083151, "lon": -3.7065635}, {"type": "node", "id": 3802045143, "lat": 40.4083518, "lon": -3.7064593}, {"type": "node", "id": 3802045144, "lat": 40.4083791, "lon": -3.7063963}, {"type": "node", "id": 3803512875, "lat": 40.4122187, "lon": -3.7069111}, {"type": "node", "id": 3804113050, "lat": 40.4068411, "lon": -3.7055026, "tags": {"addr:city": "Madrid", "addr:country": "ES", "addr:housenumber": "14", "addr:postcode": "28005", "addr:street": "Calle del Ventorrillo", "entrance": "main"}}, {"type": "node", "id": 3808281817, "lat": 40.4082175, "lon": -3.7116024}, {"type": "node", "id": 3808286449, "lat": 40.4095775, "lon": -3.7017033}, {"type": "node", "id": 3808286452, "lat": 40.4094677, "lon": -3.7016493}, {"type": "node", "id": 3808289872, "lat": 40.4094707, "lon": -3.7016098}, {"type": "node", "id": 3808292847, "lat": 40.4094636, "lon": -3.7016903}, {"type": "node", "id": 3808292848, "lat": 40.4094661, "lon": -3.7016694}, {"type": "node", "id": 3808333458, "lat": 40.4122393, "lon": -3.7071822}, {"type": "node", "id": 3808333460, "lat": 40.4122975, "lon": -3.7072525}, {"type": "node", "id": 3808333464, "lat": 40.4121337, "lon": -3.7070528}, {"type": "node", "id": 3809088735, "lat": 40.4085815, "lon": -3.6982076}, {"type": "node", "id": 3809088736, "lat": 40.4085988, "lon": -3.6982426}, {"type": "node", "id": 3809088739, "lat": 40.4084854, "lon": -3.6980141}, {"type": "node", "id": 3809088740, "lat": 40.4084978, "lon": -3.698039}, {"type": "node", "id": 3809088743, "lat": 40.4085109, "lon": -3.6980653}, {"type": "node", "id": 3809088744, "lat": 40.408537, "lon": -3.698118}, {"type": "node", "id": 3809100647, "lat": 40.4090858, "lon": -3.6979039}, {"type": "node", "id": 3809100650, "lat": 40.4091512, "lon": -3.6978297}, {"type": "node", "id": 3809100651, "lat": 40.4091847, "lon": -3.6977923}, {"type": "node", "id": 3809100656, "lat": 40.4088645, "lon": -3.698169}, {"type": "node", "id": 3809102957, "lat": 40.4089406, "lon": -3.6980784}, {"type": "node", "id": 3809102959, "lat": 40.4087913, "lon": -3.6982546}, {"type": "node", "id": 3809107594, "lat": 40.4084207, "lon": -3.6978836}, {"type": "node", "id": 3809107595, "lat": 40.4084481, "lon": -3.6979389}, {"type": "node", "id": 3809107598, "lat": 40.4084581, "lon": -3.6979591}, {"type": "node", "id": 3809107600, "lat": 40.4083757, "lon": -3.6977929}, {"type": "node", "id": 3809107602, "lat": 40.4083028, "lon": -3.6976461}, {"type": "node", "id": 3809107618, "lat": 40.4082308, "lon": -3.697501}, {"type": "node", "id": 3809107620, "lat": 40.4081598, "lon": -3.6973577}, {"type": "node", "id": 3809107621, "lat": 40.4081866, "lon": -3.6974119}, {"type": "node", "id": 3809107624, "lat": 40.4082001, "lon": -3.6974391}, {"type": "node", "id": 3809107626, "lat": 40.4081053, "lon": -3.697248}, {"type": "node", "id": 3809107628, "lat": 40.4080412, "lon": -3.6971187}, {"type": "node", "id": 3809107629, "lat": 40.4080708, "lon": -3.6971785}, {"type": "node", "id": 3809107632, "lat": 40.4080923, "lon": -3.6972218}, {"type": "node", "id": 3809107633, "lat": 40.4080137, "lon": -3.6968739}, {"type": "node", "id": 3809107636, "lat": 40.4080268, "lon": -3.6969566}, {"type": "node", "id": 3809107637, "lat": 40.4080395, "lon": -3.6970375}, {"type": "node", "id": 3821737815, "lat": 40.411991, "lon": -3.7126931}, {"type": "node", "id": 3821737816, "lat": 40.4119554, "lon": -3.7127155}, {"type": "node", "id": 3821737820, "lat": 40.4121083, "lon": -3.7131441}, {"type": "node", "id": 3821749629, "lat": 40.4120677, "lon": -3.7128383}, {"type": "node", "id": 3821749634, "lat": 40.4120133, "lon": -3.7127499}, {"type": "node", "id": 3823443573, "lat": 40.4068694, "lon": -3.7058609}, {"type": "node", "id": 3823443576, "lat": 40.4068333, "lon": -3.7056518}, {"type": "node", "id": 3823443577, "lat": 40.4065749, "lon": -3.7057945}, {"type": "node", "id": 3835517328, "lat": 40.4126578, "lon": -3.7074168, "tags": {"addr:city": "Madrid", "addr:country": "ES", "addr:housenumber": "39", "addr:postcode": "28005", "addr:street": "Calle de Toledo", "entrance": "main"}}, {"type": "node", "id": 3840334299, "lat": 40.4254559, "lon": -3.6978935}, {"type": "node", "id": 3842855255, "lat": 40.4068419, "lon": -3.7056313}, {"type": "node", "id": 3842855858, "lat": 40.4068606, "lon": -3.7055866}, {"type": "node", "id": 3842921788, "lat": 40.4082333, "lon": -3.706644},