{"version": 0.6, "generator": "Overpass API 0.7.58.5 b0c4acbb", "osm3s": {"timestamp_osm_base": "2022-09-01T10:15:37Z", "copyright": "The data included in this document is from www.openstreetmap.org. The data is made available under ODbL."}, "elements": [{"type": "node", "id": 420068862, "lat": 41.4049693, "lon": 2.1894182}, {"type": "node", "id": 420068865, "lat": 41.4044103, "lon": 2.1904275}, {"type": "node", "id": 506202703, "lat": 41.3962323, "lon": 2.1890864, "tags": {"addr:street": "Carrer dels Almog\u00e0vers", "amenity": "cafe", "cuisine": "regional", "internet_access": "yes", "internet_access:fee": "no", "name": "Bar Almog\u00e1vares", "opening_hours": "Mo-Fr 07:00-17:00", "opening_hours:covid19": "open", "outdoor_seating": "yes"}}, {"type": "node", "id": 506202705, "lat": 41.3949813, "lon": 2.1916505, "tags": {"addr:housenumber": "36", "addr:street": "Pere IV", "amenity": "restaurant", "description": "Wifi", "name": "La Braser\u00eda", "phone": "+34 931876537", "website": "www.lawebdelabraseria.com"}}, {"type": "node", "id": 506236266, "lat": 41.3934539, "lon": 2.1881434, "tags": {"amenity": "restaurant", "cuisine": "chinese", "name": "Palacio de China"}}, {"type": "node", "id": 506236267, "lat": 41.3932336, "lon": 2.1884994, "tags": {"amenity": "pub", "name": "Bar Nuria"}}, {"type": "node", "id": 506236273, "lat": 41.3982628, "lon": 2.18314, "tags": {"addr:housenumber": "36", "addr:street": "Carrer de Ribes", "name": "Forn de Pa Laia", "opening_hours": "Mo-Fr 06:00-20:30; Sa-Su 07:00-14:00", "phone": "+34932472065", "postal_code": "08013", "shop": "bakery"}}, {"type": "node", "id": 660100527, "lat": 41.4046882, "lon": 2.1967694, "tags": {"amenity": "cafe", "cuisine": "spanish", "name": "Rambla Poblenou", "shop": "optician"}}, {"type": "node", "id": 660100529, "lat": 41.404858, "lon": 2.1941868, "tags": {"amenity": "cafe", "name": "El Fornet d'en Rosend"}}, {"type": "node", "id": 660100530, "lat": 41.40537, "lon": 2.1934837, "tags": {"addr:housenumber": "142-144", "addr:postcode": "08018", "addr:street": "C Llacuna", "amenity": "restaurant", "contact:phone": "+34 933007849", "cuisine": "japanese", "name": "Restaurante UN-ZA", "opening_hours": "Mo-Su 13:00-16:00,20:00-23:30"}}, {"type": "node", "id": 660771772, "lat": 41.4035018, "lon": 2.1977649, "tags": {"amenity": "restaurant", "name": "Anormalfood"}}, {"type": "node", "id": 660778318, "lat": 41.403467, "lon": 2.1978397, "tags": {"name": "granel", "shop": "convenience"}}, {"type": "node", "id": 660778771, "lat": 41.402858, "lon": 2.1987158, "tags": {"addr:housenumber": "105", "amenity": "restaurant", "cuisine": "spanish", "name": "braseria xorus"}}, {"type": "node", "id": 660779414, "lat": 41.402675, "lon": 2.1989594, "tags": {"addr:housenumber": "99", "addr:street": "Ramble de Poblenou", "amenity": "bar", "name": "Bar Burgales"}}, {"type": "node", "id": 660784487, "lat": 41.4027269, "lon": 2.1989008, "tags": {"amenity": "restaurant", "name": "La broqueta"}}, {"type": "node", "id": 660784488, "lat": 41.4027071, "lon": 2.1989239, "tags": {"addr:housenumber": "101", "amenity": "restaurant", "cuisine": "indian", "name": "Sitar"}}, {"type": "node", "id": 660784489, "lat": 41.4023418, "lon": 2.1991561, "tags": {"brand": "Mercadona", "brand:wikidata": "Q377705", "brand:wikipedia": "es:Mercadona", "name": "Mercadona", "opening_hours:covid19": "open", "operator": "Mercadona", "shop": "supermarket", "website": "https://www.mercadona.es"}}, {"type": "node", "id": 668282816, "lat": 41.3962523, "lon": 2.1830333, "tags": {"amenity": "restaurant", "name": "Tierra da Lua"}}, {"type": "node", "id": 745947750, "lat": 41.3976224, "lon": 2.1807778, "tags": {"addr:housenumber": "173", "addr:postcode": "08013", "addr:street": "Sardenya", "amenity": "restaurant", "cuisine": "spanish", "delivery": "no", "name": "Bar Geminis", "outdoor_seating": "yes", "phone": "+34 932 46 51 36", "smoking": "no", "takeaway": "yes", "wifi": "yes"}}, {"type": "node", "id": 830462039, "lat": 41.4043015, "lon": 2.1949428, "tags": {"amenity": "cafe", "name": "Cafe Tampa", "smoking": "outside"}}, {"type": "node", "id": 930158082, "lat": 41.4007455, "lon": 2.1743821, "tags": {"amenity": "cafe", "name": "Brasilia cafe", "wheelchair": "limited"}}, {"type": "node", "id": 1159727140, "lat": 41.4048148, "lon": 2.19663, "tags": {"opening_hours:covid19": "open", "shop": "greengrocer", "takeaway:covid19": "yes"}}, {"type": "node", "id": 1271879449, "lat": 41.4063985, "lon": 2.1959205, "tags": {"addr:city": "Barcelona", "addr:housenumber": "138", "addr:postcode": "08018", "addr:street": "Carrer de Bol\u00edvia", "amenity": "restaurant", "diet:vegan": "yes", "diet:vegetarian": "yes", "name": "Culleres", "phone": "+34 93 51 33 984", "smoking": "no", "website": "http://www.culleres.com/", "wheelchair": "no"}}, {"type": "node", "id": 1307297607, "lat": 41.4047275, "lon": 2.191709}, {"type": "node", "id": 1307297612, "lat": 41.4051187, "lon": 2.193249}, {"type": "node", "id": 1307297613, "lat": 41.4047988, "lon": 2.1919649}, {"type": "node", "id": 1307297614, "lat": 41.4056259, "lon": 2.1927972}, {"type": "node", "id": 1320935227, "lat": 41.4061799, "lon": 2.1901275, "tags": {"shop": "convenience", "toilets:wheelchair": "no", "wheelchair": "limited"}}, {"type": "node", "id": 1320935231, "lat": 41.4078939, "lon": 2.1888829, "tags": {"addr:country": "ES", "name": "Jaume", "opening_hours": "Mo-Su 06:30-21:00", "shop": "bakery", "wheelchair": "yes"}}, {"type": "node", "id": 1320935232, "lat": 41.4064857, "lon": 2.1904601, "tags": {"addr:country": "ES", "name": "Forn", "shop": "bakery", "wheelchair": "limited"}}, {"type": "node", "id": 1347143538, "lat": 41.393132, "lon": 2.178108, "tags": {"addr:country": "ES", "name": "Fet d'ara", "name:ca": "Fet d'ara", "name:ru": "\u0442\u0443\u0442 \u0435\u0441\u0442\u044c \u0442\u0438\u0440\u0430\u043c\u0438\u0441\u0443", "shop": "bakery", "wheelchair": "limited"}}, {"type": "node", "id": 1357828862, "lat": 41.4037433, "lon": 2.1938343, "tags": {"amenity": "cafe", "name": "Cafeter\u00eda universitaria", "opening_hours": "Mo-Fr 09:00-19:00"}}, {"type": "node", "id": 1445594488, "lat": 41.3972642, "lon": 2.1810241, "tags": {"amenity": "bar", "name": "Bar Teatre", "source": "Trabajo de campo"}}, {"type": "node", "id": 1445598554, "lat": 41.3954743, "lon": 2.1819512, "tags": {"amenity": "bar", "name": "Bar Lugo", "source": "Trabajo de campo"}}, {"type": "node", "id": 1445598555, "lat": 41.3974156, "lon": 2.1815331, "tags": {"amenity": "bar", "name": "Bar Norte", "source": "Trabajo de campo"}}, {"type": "node", "id": 1445598556, "lat": 41.3955442, "lon": 2.1810719, "tags": {"amenity": "bar", "name": "Bar Territori", "source": "Trabajo de campo"}}, {"type": "node", "id": 1445598557, "lat": 41.3948025, "lon": 2.1817533, "tags": {"amenity": "cafe", "indoor_seating": "yes", "name": "Bracafe", "opening_hours": "Mo-Fr 07:00-21:00, Sa,Su,PH 08:00-21:00", "outdoor_seating": "yes", "source": "Trabajo de campo", "wheelchair": "yes"}}, {"type": "node", "id": 1445598558, "lat": 41.3971799, "lon": 2.1817149, "tags": {"amenity": "bar", "name": "La Catrina", "phone": "+34935308087", "source": "Trabajo de campo"}}, {"type": "node", "id": 1445598559, "lat": 41.3962559, "lon": 2.1802227, "tags": {"amenity": "cafe", "name": "Joys cafe", "opening_hours": "Mo-Fr 07:45-23:45, Sa 08:45-23:45, Su,PH 08:45-14:45", "source": "Trabajo de campo", "wheelchair": "yes"}}, {"type": "node", "id": 1445598560, "lat": 41.3970643, "lon": 2.1834626, "tags": {"amenity": "cafe", "name": "La estrella", "source": "Trabajo de campo"}}, {"type": "node", "id": 1445598561, "lat": 41.3955456, "lon": 2.181968, "tags": {"addr:housenumber": "35", "addr:postcode": "08013", "addr:street": "Carrer de Ribes", "amenity": "bar", "email": "info@contracorrentbar.com", "name": "Contracorrent", "opening_hours": "Mo,Th 17:30-23:00; Fr-Su 12:30-16:30,19:00-23:00", "outdoor_seating": "yes", "phone": "+34 608865917", "website": "https://contracorrentbar.com/"}}, {"type": "node", "id": 1457557311, "lat": 41.4040098, "lon": 2.1753482}, {"type": "node", "id": 1457557312, "lat": 41.4040364, "lon": 2.1753376}, {"type": "node", "id": 1457557313, "lat": 41.4040385, "lon": 2.1754764}, {"type": "node", "id": 1457557314, "lat": 41.4040651, "lon": 2.1754658}, {"type": "node", "id": 1475966934, "lat": 41.3973886, "lon": 2.1810451, "tags": {"addr:country": "ES", "name": "Forn Mateu", "shop": "bakery", "source": "Trabajo de campo"}}, {"type": "node", "id": 1658424921, "lat": 41.3972738, "lon": 2.1884132, "tags": {"amenity": "fast_food", "name": "Forastera"}}, {"type": "node", "id": 1658425572, "lat": 41.3967185, "lon": 2.1890325, "tags": {"addr:city": "Barcelona", "addr:postcode": "08018", "addr:street": "Carrer de Zamora", "amenity": "cafe", "cuisine": "regional", "internet_access": "yes", "internet_access:fee": "no", "name": "Rebeka", "opening_hours": "Mo-Fr 08:00-17:00", "opening_hours:covid19": "open", "outdoor_seating": "yes"}}, {"type": "node", "id": 1676887354, "lat": 41.3893721, "lon": 2.1838516, "tags": {"amenity": "restaurant", "cuisine": "spanish", "name": "Ciudadela"}}, {"type": "node", "id": 1676888054, "lat": 41.3894566, "lon": 2.1839803, "tags": {"amenity": "cafe", "name": "Coffee"}}, {"type": "node", "id": 1844121282, "lat": 41.4054694, "lon": 2.1759603, "tags": {"name": "Plataforma Carnica", "shop": "butcher"}}, {"type": "node", "id": 1844121288, "lat": 41.4056446, "lon": 2.1761931, "tags": {"amenity": "cafe", "name": "Cafe Caribean"}}, {"type": "node", "id": 1857242573, "lat": 41.4044653, "lon": 2.1763837, "tags": {"name": "Carnicer\u00eda Argentina", "shop": "butcher"}}, {"type": "node", "id": 1859071352, "lat": 41.4041884, "lon": 2.1764982, "tags": {"amenity": "restaurant", "name": "Mare"}}, {"type": "node", "id": 1859071357, "lat": 41.4041496, "lon": 2.1764496, "tags": {"amenity": "cafe", "name": "La Bicicleta"}}, {"type": "node", "id": 1860626979, "lat": 41.4053857, "lon": 2.176719, "tags": {"amenity": "cafe"}}, {"type": "node", "id": 1870219445, "lat": 41.3971102, "lon": 2.1723951, "tags": {"addr:housenumber": "55", "addr:street": "Passeig de Sant Joan", "amenity": "restaurant", "name": "Snack 55"}}, {"type": "node", "id": 2065469521, "lat": 41.4035591, "lon": 2.2028602, "tags": {"amenity": "cafe", "name": "El Forn del Metro"}}, {"type": "node", "id": 2075453725, "lat": 41.4012569, "lon": 2.1966826, "tags": {"addr:housenumber": "92", "addr:street": "Carrer Roc Boronat", "amenity": "restaurant", "cuisine": "spanish", "name": "La Mossegada del Poblenou", "smoking": "outside"}}, {"type": "node", "id": 2085656651, "lat": 41.4027075, "lon": 2.1977649, "tags": {"addr:city": "Barcelona", "addr:housenumber": "178", "addr:postcode": "08005", "addr:street": "Carrer de Pere IV", "amenity": "restaurant", "cuisine": "japanese", "name": "Arce", "phone": "+34 93 309 86 75"}}, {"type": "node", "id": 2137277603, "lat": 41.398798, "lon": 2.1708209, "tags": {"addr:housenumber": "96", "addr:street": "Passeig de Sant Joan", "amenity": "cafe", "name": "On Caf\u00e9", "opening_hours": "Mo-Fr 08:00-17:00", "outdoor_seating": "yes", "wheelchair": "yes"}}, {"type": "node", "id": 2158865607, "lat": 41.399043, "lon": 2.1884309, "tags": {"addr:housenumber": "22", "addr:street": "Carrer de T\u00e0nger", "amenity": "cafe", "contact:phone": "+34 933 09 33 75", "contact:website": "http://www.carrotcafe.es/", "name": "Carrot Caf\u00e9", "name:ca": "Carrot caf\u00e9", "name:en": "Carrot caf\u00e9", "name:es": "Carrot caf\u00e9"}}, {"type": "node", "id": 2187210264, "lat": 41.4023416, "lon": 2.1952788, "tags": {"addr:city": "Barcelona", "addr:housenumber": "114", "addr:postcode": "08018", "addr:street": "Carrer de Roc Boronat", "amenity": "restaurant", "cuisine": "mediterranean", "diet:vegan": "no", "diet:vegetarian": "only", "name": "Sopa", "organic": "only", "phone": "+34 933 09 56 76", "smoking": "outside", "takeaway": "yes", "website": "http://www.sopa.vg/"}}, {"type": "node", "id": 2187257123, "lat": 41.4047259, "lon": 2.1943414, "tags": {"amenity": "bar", "name": "24 mm"}}, {"type": "node", "id": 2187259019, "lat": 41.404967, "lon": 2.1945963, "tags": {"addr:city": "Barcelona", "addr:housenumber": "173", "addr:street": "Avinguda Diagonal", "amenity": "restaurant", "cuisine": "japanese", "name": "Nanaya", "phone": "+34 933008401", "smoking": "no", "source": "http://nanaya.es/", "website": "http://nanaya.es/"}}, {"type": "node", "id": 2187270200, "lat": 41.4055941, "lon": 2.1932194, "tags": {"addr:city": "Barcelona", "addr:housenumber": "150", "addr:postcode": "08018", "addr:street": "Carrer de la Llacuna", "amenity": "restaurant", "cuisine": "italian", "name": "FRATELLI LA BUFALA", "opening_hours": "\"local cerrado\"", "website": "http://www.fratellilabufala.eu"}}, {"type": "node", "id": 2187275712, "lat": 41.4061323, "lon": 2.1909641}, {"type": "node", "id": 2187282137, "lat": 41.4017897, "lon": 2.196068, "tags": {"addr:city": "Barcelona", "addr:housenumber": "211", "addr:postcode": "08018", "addr:street": "Carrer dels Almog\u00e0vers", "amenity": "restaurant", "cuisine": "spanish", "name": "El Catacroquet", "phone": "+34932809059", "website": "http://catacroquet.es/"}}, {"type": "node", "id": 2188278126, "lat": 41.4065634, "lon": 2.1938272, "tags": {"addr:housenumber": "153", "addr:postcode": "08018", "addr:street": "Rambla del Poblenou", "amenity": "restaurant", "cuisine": "japanese", "name": "Restaurante Huang Qingfang", "name:ca": "Yoshinoya-8", "name:en": "Yoshinoya-8", "name:es": "Yoshinoya-8"}}, {"type": "node", "id": 2189940887, "lat": 41.4021669, "lon": 2.1724823, "tags": {"addr:housenumber": "4", "addr:postcode": "08013", "addr:street": "Plaza Sagrada Familia", "amenity": "pub", "name": "Michael Collins", "opening_hours": "Su-Th 13:00-02:30, Fr,Sa 13:00-03:00", "website": "michaelcollinspubs.com"}}, {"type": "node", "id": 2189959511, "lat": 41.4053062, "lon": 2.1939024, "tags": {"amenity": "restaurant", "name": "Frankfurt Diagonal", "wheelchair": "limited"}}, {"type": "node", "id": 2192226738, "lat": 41.4034935, "lon": 2.1960697, "tags": {"amenity": "restaurant", "cuisine": "pizza", "name": "L'Aldil\u00e0"}}, {"type": "node", "id": 2193095290, "lat": 41.4054932, "lon": 2.1943451, "tags": {"amenity": "fast_food", "cuisine": "kebab", "name": "El rinc\u00f3n de Glorias"}}, {"type": "node", "id": 2193095298, "lat": 41.4055556, "lon": 2.194455, "tags": {"amenity": "cafe", "cuisine": "spanish", "name": "El Duende"}}, {"type": "node", "id": 2193095318, "lat": 41.4043344, "lon": 2.1967134, "tags": {"amenity": "restaurant", "name": "Can Pizza"}}, {"type": "node", "id": 2193095338, "lat": 41.40326, "lon": 2.1985353, "tags": {"addr:housenumber": "118", "addr:street": "Rambla de Poblenou", "amenity": "bar", "name": "Saint Pol"}}, {"type": "node", "id": 2193095358, "lat": 41.4055677, "lon": 2.1949217, "tags": {"shop": "kiosk"}}, {"type": "node", "id": 2193095377, "lat": 41.4049762, "lon": 2.1976093, "tags": {"amenity": "cafe", "cuisine": "coffee_shop", "name": "Sant Mart\u00ed"}}, {"type": "node", "id": 2193095381, "lat": 41.4058392, "lon": 2.1946428, "tags": {"name": "Keisy", "operator": "Keisy", "shop": "supermarket"}}, {"type": "node", "id": 2193095391, "lat": 41.4036263, "lon": 2.1981913, "tags": {"amenity": "restaurant", "cuisine": "sandwich", "name": "Espress a T\u00e9"}}, {"type": "node", "id": 2193095406, "lat": 41.4042962, "lon": 2.1981726, "tags": {"amenity": "cafe", "cuisine": "spanish", "name": "Hmm que rico"}}, {"type": "node", "id": 2193095414, "lat": 41.402733, "lon": 2.1969736, "tags": {"addr:city": "Barcelona", "addr:street": "Carrer de la Llacuna", "amenity": "restaurant", "cuisine": "spanish", "name": "Braseria Julian"}}, {"type": "node", "id": 2193095435, "lat": 41.4026626, "lon": 2.1971936, "tags": {"addr:city": "Barcelona", "amenity": "restaurant", "cuisine": "spanish", "name": "Llacuna"}}, {"type": "node", "id": 2193095440, "lat": 41.4027631, "lon": 2.1988499, "tags": {"addr:housenumber": "103", "addr:street": "Ramble de Poblenou", "amenity": "restaurant", "cuisine": "turkish", "name": "Hitit"}}, {"type": "node", "id": 2193389549, "lat": 41.4021933, "lon": 2.1993724, "tags": {"amenity": "restaurant", "name": "L'altre Romero"}}, {"type": "node", "id": 2193391405, "lat": 41.4045879, "lon": 2.1958203, "tags": {"amenity": "restaurant", "cuisine": "sushi", "name": "3E sushi"}}, {"type": "node", "id": 2193415475, "lat": 41.4035357, "lon": 2.1962709, "tags": {"amenity": "restaurant", "cuisine": "spanish"}}, {"type": "node", "id": 2193421646, "lat": 41.405634, "lon": 2.1917031, "tags": {"brand": "Carrefour", "brand:wikidata": "Q217599", "brand:wikipedia": "fr:Carrefour (enseigne)", "name": "Carrefour", "shop": "supermarket", "toilets:wheelchair": "yes", "wheelchair": "yes"}}, {"type": "node", "id": 2193421652, "lat": 41.405107, "lon": 2.1919659, "tags": {"amenity": "fast_food", "brand": "Burger King", "brand:wikidata": "Q177054", "brand:wikipedia": "es:Burger King", "cuisine": "burger", "name": "Burger King", "opening_hours": "Su-Th 11:00-24:00; Fr,Sa 11:00-01:00", "takeaway": "yes", "toilets:wheelchair": "yes", "wheelchair": "yes"}}, {"type": "node", "id": 2197824500, "lat": 41.4016702, "lon": 2.2016399, "tags": {"amenity": "bar", "name": "Serrano"}}, {"type": "node", "id": 2197837743, "lat": 41.4018412, "lon": 2.2007225, "tags": {"name": "Cruixent", "shop": "bakery"}}, {"type": "node", "id": 2197837768, "lat": 41.4019136, "lon": 2.2008137, "tags": {"name": "El manduxot", "shop": "greengrocer"}}, {"type": "node", "id": 2250304777, "lat": 41.3949532, "lon": 2.1746886, "tags": {"addr:city": "Barcelona", "addr:country": "ES", "addr:housenumber": "17-18", "addr:postcode": "08010", "addr:street": "Pla\u00e7a de Tetuan", "amenity": "cafe", "name": "Bracaf\u00e9"}}, {"type": "node", "id": 2264591763, "lat": 41.3956355, "lon": 2.1760801, "tags": {"addr:city": "Barcelona", "addr:country": "ES", "addr:housenumber": "33", "addr:postcode": "08010", "addr:street": "Pla\u00e7a de Tetuan", "name": "Forn Artes\u00e0", "name:ca": "Forn Artes\u00e0", "shop": "bakery", "toilets:wheelchair": "yes", "wheelchair": "yes"}}, {"type": "node", "id": 2269115007, "lat": 41.3994551, "lon": 2.1787094, "tags": {"addr:housenumber": "433", "addr:street": "Carrer de la Diputaci\u00f3", "contact:email": "cerveses@labonapinta.com", "contact:phone": "+34932316703;+34600757032", "contact:website": "http://labonapinta.com", "description": "Cerveses artesanes i d'importaci\u00f3. Craft beer specialists.", "drink:beer": "draught;bottled", "name": "La Bona Pinta", "shop": "alcohol", "toilets:wheelchair": "no", "wheelchair": "limited"}}, {"type": "node", "id": 2292687549, "lat": 41.395911, "lon": 2.190529}, {"type": "node", "id": 2364075421, "lat": 41.3936143, "lon": 2.1807074, "tags": {"addr:housenumber": "65", "addr:postcode": "08013", "addr:street": "Carrer d'Al\u00ed Bei", "amenity": "restaurant", "cuisine": "chinese", "indoor_seating": "yes", "name": "Chen-Ji", "opening_hours": "Mo-Sa 13:00-24:00; Su 13:00-23:30", "outdoor_seating": "no", "phone": "+34932476831"}}, {"type": "node", "id": 2400689820, "lat": 41.4006365, "lon": 2.1961225, "tags": {"addr:city": "Barcelona", "addr:housenumber": "132", "addr:postcode": "08005", "addr:street": "Carrer de Pere IV", "amenity": "restaurant", "cuisine": "international", "name": "L\u00facuma", "phone": "+34 933569310", "smoking": "outside", "takeaway": "yes"}}, {"type": "node", "id": 2408482659, "lat": 41.402164, "lon": 2.193314, "tags": {"addr:city": "Barcelona", "addr:street": "Carrer Ciutat de Granada", "amenity": "restaurant", "cuisine": "spanish", "name": "Quinabarra", "opening_hours": "Mo-Fr 08:00-17:00", "smoking": "no"}}, {"type": "node", "id": 2502038301, "lat": 41.392798, "lon": 2.1884594, "tags": {"brand": "Lidl", "brand:wikidata": "Q151954", "brand:wikipedia": "en:Lidl", "internet_access": "wlan", "name": "Lidl", "opening_hours": "Mo-Sa 09:00-21:00", "shop": "supermarket", "website": "https://www.lidl.es/"}}, {"type": "node", "id": 2528521163, "lat": 41.4003612, "lon": 2.1959358, "tags": {"name": "Alimentacion", "shop": "convenience"}}, {"type": "node", "id": 2555598408, "lat": 41.4058852, "lon": 2.1929942, "tags": {"amenity": "restaurant", "name": "Aliaga", "opening_hours": "Mo-Sa 13:00-16:00"}}, {"type": "node", "id": 2576974231, "lat": 41.4003824, "lon": 2.1841121, "tags": {"amenity": "bar", "name": "Seneca"}}, {"type": "node", "id": 2598991516, "lat": 41.4041684, "lon": 2.1789166, "tags": {"addr:city": "Barcelona", "addr:housename": "490", "addr:postcode": "08013", "addr:street": "Carrer de Val\u00e8ncia", "name": "keisy", "operator": "keisy", "shop": "supermarket", "toilets:wheelchair": "yes", "wheelchair": "yes"}}, {"type": "node", "id": 2617962817, "lat": 41.4049285, "lon": 2.1919361, "tags": {"addr:city": "Barcelona", "addr:housenumber": "188", "addr:postcode": "08018", "addr:street": "Avinguda Diagonal", "amenity": "fast_food", "brand": "McDonald's", "brand:wikidata": "Q38076", "brand:wikipedia": "es:McDonald's", "cuisine": "burger", "name": "McDonald's", "opening_hours": "Su-Th 08:00-23:30; Fr,Sa 08:00-01:00"}}, {"type": "node", "id": 2684052224, "lat": 41.4052109, "lon": 2.1931117, "tags": {"addr:city": "Barcelona", "addr:housenumber": "208", "addr:postcode": "08018", "addr:street": "Avinguda Diagonal", "amenity": "restaurant", "cuisine": "japanese", "name": "Pai Mei", "opening_hours": "Mo-Su 12:30-16:30,19:00-23:00", "outdoor_seating": "no"}}, {"type": "node", "id": 2703829256, "lat": 41.4007421, "lon": 2.1991334, "tags": {"addr:city": "Barcelona", "addr:housenumber": "155", "addr:postcode": "08005", "addr:street": "Carrer de Pujades", "amenity": "cafe", "cuisine": "regional", "name": "Bon Gust"}}, {"type": "node", "id": 2756677882, "lat": 41.4051928, "lon": 2.1932736}, {"type": "node", "id": 2764585970, "lat": 41.4033811, "lon": 2.2031684, "tags": {"addr:country": "ES", "brand": "Granier", "brand:wikidata": "Q102311169", "name": "Granier", "shop": "bakery"}}, {"type": "node", "id": 2781788371, "lat": 41.3994356, "lon": 2.197621, "tags": {"addr:city": "Barcelona", "addr:housenumber": "127", "addr:street": "Carrer de Pujades", "building": "kiosk", "building:levels": "1", "shop": "kiosk"}}, {"type": "node", "id": 2839059713, "lat": 41.3950131, "lon": 2.1796065, "tags": {"addr:housenumber": "113", "addr:postcode": "08013", "addr:street": "Carrer de N\u00e0pols", "name": "Frescuore", "opening_hours": "Mo-Fr 09:00-21:00; Sa-Su 09:00-14:30, 17:00-20:00", "shop": "greengrocer", "website": "www.frescuore.com"}}, {"type": "node", "id": 2883865905, "lat": 41.3896689, "lon": 2.1834095, "tags": {"addr:city": "Barcelona", "addr:housenumber": "4", "addr:postcode": "08018", "addr:street": "Passeig de Llu\u00eds Companys", "amenity": "restaurant", "cuisine": "regional", "name": "Mes\u00f3n Castellano", "phone": "+34 93 309 29 25"}}, {"type": "node", "id": 2891634433, "lat": 41.4032408, "lon": 2.2024557, "tags": {"addr:city": "Barcelona", "addr:housenumber": "207", "addr:postcode": "08005", "addr:street": "Carrer de Pujades", "amenity": "restaurant", "cuisine": "indian", "name": "Nice & Spice", "phone": "+34 933 08 95 48", "smoking": "outside", "website": "http://www.restaurantenicespice.com"}}, {"type": "node", "id": 2915567416, "lat": 41.4032667, "lon": 2.2025276, "tags": {"addr:city": "Barcelona", "addr:housenumber": "209", "addr:postcode": "08005", "addr:street": "Carrer de Pujades", "amenity": "restaurant", "cuisine": "italian", "name": "O Principe", "opening_hours": "Mo-Th 12:00-16:00,20:00-23:30; Fr-Su 12:00-16:00,20:00-00:00"}}, {"type": "node", "id": 2921806501, "lat": 41.4011887, "lon": 2.1998376, "tags": {"addr:city": "Barcelona", "addr:housenumber": "161", "addr:street": "Carrer de Pujades", "amenity": "restaurant", "name": "Spoon factory"}}, {"type": "node", "id": 2923421005, "lat": 41.4043568, "lon": 2.1902175}, {"type": "node", "id": 2923421010, "lat": 41.4052501, "lon": 2.1932935}, {"type": "node", "id": 2923438698, "lat": 41.3919179, "lon": 2.1872076, "tags": {"addr:city": "Barcelona", "addr:country": "ES", "addr:housenumber": "2", "addr:postcode": "08018", "addr:street": "Avinguda Meridiana", "amenity": "restaurant", "cuisine": "italian", "name": "La Forchetta", "phone": "+34 933285896", "website": "https://www.laforchetta.es/"}}, {"type": "node", "id": 2966340931, "lat": 41.4022886, "lon": 2.1998883, "tags": {"addr:housenumber": "100", "addr:street": "Rambla del Poblenou", "amenity": "bar", "name": "El Capritx", "name:ca": "El Capritx", "name:en": "El Capritx", "name:es": "El Capritx"}}, {"type": "node", "id": 2966341089, "lat": 41.4023159, "lon": 2.1998443, "tags": {"addr:housenumber": "100", "addr:street": "Rambla del Poblenou", "name": "rico", "shop": "supermarket"}}, {"type": "node", "id": 3005463983, "lat": 41.3972585, "lon": 2.1916091, "tags": {"addr:city": "Barcelona", "addr:housenumber": "88", "addr:postcode": "08018", "addr:street": "Carrer de Pamplona", "amenity": "pub", "name": "Ceferino", "smoking": "outside"}}, {"type": "node", "id": 3009100214, "lat": 41.4078382, "lon": 2.1881211, "tags": {"addr:housenumber": "55", "addr:postcode": "08018", "addr:street": "Carrer del Clot", "amenity": "bar", "name": "Bodega Sopena", "phone": "+34 932311505", "wheelchair": "limited"}}, {"type": "node", "id": 3009145177, "lat": 41.4086673, "lon": 2.1927392, "tags": {"addr:housenumber": "53", "addr:postcode": "08018", "addr:street": "Carrer de Sant Joan de Malta", "amenity": "bar", "contact:facebook": "https://www.facebook.com/CellerCaLaPaqui", "name": "Celler Ca la Paqui", "phone": "+34 654366853"}}, {"type": "node", "id": 3023964339, "lat": 41.4007199, "lon": 2.1997229, "tags": {"addr:city": "Barcelona", "addr:housenumber": "168", "addr:postcode": "08005", "addr:street": "Carrer de Pujades", "amenity": "fast_food", "branch": "Poblenou", "contact:phone": "+34933285188", "cuisine": "burger", "name": "Timesburg", "smoking": "outside", "website": "https://www.timesburg.com/"}}, {"type": "node", "id": 3046155434, "lat": 41.4089286, "lon": 2.1951206, "tags": {"amenity": "cafe", "name": "Forn de pa Gil", "shop": "bakery"}}, {"type": "node", "id": 3048076838, "lat": 41.4045744, "lon": 2.199062, "tags": {"name:signed": "no", "opening_hours": "Mo-Fr 07:00-15:00; PH,Sa,Su 08:00-15:00", "shop": "kiosk"}}, {"type": "node", "id": 3048078236, "lat": 41.4013897, "lon": 2.2006002, "tags": {"shop": "kiosk"}}, {"type": "node", "id": 3048079634, "lat": 41.4024271, "lon": 2.199798, "tags": {"amenity": "restaurant", "name": "Recasens", "smoking": "no"}}, {"type": "node", "id": 3049368238, "lat": 41.4078884, "lon": 2.1884107, "tags": {"shop": "kiosk", "wheelchair": "yes"}}, {"type": "node", "id": 3049368239, "lat": 41.4077785, "lon": 2.1885526, "tags": {"amenity": "ice_cream", "cuisine": "ice_cream", "name": "La Lleteria", "wheelchair": "limited"}}, {"type": "node", "id": 3049368240, "lat": 41.4080647, "lon": 2.1884044, "tags": {"addr:city": "Barcelona", "addr:housenumber": "72-74", "addr:postcode": "08018", "addr:street": "Carrer del Clot", "contact:email": "info@pastisserialapalma.com", "contact:phone": "+34 932325257;+34 932323706", "contact:website": "https://www.pastisserialapalma.com", "name": "La Palma", "opening_hours": "Mo 08:30-14:30,16:30-20:30; Tu-Fr 08:00-15:00,16:00-20:30; Sa 08:00-20:00; Su,PH 08:00-17:00", "shop": "pastry", "wheelchair": "limited"}}, {"type": "node", "id": 3049368241, "lat": 41.4077954, "lon": 2.1880996, "tags": {"addr:city": "Barcelona", "addr:country": "ES", "addr:housenumber": "53", "addr:postcode": "08018", "addr:street": "Carrer del Clot", "name": "Mon Pa", "shop": "bakery"}}, {"type": "node", "id": 3049368344, "lat": 41.4082815, "lon": 2.1885259, "tags": {"addr:city": "Barcelona", "addr:country": "ES", "addr:housenumber": "76", "addr:postcode": "08018", "addr:street": "Carrer del Clot", "amenity": "bar", "name": "Clot76", "outdoor_seating": "no", "wheelchair": "no"}}, {"type": "node", "id": 3049371937, "lat": 41.4077189, "lon": 2.188061, "tags": {"addr:city": "Barcelona", "addr:housenumber": "49", "addr:street": "Carrer del Clot", "amenity": "restaurant", "cuisine": "pizza", "internet_access": "wlan", "name": "La Clotenca"}}, {"type": "node", "id": 3049372238, "lat": 41.408738, "lon": 2.1894997, "tags": {"addr:city": "Barcelona", "addr:housenumber": "27", "addr:street": "Carrer de Rossend Nobas", "brand": "Dia", "brand:wikidata": "Q925132", "brand:wikipedia": "es:DIA (supermercados)", "name": "Dia", "operator": "Distribuidora Internacional de Alimentaci\u00f3n, S.A.", "shop": "supermarket", "toilets:wheelchair": "no", "website": "https://www.dia.es", "wheelchair": "limited"}}, {"type": "node", "id": 3049395437, "lat": 41.4068426, "lon": 2.1884295, "tags": {"name": "Pa de Georgia", "shop": "bakery"}}, {"type": "node", "id": 3049395438, "lat": 41.4074006, "lon": 2.1890534, "tags": {"addr:city": "Barcelona", "addr:housenumber": "15", "addr:street": "Pla\u00e7a del Mercat", "amenity": "restaurant", "name": "Copi 2"}}, {"type": "node", "id": 3049395439, "lat": 41.4075568, "lon": 2.1891002, "tags": {"addr:city": "Barcelona", "addr:housenumber": "19", "addr:street": "Pla\u00e7a del Mercat", "amenity": "bar", "name": "El refugio de los 33"}}, {"type": "node", "id": 3104844223, "lat": 41.3936635, "lon": 2.1812705, "tags": {"addr:city": "Barcelona", "addr:housenumber": "85", "addr:postcode": "08013", "addr:street": "Carrer de N\u00e0pols", "amenity": "cafe", "internet_access": "wlan", "name": "Bar N\u00e1poles", "smoking": "outside"}}, {"type": "node", "id": 3147200574, "lat": 41.3930166, "lon": 2.1858405, "tags": {"brand": "Mercadona", "brand:wikidata": "Q377705", "brand:wikipedia": "es:Mercadona", "name": "Mercadona", "opening_hours": "Mo-Sa 09:00-21:00", "shop": "supermarket", "website": "https://www.mercadona.es"}}, {"type": "node", "id": 3147200575, "lat": 41.391263, "lon": 2.1850318, "tags": {"addr:housenumber": "10", "addr:street": "Carrer de N\u00e0pols", "check_date:opening_hours": "2021-08-26", "name": "Sorli Discau", "opening_hours": "Mo-Sa 09:00-21:00", "shop": "supermarket", "website": "http://www.sorlidiscau.es", "wheelchair": "yes"}}, {"type": "node", "id": 3316542524, "lat": 41.3954324, "lon": 2.186404, "tags": {"addr:city": "Barcelona", "addr:housenumber": "107", "addr:postcode": "08018", "addr:street": "Carrer de la Marina", "amenity": "cafe", "cuisine": "churreria", "internet_access": "no", "name": "Churrer\u00eda J. Argil\u00e9s", "opening_hours": "Sa-Su 00:00-24:00; Tu-Fr 08:30-21:30", "phone": "+34 932 32 43 07", "smoking": "yes", "takeaway": "only"}}, {"type": "node", "id": 3361212874, "lat": 41.3965202, "lon": 2.1918882, "tags": {"addr:housenumber": "120", "addr:street": "Carrer de Pallars", "amenity": "fast_food", "cuisine": "american"}}, {"type": "node", "id": 3386550692, "lat": 41.4051386, "lon": 2.1928962, "tags": {"addr:street": "Barcelona Glorias", "amenity": "fast_food", "cuisine": "german", "name": "kurz & gut", "phone": "93486096", "toilets:wheelchair": "yes", "wheelchair": "yes"}}, {"type": "node", "id": 3493188076, "lat": 41.3972239, "lon": 2.1809844, "tags": {"addr:city": "BARCELONA", "addr:housenumber": "137", "addr:postcode": "08013", "addr:street": "Carrer de Casp", "facebook": "https://www.facebook.com/pages/Fruits-Dador/210124549120608?sk=timeline&ref=page_internal", "name": "Fruits Dador", "phone": "+34 93 232 2699", "shop": "greengrocer", "website": "http://www.fruitsdador.com/index.html"}}, {"type": "node", "id": 3493250922, "lat": 41.3974177, "lon": 2.1793804, "tags": {"amenity": "bar"}}, {"type": "node", "id": 3564285296, "lat": 41.3935416, "lon": 2.1843499, "tags": {"amenity": "cafe"}}, {"type": "node", "id": 3635432082, "lat": 41.3951234, "lon": 2.1817653, "tags": {"amenity": "restaurant", "cuisine": "japanese", "name": "Kyoka II", "opening_hours": "Mo-Sa 12:00-16:00, 20:00-00:00"}}, {"type": "node", "id": 3645218871, "lat": 41.3970905, "lon": 2.1792257, "tags": {"addr:city": "Barcelona", "addr:housenumber": "135", "addr:postcode": "08013", "addr:street": "Carrer de Sic\u00edlia", "amenity": "restaurant", "cuisine": "regional", "delivery": "no", "name": "Asador Izarra", "opening_hours": "Mo-Sa 13:00-15:45,21:00-23:30", "phone": "+34 93 245 2103", "smoking": "no", "takeaway": "no", "wheelchair": "no"}}, {"type": "node", "id": 3661240687, "lat": 41.3916672, "lon": 2.1799691}, {"type": "node", "id": 3661240688, "lat": 41.3916453, "lon": 2.1799995}, {"type": "node", "id": 3661240689, "lat": 41.3916587, "lon": 2.1800167}, {"type": "node", "id": 3661240692, "lat": 41.3916807, "lon": 2.1799863}, {"type": "node", "id": 3675225749, "lat": 41.3962184, "lon": 2.1819386, "tags": {"name": "Fruita dolca", "shop": "greengrocer"}}, {"type": "node", "id": 3675226225, "lat": 41.3962334, "lon": 2.1819558, "tags": {"amenity": "cafe"}}, {"type": "node", "id": 3677285556, "lat": 41.3991799, "lon": 2.1808103, "tags": {"name": "GoodNews", "shop": "kiosk"}}, {"type": "node", "id": 3677438326, "lat": 41.3993031, "lon": 2.1791647, "tags": {"amenity": "restaurant", "cuisine": "sandwich", "name": "El Pibe", "name:es": "Frankfurt Cervecer\u00eda El Pibe"}}, {"type": "node", "id": 3680209540, "lat": 41.3994688, "lon": 2.1788428, "tags": {"shop": "bakery", "toilets:wheelchair": "no", "wheelchair": "limited"}}, {"type": "node", "id": 3682089125, "lat": 41.4054123, "lon": 2.1769855, "tags": {"addr:city": "Barcelona", "addr:housenumber": "425", "addr:postcode": "08013", "addr:street": "Carrer de Mallorca", "brand": "Caprabo", "brand:wikidata": "Q1980781", "brand:wikipedia": "en:Caprabo", "name": "Caprabo", "opening_hours": "Mo-Sa 09:00-21:00", "operator": "Caprabo", "phone": "+34 902 11 6060", "shop": "supermarket"}}, {"type": "node", "id": 3682112773, "lat": 41.4045329, "lon": 2.178466, "tags": {"addr:city": "Barcelona", "addr:housenumber": "231", "addr:postcode": "08013", "addr:street": "Carrer de Padilla", "brand": "Dia", "brand:wikidata": "Q925132", "brand:wikipedia": "es:DIA (supermercados)", "name": "Dia", "opening_hours": "Mo-Sa 09:00-14:30,17:00-21:00; Fr 09:00-21:00", "operator": "Distribuidora Internacional de Alimentaci\u00f3n, S.A.", "shop": "supermarket", "website": "https://www.dia.es"}}, {"type": "node", "id": 3711001731, "lat": 41.4078204, "lon": 2.1892507, "tags": {"addr:city": "Barcelona", "addr:housenumber": "1", "addr:postcode": "08018", "addr:street": "Carrer del Cabanyal", "amenity": "restaurant", "cuisine": "regional", "name": "Ca la Cuca", "takeaway": "only"}}, {"type": "node", "id": 3749438191, "lat": 41.4023115, "lon": 2.1740935, "tags": {"amenity": "cafe", "brand": "Starbucks", "brand:wikidata": "Q37158", "brand:wikipedia": "en:Starbucks", "cuisine": "coffee_shop", "name": "Starbucks", "official_name": "Starbucks Coffee", "takeaway": "yes"}}, {"type": "node", "id": 3749438192, "lat": 41.4023708, "lon": 2.1741726, "tags": {"amenity": "fast_food", "brand": "Subway", "brand:wikidata": "Q244457", "brand:wikipedia": "en:Subway (restaurant)", "cuisine": "sandwich", "name": "Subway", "takeaway": "yes"}}, {"type": "node", "id": 3815464457, "lat": 41.403019, "lon": 2.178883, "tags": {"addr:city": "Barcelona", "addr:housenumber": "459", "addr:street": "Carrer d'Arag\u00f3", "amenity": "cafe", "description": "facebook: Copeta BCN", "name": "Copeta", "outdoor_seating": "yes"}}, {"type": "node", "id": 3821202473, "lat": 41.3941599, "lon": 2.1814571, "tags": {"addr:city": "Barcelona", "amenity": "restaurant", "name": "Restaurant Pedro-Mari"}}, {"type": "node", "id": 3890922254, "lat": 41.4046885, "lon": 2.1836218, "tags": {"amenity": "restaurant", "name": "Casa Paco", "name:ca": "Casa Paco", "name:en": "El Paco", "name:es": "El Paco", "opening_hours": "Mo-Sa"}}, {"type": "node", "id": 3923467388, "lat": 41.3986512, "lon": 2.1828666, "tags": {"addr:city": "Barcelona", "addr:housenumber": "151", "addr:postcode": "08013", "addr:street": "Carrer de Casp", "amenity": "restaurant", "contact:facebook": "https://www.facebook.com/ayresdelsurestaurante/", "cuisine": "mediterranean", "name": "Ayres del Sur", "opening_hours": "Mo-Su 01:00-04:00", "phone": "+34 932 46 99 88"}}, {"type": "node", "id": 3996165257, "lat": 41.4016882, "lon": 2.1757519, "tags": {"addr:city": "Barcelona", "addr:housenumber": "292", "addr:postcode": "08013", "addr:street": "Carrer de Sardenya", "amenity": "bar", "description": "Bar barcelona : los due\u00f1os son muy majos ^.^", "name": "Bar barcelona"}}, {"type": "node", "id": 4011458618, "lat": 41.3983385, "lon": 2.182871, "tags": {"addr:city": "Barcelona", "addr:housenumber": "192", "addr:postcode": "08013", "addr:street": "Carrer de Casp", "amenity": "bar", "contact:facebook": "https://www.facebook.com/elcafeblau/", "name": "El Caf\u00e8 Blau", "opening_hours": "Mo-Fr 10:30-22:30; Sa 12:00-24:00; Su off", "phone": "+34 932 47 16 59", "smoking": "outside"}}, {"type": "node", "id": 4042474702, "lat": 41.4034227, "lon": 2.19997, "tags": {"amenity": "restaurant", "name": "El Timbal"}}, {"type": "node", "id": 4138769013, "lat": 41.3970017, "lon": 2.1913538, "tags": {"addr:housenumber": "88", "addr:street": "Carrer de Pamplona", "amenity": "cafe", "name": "SKYE Coffee", "opening_hours": "Mo-Tu 09:00-13:30; We-Fr 09:00-17:00"}}, {"type": "node", "id": 4142784489, "lat": 41.406689, "lon": 2.1923166, "tags": {"addr:housenumber": "183", "addr:street": "Llacuna", "amenity": "restaurant", "name": "L'Actiu", "opening_hours": "Mo-Fr 08:00-18:00", "website": "www.lactiu.cat"}}, {"type": "node", "id": 4200455430, "lat": 41.4010121, "lon": 2.179247, "tags": {"addr:city": "Barcelona", "addr:housenumber": "212", "addr:postcode": "08013", "addr:street": "Carrer de la Marina", "amenity": "restaurant", "cuisine": "venezuelan", "name": "Arepamundi", "phone": "+34605906732", "toilets:wheelchair": "yes", "website": "http://www.arepamundi.com/", "wheelchair": "limited"}}, {"type": "node", "id": 4224373289, "lat": 41.3995163, "lon": 2.1703903, "tags": {"amenity": "restaurant", "name": "Enrique Tomas", "toilets:wheelchair": "yes", "wheelchair": "yes"}}, {"type": "node", "id": 4227926591, "lat": 41.3976109, "lon": 2.1724897, "tags": {"addr:housenumber": "82", "addr:postcode": "08013", "addr:street": "Passeig de Sant Joan", "amenity": "restaurant", "cuisine": "spanish", "email": "hello@granjapetitbo.com", "internet_access": "wlan", "name": "Granja Petitbo", "name:ca": "Granja Petitbo", "name:es": "Granja Petitbo", "opening_hours": "Mo-We 09:00-23:30; Th-Fr 09:00-00:00; Sa 10:00-00:00; Su 10:00-23:30", "phone": "+34 932656503", "website": "http://granjapetitbo.com"}}, {"type": "node", "id": 4236018213, "lat": 41.3941891, "lon": 2.1758677, "tags": {"addr:city": "Barcelona", "addr:housenumber": "4", "addr:postcode": "08010", "addr:street": "Pla\u00e7a de Tetuan", "amenity": "cafe", "cuisine": "regional", "internet_access": "wlan", "name": "Giulietta", "website": "https://www.giulietta.cat/"}}, {"type": "node", "id": 4250988290, "lat": 41.4014058, "lon": 2.1809332, "tags": {"addr:city": "Barcelona", "addr:housenumber": "220", "addr:postcode": "08013", "addr:street": "Carrer de Lepant", "amenity": "restaurant", "contact:facebook": "https://www.facebook.com/ElMaderal/", "cuisine": "tapas", "diet:vegan": "only", "name": "El Maderal", "opening_hours": "Tu-Sa 13:30-16:30, 19:00-24:00", "phone": "+34 932 470 034", "takeaway": "yes"}}, {"type": "node", "id": 4252690721, "lat": 41.403496, "lon": 2.1984562, "tags": {"shop": "convenience"}}, {"type": "node", "id": 4254663398, "lat": 41.3935914, "lon": 2.1855444, "tags": {"amenity": "restaurant", "cuisine": "spanish", "name": "El Lito Lito"}}, {"type": "node", "id": 4254685758, "lat": 41.3967509, "lon": 2.1929295, "tags": {"amenity": "cafe", "name": "Bread Bucket", "shop": "bakery"}}, {"type": "node", "id": 4254686706, "lat": 41.3970854, "lon": 2.1928808, "tags": {"amenity": "cafe"}}, {"type": "node", "id": 4254694967, "lat": 41.3918333, "lon": 2.1838687, "tags": {"amenity": "cafe", "name": "Espresso"}}, {"type": "node", "id": 4254698176, "lat": 41.3917633, "lon": 2.1801488, "tags": {"amenity": "pub", "name": "Lleida"}}, {"type": "node", "id": 4254702419, "lat": 41.3918035, "lon": 2.1787023, "tags": {"brand": "Suma", "brand:wikidata": "Q58012362", "name": "Suma", "opening_hours": "09:00-23:00", "shop": "supermarket"}}, {"type": "node", "id": 4254704967, "lat": 41.3927459, "lon": 2.1778691, "tags": {"amenity": "restaurant", "name": "Firebug Brunch", "outdoor_seating": "yes"}}, {"type": "node", "id": 4254706867, "lat": 41.3925915, "lon": 2.1781364, "tags": {"addr:housenumber": "13", "addr:street": "Passeig de Sant Joan", "amenity": "restaurant", "name": "Barcelona Food Makers"}}, {"type": "node", "id": 4254726126, "lat": 41.3925543, "lon": 2.1881212, "tags": {"amenity": "restaurant", "name": "Casa Fidel"}}, {"type": "node", "id": 4254743609, "lat": 41.4013499, "lon": 2.2010764, "tags": {"addr:housenumber": "78", "addr:postcode": "08005", "addr:street": "Rambla del Poblenou", "amenity": "restaurant", "cuisine": "regional", "name": "Caliu del Poblenou"}}, {"type": "node", "id": 4277753900, "lat": 41.3978175, "lon": 2.184081, "tags": {"addr:city": "Barcelona", "addr:housenumber": "157", "addr:postcode": "08013", "addr:street": "Carrer d'Ausi\u00e0s Marc", "amenity": "restaurant", "name": "Piratas", "phone": "+34932457642"}}, {"type": "node", "id": 4278033117, "lat": 41.4021454, "lon": 2.1738907, "tags": {"internet_access": "wlan", "internet_access:access": "customers", "internet_access:fee": "no", "name": "365 Caf\u00e9", "shop": "bakery"}}, {"type": "node", "id": 4280573806, "lat": 41.4020879, "lon": 2.1756287, "tags": {"addr:housenumber": "423", "addr:postcode": "08013", "addr:street": "Carrer de Val\u00e8ncia", "amenity": "cafe", "internet_access": "wlan", "name": "Miam", "tourism": "hotel"}}, {"type": "node", "id": 4289659124, "lat": 41.3947754, "lon": 2.1873544, "tags": {"addr:city": "Barcelona", "addr:housenumber": "114", "addr:postcode": "08018", "addr:street": "Carrer de la Marina", "amenity": "restaurant", "name": "MABEL the Granja", "opening_hours": "Mo-Fr 06:00-22:00; Sa 08:00-16:00", "phone": "+34 934 85 20 28", "smoking": "outside"}}, {"type": "node", "id": 4289682653, "lat": 41.3978888, "lon": 2.189968, "tags": {"addr:city": "Barcelona", "addr:housenumber": "96", "addr:postcode": "08018", "addr:street": "Carrer de Pamplona", "amenity": "pub", "name": "Sonora Sport Tavern"}}, {"type": "node", "id": 4300565590, "lat": 41.3908121, "lon": 2.1800057, "tags": {"addr:housenumber": "19", "addr:street": "Passeig de Llu\u00eds Companys", "amenity": "restaurant", "cuisine": "japanese", "name": "Maguro"}}, {"type": "node", "id": 4313363189, "lat": 41.3971327, "lon": 2.176868, "tags": {"addr:housenumber": "155", "addr:postcode": "08013", "addr:street": "Carrer de N\u00e0pols", "name": "Cal Rosset", "opening_hours": "Mo-Fr 09:00-20:30; Sa 09:00-14:00", "phone": "+34 93 265 79 72", "shop": "greengrocer", "website": "http://www.calrosset.com"}}, {"type": "node", "id": 4316268121, "lat": 41.3971913, "lon": 2.1794891, "tags": {"amenity": "restaurant", "name": "Asador Barcelona | Vic Braseria", "opening_hours": "Mo-Sa 12:30-16:00,19:30-23:00", "website": "https://vicbraseria.com/", "wheelchair": "no"}}, {"type": "node", "id": 4316268805, "lat": 41.3941657, "lon": 2.1790842, "tags": {"addr:housenumber": "73", "addr:postcode": "08013", "addr:street": "Carrer d'Ausi\u00e0s Marc", "amenity": "restaurant", "cuisine": "seafood", "name": "Peix d'Or", "opening_hours": "Tu-Su 13:00-16:30,20:30-24:00", "website": "http://peixdor.com"}}, {"type": "node", "id": 4320511990, "lat": 41.397848, "lon": 2.1768226, "tags": {"amenity": "restaurant", "cuisine": "chinese", "name": "Restaurant Honesto", "opening_hours": "Fr-We", "phone": "+34 935 32 33 88", "website": "https://www.honestozd.com/zdms"}}, {"type": "node", "id": 4322554496, "lat": 41.3917842, "lon": 2.1862048, "tags": {"amenity": "restaurant", "cuisine": "gallega", "name": "Taberna Gallega"}}, {"type": "node", "id": 4329228551, "lat": 41.3920883, "lon": 2.1857854, "tags": {"addr:city": "Barcelona", "addr:housenumber": "17", "addr:postcode": "08018", "addr:street": "Carrer de Wellington", "amenity": "cafe", "cuisine": "brazilian", "name": "Bar Santa F\u00e9", "opening_hours": "Mo-Fr 07:30-17:00"}}, {"type": "node", "id": 4334598705, "lat": 41.4076799, "lon": 2.189368, "tags": {"brand": "Bon Area", "brand:wikidata": "Q11924743", "brand:wikipedia": "ca:Grup Alimentari Guissona", "name": "Bon Area", "shop": "supermarket", "wheelchair": "no"}}, {"type": "node", "id": 4346562600, "lat": 41.3934288, "lon": 2.1882383, "tags": {"shop": "supermarket"}}, {"type": "node", "id": 4353907289, "lat": 41.3920465, "lon": 2.1857395, "tags": {"amenity": "restaurant", "cuisine": "brazilian", "internet_access": "wlan", "name": "Bar Santa Fe", "opening_hours": "Mo-Fr 07:30-17:00"}}, {"type": "node", "id": 4392820595, "lat": 41.39893, "lon": 2.1748831, "tags": {"addr:city": "Barcelona", "addr:housenumber": "194", "addr:postcode": "08013", "addr:street": "Carrer de N\u00e0pols", "amenity": "cafe", "name": "El Teixidor", "name:ca": "Teixind\u00f3", "phone": "+34 932 45 27 68", "shop": "bakery"}}, {"type": "node", "id": 4392863989, "lat": 41.398686, "lon": 2.1760335, "tags": {"name": "Sorli Discau", "opening_hours": "Mo-Sa 09:00-21:00", "shop": "supermarket"}}, {"type": "node", "id": 4392869792, "lat": 41.3964845, "lon": 2.1739332, "tags": {"amenity": "fast_food", "name": "Nostrum", "name:ca": "Nostrum", "name:en": "Nostrum", "name:es": "Nostrum", "opening_hours": "Mo-Fr 09:00-18:00+", "website": "http://www.nostrum.eu/en/stores/"}}, {"type": "node", "id": 4405791389, "lat": 41.3959081, "lon": 2.1807554, "tags": {"addr:housenumber": "111", "addr:street": "Carrer de Sic\u00edlia", "amenity": "restaurant", "name": "Restaurante Dune", "name:es": "Restaurante Dune", "opening_hours": "Mo-Fr 08:30-16:30, 19:30-00:00; Sa 12:30-16:30, 19:30-00:00", "phone": "+34 932 44 41 44"}}, {"type": "node", "id": 4406481491, "lat": 41.3956338, "lon": 2.1787907, "tags": {"addr:housenumber": "125", "addr:street": "Carrer de N\u00e0pols", "amenity": "cafe", "name": "El Sol", "name:ca": "El Sol", "name:es": "El Sol", "opening_hours": "Mo-Fr 06:00-21:00; Sa 07:00-21:00; Su 08:00-18:00", "phone": "+34 932440867"}}, {"type": "node", "id": 4406877198, "lat": 41.3918994, "lon": 2.1841805, "tags": {"addr:housenumber": "29", "addr:street": "Carrer de N\u00e0pols", "amenity": "cafe", "name": "Unic", "name:es": "Unic"}}, {"type": "node", "id": 4407190089, "lat": 41.3945093, "lon": 2.1803997, "tags": {"addr:housenumber": "103", "addr:street": "Carrer de N\u00e0pols", "amenity": "cafe", "internet_access": "wlan", "name": "Cal Manel", "name:ca": "Cal Manel", "name:es": "Cal Manel", "opening_hours": "Mo-Fr 06:30-01:30; Sa-Su 08:00-01:30"}}, {"type": "node", "id": 4488591590, "lat": 41.4036205, "lon": 2.1758902, "tags": {"addr:postcode": "08013", "amenity": "cafe", "cuisine": "spanish", "internet_access": "wlan", "name": "Picasso", "name:es": "Picasso", "opening_hours": "Mo-Su,PH 08:00-02:00", "phone": "+34 932465349"}}, {"type": "node", "id": 4518693470, "lat": 41.4023358, "lon": 2.201295, "tags": {"addr:housenumber": "187", "addr:street": "Pujades", "amenity": "restaurant", "name": "Minyam"}}, {"type": "node", "id": 4534907393, "lat": 41.4058059, "lon": 2.1905307, "tags": {"addr:housenumber": "866-872", "addr:street": "Gran Via de les Corts Catalanes"}}, {"type": "node", "id": 4534954334, "lat": 41.4047773, "lon": 2.1918877}, {"type": "node", "id": 4536655470, "lat": 41.3985533, "lon": 2.1780221}, {"type": "node", "id": 4536655471, "lat": 41.3985344, "lon": 2.1780408}, {"type": "node", "id": 4536655472, "lat": 41.3985558, "lon": 2.1780677}, {"type": "node", "id": 4536655473, "lat": 41.3985723, "lon": 2.1780481}, {"type": "node", "id": 4547841604, "lat": 41.3961795, "lon": 2.1743904, "tags": {"amenity": "bar", "name": "Cosmopolita"}}, {"type": "node", "id": 4553695195, "lat": 41.4023142, "lon": 2.2014938, "tags": {"addr:housenumber": "187", "addr:street": "Carrer de Pujades", "amenity": "restaurant", "name": "Minyam", "name:es": "Minyam"}}, {"type": "node", "id": 4563459833, "lat": 41.4048291, "lon": 2.1914585, "tags": {"amenity": "restaurant", "diet:vegan": "no", "diet:vegetarian": "no", "name": "El Mussol", "opening_hours": "Mo-Th 13:00-16:30,20:00-24:00, Fr-Su 13:00-16:30,20:00-01:00", "survey:date": "2022-01-19", "wheelchair": "yes"}}, {"type": "node", "id": 4582968963, "lat": 41.4050337, "lon": 2.1895054}, {"type": "node", "id": 4675181270, "lat": 41.4030154, "lon": 2.1735187, "tags": {"amenity": "bar"}}, {"type": "node", "id": 4675187885, "lat": 41.4044658, "lon": 2.1769572, "tags": {"name": "Pastisseria-gelateria Lepanto", "shop": "pastry"}}, {"type": "node", "id": 4689020592, "lat": 41.4022025, "lon": 2.2016256, "tags": {"addr:housenumber": "196", "addr:postcode": "08005", "addr:street": "Carrer de Pujades", "amenity": "bar", "contact:facebook": "https://m.facebook.com/BaliusBar/", "cuisine": "tapas", "name": "Balius", "name:es": "Balius", "phone": "+34 933 15 86 50"}}, {"type": "node", "id": 4715477691, "lat": 41.3962809, "lon": 2.1751092, "tags": {"name": "Honesto", "shop": "supermarket"}}, {"type": "node", "id": 4715477891, "lat": 41.3979078, "lon": 2.1762919, "tags": {"name": "Keisy", "opening_hours": "Mo-Sa 09:00-21:00", "shop": "supermarket"}}, {"type": "node", "id": 4715485889, "lat": 41.3958038, "lon": 2.1762621, "tags": {"addr:city": "Barcelona", "addr:country": "ES", "addr:housenumber": "669A", "addr:postcode": "08010", "addr:street": "Gran Via de les Corts Catalanes", "shop": "convenience"}}, {"type": "node", "id": 4715485890, "lat": 41.3960653, "lon": 2.1766182, "tags": {"amenity": "bar", "cuisine": "tapas", "name": "Star Bar"}}, {"type": "node", "id": 4719191291, "lat": 41.4045622, "lon": 2.1832598, "tags": {"amenity": "bar", "name": "Casa Falc\u00f3n", "name:es": "Casa Falc\u00f3n", "opening_hours": "Mo-Sa"}}, {"type": "node", "id": 4719191292, "lat": 41.4037955, "lon": 2.1820599, "tags": {"amenity": "bar", "name": "Ruta de Francia", "name:es": "Ruta de Francia"}}, {"type": "node", "id": 4719213691, "lat": 41.4039861, "lon": 2.1826919, "tags": {"amenity": "restaurant", "name": "Casa Francis", "name:es": "Casa Francis", "opening_hours": "Mo-Sa"}}, {"type": "node", "id": 4719233590, "lat": 41.40648, "lon": 2.1865116, "tags": {"opening_hours": "24/7", "shop": "convenience"}}, {"type": "node", "id": 4719233591, "lat": 41.4019814, "lon": 2.1795454, "tags": {"addr:city": "Barcelona", "addr:country": "ES", "addr:housenumber": "7", "addr:street": "Carrer Enamorats", "delivery": "yes", "name": "Ma Supermercat", "name:es": "Ma Supermercat", "phone": "+34632877097", "shop": "convenience"}}, {"type": "node", "id": 4719233592, "lat": 41.4012761, "lon": 2.1794877, "tags": {"amenity": "fast_food", "brand": "Telepizza", "brand:wikidata": "Q2699863", "brand:wikipedia": "es:Telepizza", "cuisine": "pizza", "name": "Telepizza", "name:es": "Telepizza", "phone": "+34932658555", "toilets:wheelchair": "yes", "website": "https://www.telepizza.es", "wheelchair": "limited"}}, {"type": "node", "id": 4719233593, "lat": 41.3997595, "lon": 2.1797349, "tags": {"addr:housenumber": "185", "addr:street": "Carrer de la Diputaci\u00f3", "amenity": "restaurant", "name": "Monumental", "name:es": "Monumental"}}, {"type": "node", "id": 4719259890, "lat": 41.4054293, "lon": 2.1844074, "tags": {"amenity": "bar", "name": "Ribas D'o Sil", "name:es": "Ribas D'o Sil", "opening_hours": "Mo-Sa"}}, {"type": "node", "id": 4719260489, "lat": 41.3990094, "lon": 2.1788548, "tags": {"amenity": "restaurant", "cuisine": "pizza", "name": "Lucano", "name:es": "Lucano"}}, {"type": "node", "id": 4719260689, "lat": 41.3981541, "lon": 2.1778188, "tags": {"amenity": "bar", "name": "Yuste", "name:es": "Yuste", "opening_hours": "Mo-Su 08:00-01:00", "wheelchair": "limited"}}, {"type": "node", "id": 4719260790, "lat": 41.39646, "lon": 2.1753489, "tags": {"name": "Supermercat", "shop": "convenience"}}, {"type": "node", "id": 4719820193, "lat": 41.3984009, "lon": 2.1751216, "tags": {"name": "Pons", "name:es": "Pons", "opening_hours": "Mo-We 08:30-14:30, Th 08:30-20:30, Fr 08:00-20:30, Sa 08:00-14:30", "shop": "butcher"}}, {"type": "node", "id": 4721278191, "lat": 41.4071597, "lon": 2.1930065, "tags": {"amenity": "restaurant", "name": "Els Tres Porquets", "name:es": "Els Tres Porquets"}}, {"type": "node", "id": 4727951592, "lat": 41.4012533, "lon": 2.1849993, "tags": {"amenity": "fast_food", "cuisine": "churro", "name": "Xurrer\u00eda", "name:es": "Churrer\u00eda", "wheelchair": "yes"}}, {"type": "node", "id": 4727953595, "lat": 41.393468, "lon": 2.181298, "tags": {"name": "Supermercat 24h", "opening_hours": "24/7", "shop": "convenience", "wheelchair": "no"}}, {"type": "node", "id": 4727953596, "lat": 41.3930834, "lon": 2.1811654, "tags": {"amenity": "restaurant", "cuisine": "chinese", "name": "Da Zhong", "name:es": "Da Zhong"}}, {"type": "node", "id": 4727954094, "lat": 41.3981178, "lon": 2.18306, "tags": {"shop": "convenience"}}, {"type": "node", "id": 4727965494, "lat": 41.4018944, "lon": 2.1841775, "tags": {"amenity": "cafe", "name": "El portal dels encants", "name:ca": "El portal dels encants"}}, {"type": "node", "id": 4727965496, "lat": 41.3991977, "lon": 2.183373, "tags": {"amenity": "restaurant", "name": "Menta", "name:es": "Menta"}}, {"type": "node", "id": 4727974690, "lat": 41.3990208, "lon": 2.1833542, "tags": {"brand": "Condis", "brand:wikidata": "Q57417581", "name": "Condis", "operator": "Condis", "shop": "supermarket"}}, {"type": "node", "id": 4727974890, "lat": 41.4027186, "lon": 2.1829852, "tags": {"amenity": "restaurant", "name": "Sam", "name:es": "Sam"}}, {"type": "node", "id": 4727974994, "lat": 41.4039312, "lon": 2.1818898, "tags": {"amenity": "restaurant", "name": "Restaurante Cubano", "name:es": "Restaurante Cubano", "opening_hours": "Su-Fr 13:00-17:00,19:00-23:00, Sa 13:00-03:00"}}, {"type": "node", "id": 4727974997, "lat": 41.3906143, "lon": 2.1802319, "tags": {"addr:housenumber": "15", "addr:street": "Passeig de Llu\u00eds Companys", "name": "El nostre pa", "name:ca": "El nostre pa", "shop": "bakery"}}, {"type": "node", "id": 4727975090, "lat": 41.3957647, "lon": 2.1824536, "tags": {"brand": "Mercadona", "brand:wikidata": "Q377705", "brand:wikipedia": "es:Mercadona", "name": "Mercadona", "opening_hours": "Mo-Sa 09:00-21:00", "shop": "supermarket", "website": "https://www.mercadona.es"}}, {"type": "node", "id": 4727975589, "lat": 41.3947162, "lon": 2.1816505, "tags": {"brand": "Bon\u00c0rea", "brand:wikidata": "Q11924743", "brand:wikipedia": "ca:Grup Alimentari Guissona", "name": "Bon\u00c0rea", "opening_hours": "Mo-Sa 09:00-20:30, Su 10:00-14:00", "shop": "supermarket", "wheelchair": "yes"}}, {"type": "node", "id": 4734086768, "lat": 41.4061298, "lon": 2.1921339}, {"type": "node", "id": 4734086770, "lat": 41.4064808, "lon": 2.1914251}, {"type": "node", "id": 4734086771, "lat": 41.406482, "lon": 2.1916692}, {"type": "node", "id": 4762854025, "lat": 41.3974302, "lon": 2.1784837, "tags": {"brand": "La Sirena", "brand:wikidata": "Q21034458", "name": "La Sirena", "opening_hours": "Mo-Sa 09:00-21:00", "shop": "frozen_food", "website": "https://www.lasirena.es/", "wheelchair": "yes"}}, {"type": "node", "id": 4762859825, "lat": 41.3969237, "lon": 2.1777748, "tags": {"amenity": "bar", "name": "Lee 666", "name:es": "Lee 666", "wheelchair": "limited"}}, {"type": "node", "id": 4762859828, "lat": 41.3951013, "lon": 2.1746599, "tags": {"addr:city": "Barcelona", "addr:country": "ES", "addr:housenumber": "19-20", "addr:postcode": "08010", "addr:street": "Pla\u00e7a de Tetuan", "name": "Santa Gloria", "shop": "bakery"}}, {"type": "node", "id": 4762864132, "lat": 41.3966262, "lon": 2.1773703, "tags": {"name": "Forn Dolcetes", "name:ca": "Forn Dolcetes", "shop": "bakery", "wheelchair": "limited"}}, {"type": "node", "id": 4771282522, "lat": 41.3921998, "lon": 2.1796214, "tags": {"addr:housenumber": "12", "addr:postcode": "08010", "addr:street": "Passeig de Sant Joan", "contact:phone": "+34 932 462 900", "name": "Supermercat Yangkuang", "name:ca": "Supermercat Yangkuang", "opening_hours": "Mo-Sa 10:00-21:00", "shop": "supermarket"}}, {"type": "node", "id": 4779688023, "lat": 41.3987566, "lon": 2.1728797, "tags": {"addr:housenumber": "192", "addr:street": "Carrer de Roger de Flor", "amenity": "restaurant", "description": "Arepera - Cockteleria", "internet_access": "wlan", "name": "El Chamo", "name:es": "El Chamo", "phone": "+34930232448"}}, {"type": "node", "id": 4787974651, "lat": 41.4045885, "lon": 2.1993428, "tags": {"amenity": "bar", "name": "El Menjador de la Beckett"}}, {"type": "node", "id": 4789607022, "lat": 41.3951944, "lon": 2.1798302, "tags": {"addr:housenumber": "110", "addr:street": "Carrer de N\u00e0pols", "brand": "Mercadona", "brand:wikidata": "Q377705", "brand:wikipedia": "es:Mercadona", "name": "Mercadona", "opening_hours": "Mo-Sa 09:00-21:30", "shop": "supermarket", "website": "https://www.mercadona.es"}}, {"type": "node", "id": 4799828222, "lat": 41.4005858, "lon": 2.1746042, "tags": {"amenity": "restaurant", "name": "La Fonda Paisa", "name:es": "La Fonda Paisa"}}, {"type": "node", "id": 4805973521, "lat": 41.4021579, "lon": 2.175235, "tags": {"addr:housenumber": "298", "addr:postcode": "08013", "addr:street": "Carrer de Sardenya", "amenity": "cafe", "name": "Gaudi Bakery", "name:en": "Gaudi Bakery", "name:es": "Gaudi Bakery", "opening_hours": "Mo-Su 08:30-20:00", "website": "http://www.gaudibakery.com"}}, {"type": "node", "id": 4878130692, "lat": 41.4034739, "lon": 2.1887038, "tags": {"shop": "kiosk"}}, {"type": "node", "id": 4906707987, "lat": 41.4060107, "lon": 2.1922947, "tags": {"addr:city": "Barcelona", "addr:country": "ES", "addr:housenumber": "151-156", "addr:street": "Carrer de la Llacuna", "barrier": "entrance"}}, {"type": "node", "id": 4906707988, "lat": 41.4059271, "lon": 2.1924039}, {"type": "node", "id": 4906707990, "lat": 41.4053169, "lon": 2.1932043}, {"type": "node", "id": 4906707996, "lat": 41.4061039, "lon": 2.192173}, {"type": "node", "id": 4906736149, "lat": 41.4058547, "lon": 2.1893093, "tags": {"addr:city": "Barcelona", "addr:country": "ES", "addr:housenumber": "39", "addr:postcode": "08018", "addr:street": "Carrer dels Escultors Claper\u00f3s", "amenity": "restaurant", "cuisine": "tapas", "email": "viliviale@gmail.com", "facebook": "https://www.facebook.com/pg/LOlivera.bar/", "name": "L'Olivera", "outdoor_seating": "yes", "payment:american_express": "yes", "payment:coins": "yes", "payment:visa": "yes", "payment:visa_debit": "yes", "phone": "+34 931 72 48 99", "toilets:wheelchair": "yes", "wheelchair": "limited"}}, {"type": "node", "id": 4942732021, "lat": 41.4064484, "lon": 2.193943, "tags": {"addr:housenumber": "147-153", "addr:street": "Rambla del Poblenou", "amenity": "restaurant", "name": "La dehesa", "name:es": "La dehesa"}}, {"type": "node", "id": 4965677492, "lat": 41.4032881, "lon": 2.2001895, "tags": {"amenity": "bar", "name": "La tasqueta de Can Felipa"}}, {"type": "node", "id": 4972069942, "lat": 41.4024097, "lon": 2.1754057, "tags": {"amenity": "restaurant", "name": "La Taqueria"}}, {"type": "node", "id": 5010794821, "lat": 41.3979072, "lon": 2.1955319, "tags": {"addr:housenumber": "95", "addr:street": "Carrer de Pujades", "amenity": "cafe", "name": "N\u00f8mad Roaster's Home", "name:en": "N\u00f8mad Roaster's Home", "opening_hours": "Mo-Fr 09:00-17:00"}}, {"type": "node", "id": 5028979721, "lat": 41.3987513, "lon": 2.1950702, "tags": {"addr:housenumber": "95", "addr:street": "Carrer de Badajoz", "amenity": "cafe", "contact:facebook": "https://www.facebook.com/espaijoliu/", "name": "Espai Joliu", "opening_hours": "Mo-Fr 09:00-19:00; Sa 10:00-15:00", "website": "http://espaijoliu.tumblr.com/"}}, {"type": "node", "id": 5065076822, "lat": 41.4017405, "lon": 2.1734768, "tags": {"amenity": "fast_food", "name": "Xurreria de Sagrada Familia", "name:de": "Xurreria de Sagrada Familia", "name:es": "Xurreria de Sagrada Familia"}}, {"type": "node", "id": 5065092521, "lat": 41.3986785, "lon": 2.1748355, "tags": {"addr:housenumber": "189", "addr:postcode": "08013", "addr:street": "Carrer de N\u00e0pols", "all_you_can_eat": "yes", "amenity": "restaurant", "cuisine": "japanese;sushi", "name": "Ogura", "name:es": "Ogura", "phone": "+34931646321"}}, {"type": "node", "id": 5094362127, "lat": 41.39345, "lon": 2.1853404, "tags": {"addr:postcode": "08018", "addr:street": "Carrer dels Almog\u00e0vers", "amenity": "restaurant", "name:en": "Santa Rita Experience", "phone": "+34 662 40 74 35", "website": "http://www.santaritagastronomica.com"}}, {"type": "node", "id": 5103623221, "lat": 41.4058102, "lon": 2.197889, "tags": {"addr:housenumber": "145", "addr:street": "Avinguda Diagonal", "amenity": "restaurant", "cuisine": "chinese", "name": "Chang Feng", "name:es": "Chang Feng", "opening_hours": "Mo-Su 12:00-16:00, 20:00-00:00", "phone": "+34 932664857"}}, {"type": "node", "id": 5126098880, "lat": 41.3963655, "lon": 2.1730861, "tags": {"addr:postcode": "08009", "amenity": "fast_food", "branch": "Sant Joan", "cuisine": "burger", "internet_access": "no", "name": "Timesburg", "outdoor_seating": "yes", "phone": "+34936317814", "takeaway": "yes", "toilets": "yes", "website": "https://www.timesburg.com/"}}, {"type": "node", "id": 5141674623, "lat": 41.393539, "lon": 2.185161, "tags": {"amenity": "restaurant", "name": "Santa Rita Experience"}}, {"type": "node", "id": 5171248421, "lat": 41.3968974, "lon": 2.172667, "tags": {"amenity": "cafe", "name:en": "Tutto pizzeria"}}, {"type": "node", "id": 5176233727, "lat": 41.4031581, "lon": 2.1751611, "tags": {"amenity": "restaurant", "name:en": "Els Porto\u2019s"}}, {"type": "node", "id": 5182246331, "lat": 41.4066399, "lon": 2.1874049, "tags": {"amenity": "restaurant", "name": "Las Verjas", "name:ca": "Las Verjas", "wheelchair": "limited"}}, {"type": "node", "id": 5182246332, "lat": 41.4071016, "lon": 2.1877492, "tags": {"addr:city": "Barcelona", "addr:country": "ES", "addr:housenumber": "31", "addr:postcode": "08018", "addr:street": "Carrer del Clot", "amenity": "restaurant", "cuisine": "vietnamese", "internet_access": "wlan", "name": "Tutu Vietnamese Cuisine", "name:ca": "Tutu Vietnamese Cuisine", "wheelchair": "yes"}}, {"type": "node", "id": 5182246333, "lat": 41.4074015, "lon": 2.1879005, "tags": {"addr:city": "Barcelona", "addr:country": "ES", "addr:housenumber": "39", "addr:postcode": "08018", "addr:street": "Carrer del Clot", "amenity": "restaurant", "contact:facebook": "https://www.facebook.com/pg/LaCumparsitaBarcelona/", "contact:phone": "+34 930244911", "cuisine": "argentinian", "description": "La Cumparsita es una braser\u00eda inspirada en el barrio de San Telmo, Buenos aires. Creada por un Argentino que ha querido acercar una parte de sus or\u00edgenes al barrio del Clot, haci\u00e9ndonos llegar entre brasas y tangos la m\u00e1s pura Argentina.", "name": "Braseria la Cumparsita", "name:ca": "Braseria la Cumparsita", "payment:visa": "yes"}}, {"type": "node", "id": 5182246334, "lat": 41.4077873, "lon": 2.1884794, "tags": {"amenity": "restaurant", "name": "La Granjeta", "name:ca": "La Granjeta"}}, {"type": "node", "id": 5182260828, "lat": 41.4074258, "lon": 2.1879148, "tags": {"addr:city": "Barcelona", "addr:country": "ES", "addr:housenumber": "41", "addr:postcode": "08018", "addr:street": "Carrer del Clot", "amenity": "restaurant", "internet_access": "wlan", "name": "Bar Rovira", "name:ca": "Bar Rovira"}}, {"type": "node", "id": 5182260829, "lat": 41.4080299, "lon": 2.1885543, "tags": {"amenity": "restaurant", "name": "Bar Clot", "name:ca": "Bar Clot"}}, {"type": "node", "id": 5182261022, "lat": 41.40665, "lon": 2.1877545, "tags": {"amenity": "restaurant", "name": "El Rac\u00f3 de C\u00e1diz", "name:ca": "El Rac\u00f3 de C\u00e1diz"}}, {"type": "node", "id": 5182261023, "lat": 41.4077441, "lon": 2.188721, "tags": {"amenity": "restaurant", "name": "La M\u00e0nega", "name:ca": "La M\u00e0nega"}}, {"type": "node", "id": 5202384223, "lat": 41.3998798, "lon": 2.171746, "tags": {"addr:housenumber": "362", "addr:street": "Avinguda Diagonal", "name:en": "Boulangery", "opening_hours": "Mo-Su 07:30-21:00", "shop": "bakery"}}, {"type": "node", "id": 5295531800, "lat": 41.4020719, "lon": 2.1759654, "tags": {"addr:housenumber": "428", "addr:postcode": "08013", "addr:street": "Carrer de Val\u00e8ncia", "amenity": "restaurant", "cuisine": "burger", "name": "Anauco", "phone": "+34936240797", "website": "https://www.anaucogourmet.es/"}}, {"type": "node", "id": 5335520121, "lat": 41.404881, "lon": 2.17801, "tags": {"addr:housenumber": "243", "addr:street": "Calle Padilla", "amenity": "fast_food", "cuisine": "noodles", "name:en": "Dal Moro\u2019s", "opening_hours": "Mo-Su 12:00-20:30"}}, {"type": "node", "id": 5363506797, "lat": 41.4022944, "lon": 2.1881778, "tags": {"amenity": "cafe"}}, {"type": "node", "id": 5375097960, "lat": 41.3979363, "lon": 2.1720846, "tags": {"amenity": "cafe", "name": "Panorama Bar"}}, {"type": "node", "id": 5380241103, "lat": 41.4004924, "lon": 2.1903645, "tags": {"amenity": "restaurant", "name": "Diamantico"}}, {"type": "node", "id": 5380241629, "lat": 41.4004229, "lon": 2.1906076, "tags": {"amenity": "restaurant", "name": "el Jard\u00ed"}}, {"type": "node", "id": 5494755522, "lat": 41.4003335, "lon": 2.1714778, "tags": {"addr:housenumber": "354", "addr:street": "Carrer de Mallorca", "amenity": "bar", "name": "Tapas & Bar siqui", "name:ru": "\u0410\u0437\u0438\u0430\u0442\u0441\u043a\u0430\u044f \u043a\u0443\u0445\u043d\u044f"}}, {"type": "node", "id": 5522265621, "lat": 41.3990264, "lon": 2.194494}, {"type": "node", "id": 5531275475, "lat": 41.3980449, "lon": 2.1941948, "tags": {"brand": "Dia", "brand:wikidata": "Q925132", "brand:wikipedia": "es:DIA (supermercados)", "name": "Dia", "operator": "Distribuidora Internacional de Alimentaci\u00f3n, S.A.", "shop": "supermarket", "website": "https://www.dia.es"}}, {"type": "node", "id": 5541156021, "lat": 41.3997861, "lon": 2.1702364, "tags": {"addr:housenumber": "343", "addr:street": "Carrer de Mallorca", "amenity": "cafe", "cuisine": "spanish;italian", "name:en": "El cafe de Martinet"}}, {"type": "node", "id": 5545772622, "lat": 41.4024489, "lon": 2.2014463, "tags": {"name": "Baluard", "shop": "bakery"}}, {"type": "node", "id": 5551378622, "lat": 41.3969463, "lon": 2.1759588, "tags": {"addr:city": "Barcelona", "addr:country": "ES", "addr:housenumber": "379", "addr:postcode": "08013", "addr:street": "Carrer de la Diputaci\u00f3", "amenity": "restaurant", "contact:phone": "+34 932469168", "cuisine": "diner;steak_house;argentinian", "internet_access": "wlan", "name": "Alfonsina Parrilla Argentina", "name:en": "Alfonsina Argentinian Grill", "note": "Excelente lugar para comer carnes y demas estilo argentino a precio moderad", "opening_hours": "We-Mo 13:00-16:00, 20:00-23:30"}}, {"type": "node", "id": 5611733921, "lat": 41.4024253, "lon": 2.1743326, "tags": {"amenity": "cafe", "name": "BuenasMigas", "wheelchair": "limited"}}, {"type": "node", "id": 5696409381, "lat": 41.4020828, "lon": 2.200141, "tags": {"addr:city": "Barcelona", "addr:housenumber": "92", "addr:postcode": "08005", "addr:street": "Rambla del Poblenou", "amenity": "restaurant", "cuisine": "lebanese", "name": "L'AUT\u00c8NTIC Restaurant Liban\u00e8s", "opening_hours": "Mo-Su 12:00-01:00", "outdoor_seating": "yes", "phone": "+34 934 08 86 74", "takeaway": "yes", "website": "https://lautentic-restaurant-libanes.business.site/"}}, {"type": "node", "id": 5721034923, "lat": 41.3989677, "lon": 2.178717, "tags": {"addr:city": "Barcelona", "addr:country": "ES", "addr:housenumber": "412", "addr:postcode": "08013", "addr:street": "Carrer de la Diputaci\u00f3", "amenity": "restaurant", "contact:email": "nogalabc@gmail.com", "contact:facebook": "https://www.facebook.com/nogalbcn/", "contact:instagram": "https://www.instagram.com/nogalbcn/", "contact:phone": "+34 932654749", "contact:website": "http://restaurantnogal.com", "cuisine": "spanish;cafe", "internet_access": "wlan", "name": "Nogal", "opening_hours": "Mo-Su 05:00-03:00", "outdoor_seating": "yes", "payment:american_express": "yes", "payment:mastercard": "yes", "payment:visa": "yes", "reservation": "yes", "takeaway": "yes", "toilets:wheelchair": "yes", "wheelchair": "yes"}}, {"type": "node", "id": 5739542782, "lat": 41.404835, "lon": 2.1758723, "tags": {"addr:housenumber": "177", "addr:street": "Carrera de Lepant", "amenity": "restaurant", "name": "Casa urena"}}, {"type": "node", "id": 5772495557, "lat": 41.397786, "lon": 2.1766146, "tags": {"name": "Forn de pa Armengol", "shop": "bakery"}}, {"type": "node", "id": 5806515953, "lat": 41.4012612, "lon": 2.17466, "tags": {"addr:housenumber": "399", "addr:street": "Carrer de Val\u00e8ncia", "amenity": "restaurant", "name": "Zed", "opening_hours": "Tu-Sa 12:00-22:30"}}, {"type": "node", "id": 5806521955, "lat": 41.4048549, "lon": 2.1759323, "tags": {"amenity": "restaurant", "name": "Paisano Cafe", "opening_hours": "We-Mo 10:00-17:00"}}, {"type": "node", "id": 5806537553, "lat": 41.4001383, "lon": 2.1748451, "tags": {"addr:city": "Barcelona", "addr:housenumber": "287 bajo", "addr:postcode": "08013", "addr:street": "Avinguda Diagonal", "amenity": "restaurant", "cuisine": "galician", "name": "bicos restaurante", "name:ca": "bicos restaurant", "name:es": "bicos restaurante", "opening_hours": "Tu-Sa 12:30-16:00, 19:00-23:00; Su 12:30-16:00", "phone": "+34936118227", "website": "https://bicosrestaurante.com"}}, {"type": "node", "id": 5840107885, "lat": 41.4048258, "lon": 2.1758858, "tags": {"amenity": "cafe", "name:en": "Vanilla Cafe"}}, {"type": "node", "id": 5878496985, "lat": 41.4051569, "lon": 2.1921906, "tags": {"amenity": "restaurant", "cuisine": "japanese", "email": "glories@udon.es", "name": "UDON Gl\u00f2ries", "opening_hours": "Su-Th 13:00-00:00; Fr,Sa 13:00-01:00", "phone": "+34 93 486 13 14", "toilets:wheelchair": "yes", "website": "https://www.udon.es/es/restaurants/barcelona/udon-glories", "wheelchair": "yes"}}, {"type": "node", "id": 5880539485, "lat": 41.4039916, "lon": 2.1770548, "tags": {"addr:housenumber": "257", "addr:postcode": "08013", "addr:street": "Carrer de Lepant", "amenity": "cafe", "name:en": "Cheese and Cake", "toilets:wheelchair": "no", "wheelchair": "limited"}}, {"type": "node", "id": 5880596385, "lat": 41.4010072, "lon": 2.1761471, "tags": {"addr:housenumber": "310", "addr:postcode": "08013", "addr:street": "Avinguda Diagonal", "amenity": "bar", "name:en": "En Diagonal Bar"}}, {"type": "node", "id": 5881622778, "lat": 41.4013423, "lon": 2.1977952, "tags": {"name": "El Fornet", "shop": "bakery"}}, {"type": "node", "id": 5882246656, "lat": 41.3989063, "lon": 2.1758059, "tags": {"addr:housenumber": "465", "addr:street": "Carrer del Consell de Cent", "amenity": "restaurant", "name": "Kamasot", "opening_hours": "Mo-Sa 12:00-16:00, 20:00-12:00", "phone": "+34934616591"}}, {"type": "node", "id": 5882992722, "lat": 41.4025772, "lon": 2.1834034, "tags": {"addr:street": "diagonal", "name": "24h Supermercat con pan", "shop": "supermarket"}}, {"type": "node", "id": 5899729841, "lat": 41.3989914, "lon": 2.1725643, "tags": {"amenity": "ice_cream", "name": "Quim Gelats"}}, {"type": "node", "id": 5916148107, "lat": 41.3997551, "lon": 2.1706033, "tags": {"addr:housenumber": "340", "addr:street": "Carrer de Mallorca", "amenity": "restaurant"}}, {"type": "node", "id": 5933808740, "lat": 41.3986236, "lon": 2.1753141, "tags": {"addr:city": "Barcelona", "addr:housenumber": "182", "addr:postcode": "08013", "addr:street": "Carrer de N\u00e0pols", "amenity": "restaurant", "capacity": "50", "cuisine": "local", "name": "Kserol", "opening_hours": "Mo 09:00-18:00 Tu-Sa 09:00-00:00", "outdoor_seating": "yes", "phone": "+34 936 393 342", "smoking": "outside", "website": "http://www.kserol.com/"}}, {"type": "node", "id": 6009502585, "lat": 41.3994146, "lon": 2.1747998, "tags": {"amenity": "restaurant"}}, {"type": "node", "id": 6030376285, "lat": 41.398619, "lon": 2.18006, "tags": {"addr:housenumber": "731", "addr:street": "Gran Via de les Corts Catalanes (lateral muntanya)", "amenity": "bar", "name": "Bar Granvja", "name:ca": "Gran Via", "name:es": "Gran V\u00eda", "phone": "+34 9363226"}}, {"type": "node", "id": 6036931539, "lat": 41.4050517, "lon": 2.1926832, "tags": {"amenity": "fast_food", "name": "Viena", "toilets:wheelchair": "yes", "wheelchair": "yes"}}, {"type": "node", "id": 6051101120, "lat": 41.3974267, "lon": 2.1726187, "tags": {"addr:housenumber": "80", "addr:postcode": "08013", "addr:street": "Passeig de Sant Joan", "amenity": "restaurant", "internet_access": "wlan", "name": "Chichalimona"}}, {"type": "node", "id": 6093791831, "lat": 41.4076, "lon": 2.1881989, "tags": {"addr:city": "Barcelona", "addr:country": "ES", "addr:postcode": "08018", "addr:street": "Carrer del Clot", "name": "Secris", "shop": "greengrocer", "wheelchair": "yes"}}, {"type": "node", "id": 6093865402, "lat": 41.4007779, "lon": 2.1753037, "tags": {"name": "Buenos Aires", "opening_hours": "24/7", "shop": "convenience"}}, {"type": "node", "id": 6093886612, "lat": 41.4001066, "lon": 2.1728166, "tags": {"addr:housenumber": "340", "addr:street": "Avinguda Diagonal", "amenity": "bar", "name": "Kadushi"}}, {"type": "node", "id": 6093942018, "lat": 41.4071096, "lon": 2.1876767, "tags": {"addr:city": "Barcelona", "addr:country": "ES", "addr:postcode": "08018", "description": "Alimentaci\u00f3n y Licores", "name": "J. Solans", "shop": "convenience", "wheelchair": "yes"}}, {"type": "node", "id": 6093942019, "lat": 41.4056837, "lon": 2.1854527, "tags": {"amenity": "restaurant", "name": "Canario"}}, {"type": "node", "id": 6093944885, "lat": 41.4071645, "lon": 2.1874651, "tags": {"addr:city": "Barcelona", "addr:country": "ES", "addr:housenumber": "4", "addr:postcode": "08018", "addr:street": "Carrer de Joan I", "name": "Naim", "shop": "convenience"}}, {"type": "node", "id": 6093944886, "lat": 41.4072456, "lon": 2.1873211, "tags": {"addr:city": "Barcelona", "addr:country": "ES", "addr:housenumber": "6", "addr:postcode": "08018", "addr:street": "Carrer de Joan I", "amenity": "restaurant", "contact:facebook": "https://www.facebook.com/pg/TioRoyoElAlquimista/", "contact:phone": "+34 688208767", "cuisine": "mediterranean;regional", "name": "Nicasso", "opening_hours": "Mo-Sa 08:00-02:00; Su 12:00-02:00", "outdoor_seating": "no", "payment:american_express": "yes", "payment:discover_card": "yes", "payment:mastercard": "yes", "payment:visa": "yes", "smoking": "no"}}, {"type": "node", "id": 6097047661, "lat": 41.4003675, "lon": 2.1770146, "tags": {"addr:city": "Barcelona", "addr:housenumber": "229", "addr:postcode": "08013", "addr:street": "Carrer de Sardenya", "brand": "Mercadona", "brand:wikidata": "Q377705", "brand:wikipedia": "es:Mercadona", "name": "Mercadona", "opening_hours": "Mo-Sa 09:00-21:00; PH off", "phone": "+34 936343429", "shop": "supermarket", "toilets:wheelchair": "yes", "website": "https://www.mercadona.es", "wheelchair": "yes"}}, {"type": "node", "id": 6101403366, "lat": 41.3971142, "lon": 2.1758043, "tags": {"addr:city": "Barcelona", "addr:country": "ES", "addr:postcode": "08013", "addr:street": "Carrer de la Diputaci\u00f3", "name": "Diputaci\u00f3", "shop": "convenience"}}, {"type": "node", "id": 6101403369, "lat": 41.3972986, "lon": 2.1766221, "tags": {"addr:city": "Barcelona", "addr:country": "ES", "addr:postcode": "08013", "amenity": "restaurant", "internet_access": "wlan", "name": "Dalin i Vanessa", "opening_hours": "Mo-Su 07:00-00:00"}}, {"type": "node", "id": 6101403370, "lat": 41.398694, "lon": 2.1782798, "tags": {"addr:city": "Barcelona", "addr:country": "ES", "addr:housenumber": "406", "addr:postcode": "08013", "addr:street": "Carrer de la Diputaci\u00f3", "name": "Barcelona", "opening_hours": "24/7", "shop": "convenience", "wheelchair": "yes"}}, {"type": "node", "id": 6115282474, "lat": 41.4007398, "lon": 2.1747958, "tags": {"amenity": "restaurant", "name": "Riad Sakura"}}, {"type": "node", "id": 6121065215, "lat": 41.400426, "lon": 2.1738781, "tags": {"addr:city": "Barcelona", "addr:country": "ES", "addr:housenumber": "338", "addr:postcode": "08013", "addr:street": "Avinguda Diagonal", "amenity": "restaurant", "contact:email": "brasiliarest@gmail.com", "contact:phone": "+34 932071018", "cuisine": "spanish;mediterranean", "name": "Brasilia", "opening_hours": "Mo-Su 08:00-00:00", "outdoor_seating": "no"}}, {"type": "node", "id": 6121076545, "lat": 41.4019324, "lon": 2.1795042, "tags": {"addr:housenumber": "7", "addr:street": "Carrer Enamorats", "amenity": "bar", "name": "Balcony"}}, {"type": "node", "id": 6121148415, "lat": 41.4059895, "lon": 2.1859945, "tags": {"name": "Bonjour Gala", "shop": "bakery"}}, {"type": "node", "id": 6121155277, "lat": 41.4061796, "lon": 2.1860894, "tags": {"amenity": "bar", "name": "Bar La Fusta"}}, {"type": "node", "id": 6126749461, "lat": 41.3942111, "lon": 2.1902433, "tags": {"addr:housenumber": "27", "addr:postcode": "08018", "addr:street": "Carrer de Pujades", "amenity": "restaurant", "entrance": "yes", "name": "Cantero"}}, {"type": "node", "id": 6138906566, "lat": 41.3990235, "lon": 2.1944916, "tags": {"man_made": "surveillance", "surveillance:type": "camera"}}, {"type": "node", "id": 6138906835, "lat": 41.3989804, "lon": 2.1943079}, {"type": "node", "id": 6138906836, "lat": 41.3990757, "lon": 2.1943864}, {"type": "node", "id": 6138906883, "lat": 41.3989288, "lon": 2.1944148}, {"type": "node", "id": 6138906896, "lat": 41.3989667, "lon": 2.1944456, "tags": {"addr:housenumber": "101", "addr:postcode": "08018", "addr:street": "Carrer de Pere IV", "entrance": "yes"}}, {"type": "node", "id": 6139197908, "lat": 41.3961614, "lon": 2.1897405, "tags": {"addr:city": "Barcelona", "addr:housenumber": "90", "addr:postcode": "08018", "addr:street": "Carrer de Zamora", "entrance": "yes"}}, {"type": "node", "id": 6139197909, "lat": 41.395822, "lon": 2.1903811, "tags": {"entrance": "yes"}}, {"type": "node", "id": 6139197910, "lat": 41.395822, "lon": 2.1902597, "tags": {"entrance": "yes"}}, {"type": "node", "id": 6139197911, "lat": 41.3958219, "lon": 2.1902074, "tags": {"addr:city": "Barcelona", "addr:housenumber": "78", "addr:postcode": "08018", "addr:street": "Carrer de Zamora", "entrance": "yes"}}, {"type": "node", "id": 6139197953, "lat": 41.395822, "lon": 2.1902347}, {"type": "node", "id": 6139197977, "lat": 41.3962114, "lon": 2.1898118}, {"type": "node", "id": 6139197978, "lat": 41.3959821, "lon": 2.190376}, {"type": "node", "id": 6139197981, "lat": 41.3961507, "lon": 2.1897282}, {"type": "node", "id": 6139198732, "lat": 41.3958217, "lon": 2.1901653}, {"type": "node", "id": 6139198736, "lat": 41.3961572, "lon": 2.1897354}, {"type": "node", "id": 6139198749, "lat": 41.395822, "lon": 2.1904069}, {"type": "node", "id": 6154036053, "lat": 41.4024315, "lon": 2.1748044, "tags": {"amenity": "restaurant", "cuisine": "turkish", "name": "Rey de Istanbul"}}, {"type": "node", "id": 6157629899, "lat": 41.407803, "lon": 2.1892973, "tags": {"name": "Don Verdures", "shop": "greengrocer", "wheelchair": "yes"}}, {"type": "node", "id": 6157631328, "lat": 41.4077289, "lon": 2.1891251, "tags": {"name": "El Cafet\u00f3", "shop": "bakery", "toilets:wheelchair": "yes", "wheelchair": "yes"}}, {"type": "node", "id": 6164141341, "lat": 41.4049918, "lon": 2.1923017, "tags": {"addr:city": "Barcelona", "addr:country": "ES", "addr:housenumber": "218", "addr:postcode": "08018", "addr:street": "Avinguda Diagonal", "addr:unit": "293-304", "amenity": "restaurant", "branch": "C.C. Les Glories", "contact:phone": "+34 932663601", "contact:website": "https://www.latagliatella.es/restaurantes/barcelona/cc-les-glories-barcelona", "cuisine": "pizza;italian", "name": "La Tagliatella", "opening_hours": "Su-Th 13:00-23:00; Fr-Sa 12:00-00:00", "payment:mastercard": "yes", "payment:visa": "yes", "toilets:wheelchair": "yes", "wheelchair": "yes"}}, {"type": "node", "id": 6164182991, "lat": 41.4050315, "lon": 2.1963811, "tags": {"addr:city": "Barcelona", "addr:country": "ES", "addr:housenumber": "142", "addr:postcode": "08018", "addr:street": "Rambla del Poblenou", "amenity": "restaurant", "contact:phone": "+34 931925976", "contact:website": "https://rest-atrium.negocio.site/", "cuisine": "mediterranean", "name": "Atrium", "opening_hours": "Mo-Su 07:00-00:00"}}, {"type": "node", "id": 6164234382, "lat": 41.4052321, "lon": 2.1924708, "tags": {"addr:city": "Barcelona", "addr:country": "ES", "addr:housenumber": "208", "addr:postcode": "08018", "addr:street": "Avinguda Diagonal", "amenity": "restaurant", "branch": "C.C. Glories", "contact:website": "https://pokesi.es/", "cuisine": "poke", "delivery": "yes", "level": "-1", "name": "Pok\u00e9 S\u00ed", "opening_hours": "Mo-Su 12:00-23:00", "outdoor_seating": "no", "smoking": "no", "takeaway": "yes", "toilets:wheelchair": "yes", "wheelchair": "yes"}}, {"type": "node", "id": 6164234383, "lat": 41.4018825, "lon": 2.2003717, "tags": {"addr:city": "Barcelona", "addr:country": "ES", "addr:housenumber": "88", "addr:postcode": "08005", "addr:street": "Rambla del Poblenou", "amenity": "restaurant", "contact:facebook": "https://www.facebook.com/pg/Isami-1581280252085171/", "contact:phone": "+34 993099482", "cuisine": "japanese", "delivery": "yes", "name": "Isami", "opening_hours": "Tu-Su 12:30-16:00, 20:00-00:00", "takeaway": "yes"}}, {"type": "node", "id": 6164235940, "lat": 41.401992, "lon": 2.1998344, "tags": {"addr:city": "Barcelona", "addr:housenumber": "85", "addr:postcode": "08005", "addr:street": "Rambla del Poblenou", "addr:unit": "9", "amenity": "restaurant", "contact:phone": "+34 934869348", "cuisine": "middle_eastern;libanese;mediterranean", "name": "Sundown", "opening_hours": "Mo-Th 09:00-23:30; Fr-Sa 09:00-01:30; Su 09:00-23:00", "outdoor_seating": "yes"}}, {"type": "node", "id": 6164235941, "lat": 41.4011411, "lon": 2.2009618, "tags": {"addr:city": "Barcelona", "addr:housenumber": "71", "addr:postcode": "08005", "addr:street": "Rambla del Poblenou", "amenity": "fast_food", "branch": "POBLE NOU (B)", "brand": "Telepizza", "brand:wikidata": "Q2699863", "brand:wikipedia": "es:Telepizza", "contact:phone": "+34 933092737", "contact:website": "https://www.telepizza.es", "cuisine": "pizza", "delivery": "yes", "drive_through": "no", "name": "Telepizza", "payment:mastercard": "yes", "payment:visa": "yes", "takeaway": "yes"}}, {"type": "node", "id": 6164236104, "lat": 41.4047343, "lon": 2.1968042, "tags": {"addr:city": "Barcelona", "addr:country": "ES", "addr:housenumber": "134", "addr:postcode": "08018", "addr:street": "Rambla del Poblenou", "amenity": "restaurant", "contact:facebook": "https://es-es.facebook.com/barpaloverde", "contact:phone": "+34 936398409", "cuisine": "spanish;mediterranean", "name": "Palo Verde", "outdoor_seating": "yes"}}, {"type": "node", "id": 6164236105, "lat": 41.4014971, "lon": 2.2008971, "tags": {"addr:city": "Barcelona", "addr:country": "ES", "addr:housenumber": "82", "addr:postcode": "08005", "addr:street": "Rambla del Poblenou", "contact:phone": "+34 993004394", "name": "Boheme", "shop": "bakery"}}, {"type": "node", "id": 6175371185, "lat": 41.4077484, "lon": 2.1891122, "tags": {"name": "El cafet\u00f3", "shop": "bakery"}}, {"type": "node", "id": 6179289415, "lat": 41.4006622, "lon": 2.1748892, "tags": {"addr:city": "Barcelona", "addr:country": "ES", "amenity": "bar", "name": "Casa Rufo's"}}, {"type": "node", "id": 6181425077, "lat": 41.4012924, "lon": 2.1766545, "tags": {"addr:city": "Barcelona", "addr:country": "ES", "shop": "convenience"}}, {"type": "node", "id": 6181434180, "lat": 41.3941692, "lon": 2.178949, "tags": {"addr:city": "Barcelona", "addr:country": "ES", "amenity": "restaurant", "name": "Roger"}}, {"type": "node", "id": 6181434656, "lat": 41.4022354, "lon": 2.1835056, "tags": {"addr:city": "Barcelona", "addr:country": "ES", "shop": "convenience"}}, {"type": "node", "id": 6181435256, "lat": 41.4011237, "lon": 2.1846694, "tags": {"addr:city": "Barcelona", "addr:country": "ES", "shop": "convenience"}}, {"type": "node", "id": 6188916635, "lat": 41.3917648, "lon": 2.1804927, "tags": {"addr:city": "Barcelona", "addr:country": "ES", "addr:postcode": "08010", "addr:street": "Avinguda de Vilanova", "shop": "convenience"}}, {"type": "node", "id": 6188922858, "lat": 41.3998386, "lon": 2.1715382, "tags": {"addr:city": "Barcelona", "addr:country": "ES", "addr:housenumber": "216", "addr:postcode": "08013", "addr:street": "Carrer de Roger de Flor", "amenity": "restaurant", "contact:phone": "+34 934582283", "contact:website": "http://vegetarianoarciris.com/", "diet:vegetarian": "only", "name": "Arc iris", "opening_hours": "Mo-Sa 13:00-16:00", "outdoor_seating": "no", "payment:diners_club": "yes", "payment:mastercard": "yes", "payment:visa": "yes", "smoking": "no", "takeaway": "yes"}}, {"type": "node", "id": 6188929166, "lat": 41.4014517, "lon": 2.1761006, "tags": {"addr:city": "Barcelona", "addr:country": "ES", "addr:housenumber": "278", "addr:postcode": "08088", "addr:street": "Carrer de Sardenya", "brand": "Bonpreu", "brand:wikidata": "Q11924747", "brand:wikipedia": "ca:Grup Bon Preu", "contact:phone": "+34 936896404", "name": "Bonpreu", "opening_hours": "Mo-Sa 09:00-21:30", "shop": "supermarket"}}, {"type": "node", "id": 6188947162, "lat": 41.4062891, "lon": 2.1856357, "tags": {"contact:phone": "+34 935251789", "name": "Carnisseria Luna", "shop": "butcher"}}, {"type": "node", "id": 6190541290, "lat": 41.399773, "lon": 2.1711133, "tags": {"addr:city": "Barcelona", "addr:country": "ES", "addr:housenumber": "366", "addr:postcode": "08013", "addr:street": "Avinguda Diagonal", "amenity": "restaurant", "contact:email": "elosogolosobcn@gmail.com", "contact:phone": "+34 932070738", "cuisine": "italian; mediterranean", "diet:vegetarian": "yes", "name": "El Oso Goloso", "opening_hours": "Mo-Fr 13:00-15:30, 20:30-23:00"}}, {"type": "node", "id": 6196317429, "lat": 41.4059417, "lon": 2.1860262, "tags": {"amenity": "bar", "description": "comprobar nombre", "name": "Bar 27"}}, {"type": "node", "id": 6220939849, "lat": 41.4072841, "lon": 2.1872457, "tags": {"addr:city": "Barcelona", "addr:country": "ES", "addr:housenumber": "8", "addr:postcode": "08018", "addr:street": "Carrer de Joan I", "description": "Productos exclusivos de Ja\u00e9n.", "name": "El Cortijo", "shop": "deli"}}, {"type": "node", "id": 6230239354, "lat": 41.3969475, "lon": 2.175573, "tags": {"addr:city": "Barcelona", "addr:housenumber": "375", "addr:postcode": "08013", "addr:street": "Diputaci\u00f3", "amenity": "restaurant", "cuisine": "regional", "name": "Restaurant Portol\u00e9s"}}, {"type": "node", "id": 6259341990, "lat": 41.3963712, "lon": 2.1740729, "tags": {"amenity": "restaurant", "name": "Parking Pizza - Parking Pita"}}, {"type": "node", "id": 6263376152, "lat": 41.401928, "lon": 2.1945021, "tags": {"addr:street": "Carrer de Sancho d'Avila", "amenity": "restaurant", "name": "MyKasa"}}, {"type": "node", "id": 6330262252, "lat": 41.4014849, "lon": 2.1895987, "tags": {"addr:housenumber": "160", "addr:street": "Carrer \u00c1vila", "amenity": "restaurant", "name": "Raco del Poble Nou", "opening_hours": "Mo-Su 07:00-22:00"}}, {"type": "node", "id": 6332589894, "lat": 41.3966874, "lon": 2.1736776, "tags": {"amenity": "bar", "name": "Baccardi Cafe", "wheelchair": "yes"}}, {"type": "node", "id": 6332594087, "lat": 41.3972305, "lon": 2.1729258, "tags": {"name": "Forn de pa Bertran", "shop": "bakery"}}, {"type": "node", "id": 6332596985, "lat": 41.3989227, "lon": 2.1706153, "tags": {"brand": "Suma", "brand:wikidata": "Q58012362", "name": "Suma Express", "opening_hours": "24/7", "shop": "convenience"}}, {"type": "node", "id": 6333748791, "lat": 41.3957971, "lon": 2.1772448, "tags": {"name": "Maa Supermercat", "shop": "supermarket", "wheelchair": "limited"}}, {"type": "node", "id": 6333755193, "lat": 41.3987032, "lon": 2.1811514, "tags": {"amenity": "bar", "cuisine": "tapas", "name": "Bar Marina"}}, {"type": "node", "id": 6371980485, "lat": 41.397233, "lon": 2.183147, "tags": {"addr:postcode": "08013", "amenity": "cafe", "contact:instagram": "threemarkscoffee", "cuisine": "coffee_shop", "email": "account@threemarkscoffee.com", "indoor_seating": "yes", "internet_access": "wlan", "name": "Three Marks Coffee", "opening_hours": "Mo-Fr 08:30-17:30; Sa-Su 10:00-18:00", "outdoor_seating": "yes", "website": "https://www.threemarkscoffee.com/"}}, {"type": "node", "id": 6420374585, "lat": 41.4068698, "lon": 2.1864777, "tags": {"addr:city": "Barcelona", "addr:housenumber": "97", "addr:postcode": "08026", "addr:street": "Avinguda Meridiana", "amenity": "restaurant", "name": "Ca La Margui", "phone": "+34 932 45 11 66"}}, {"type": "node", "id": 6445233216, "lat": 41.3931059, "lon": 2.1798949, "tags": {"amenity": "restaurant", "indoor_seating": "yes", "name": "Gyoza Bar", "outdoor_seating": "yes"}}, {"type": "node", "id": 6451346360, "lat": 41.4054304, "lon": 2.1930548, "tags": {"addr:city": "Barcelona", "addr:country": "ES", "addr:housenumber": "139-145", "addr:street": "Carrer de la Llacuna"}}, {"type": "node", "id": 6500087327, "lat": 41.3971356, "lon": 2.1795276, "tags": {"amenity": "restaurant", "name": "Asador Vic Braseria"}}, {"type": "node", "id": 6503344192, "lat": 41.403636, "lon": 2.1986181, "tags": {"addr:housenumber": "208", "addr:postcode": "08005", "addr:street": "Carrer de Pere IV", "amenity": "restaurant", "cuisine": "italian_pizza", "name": "Roma Bella", "opening_hours": "Mo-Su 13:00-23:00", "phone": "+34 938 287 895"}}, {"type": "node", "id": 6516563967, "lat": 41.404438, "lon": 2.1905395, "tags": {"addr:housenumber": "240-252", "addr:street": "Avinguda Diagonal", "entrance": "yes"}}, {"type": "node", "id": 6516563968, "lat": 41.4045252, "lon": 2.1908919, "tags": {"addr:housenumber": "230-238", "addr:street": "Avinguda Diagonal", "entrance": "yes"}}, {"type": "node", "id": 6516563969, "lat": 41.4046702, "lon": 2.1914774, "tags": {"addr:housenumber": "220-228", "addr:street": "Avinguda Diagonal", "entrance": "yes"}}, {"type": "node", "id": 6516563970, "lat": 41.4048436, "lon": 2.1921448, "tags": {"addr:housenumber": "210-218", "addr:street": "Avinguda Diagonal", "entrance": "yes"}}, {"type": "node", "id": 6516563971, "lat": 41.4049295, "lon": 2.1924896, "tags": {"addr:housenumber": "200-208", "addr:street": "Avinguda Diagonal", "entrance": "yes"}}, {"type": "node", "id": 6516563972, "lat": 41.4050723, "lon": 2.1930626, "tags": {"addr:housenumber": "188-198", "addr:street": "Avinguda Diagonal", "entrance": "yes"}}, {"type": "node", "id": 6516572963, "lat": 41.4051123, "lon": 2.1896098, "tags": {"addr:housenumber": "850-852", "addr:street": "Gran Via de les Corts Catalanes"}}, {"type": "node", "id": 6516572964, "lat": 41.4054001, "lon": 2.1899919, "tags": {"addr:housenumber": "854-864", "addr:street": "Gran Via de les Corts Catalanes"}}, {"type": "node", "id": 6516572965, "lat": 41.406337, "lon": 2.1912349, "tags": {"addr:housenumber": "874-888", "addr:street": "Gran Via de les Corts Catalanes"}}, {"type": "node", "id": 6520607234, "lat": 41.3971991, "lon": 2.174042, "tags": {"addr:housenumber": "418", "addr:street": "Consell de cent", "amenity": "restaurant", "description": "Korean restaurant", "name": "Sam By Ja - Samgyetang restaurant", "opening_hours": "Mo-Su 12:00-00:00", "phone": "+34 695 69 88 14"}}, {"type": "node", "id": 6532206187, "lat": 41.4032734, "lon": 2.2032208, "tags": {"addr:street": "Carrer de Bilbao", "amenity": "ice_cream", "name": "Granja"}}, {"type": "node", "id": 6532207787, "lat": 41.4036679, "lon": 2.2021718, "tags": {"addr:street": "Carrer de Bilbao", "amenity": "bar", "name": "El Poblet"}}, {"type": "node", "id": 6532214486, "lat": 41.4041071, "lon": 2.2020953, "tags": {"amenity": "restaurant", "name": "Panepizza"}}, {"type": "node", "id": 6532214487, "lat": 41.4039113, "lon": 2.201701, "tags": {"amenity": "bar", "name": "Susurro"}}, {"type": "node", "id": 6532230691, "lat": 41.3991988, "lon": 2.1885302, "tags": {"addr:street": "Carrer de T\u00e0nger", "amenity": "restaurant", "name": "L'Estoneta"}}, {"type": "node", "id": 6532239885, "lat": 41.4001402, "lon": 2.1897924, "tags": {"addr:housenumber": "44", "addr:postcode": "08018", "addr:street": "Carrer de T\u00e0nger", "amenity": "restaurant", "entrance": "yes", "name": "Casa Mar\u00eda"}}, {"type": "node", "id": 6532239886, "lat": 41.4003823, "lon": 2.1901179, "tags": {"addr:housenumber": "50", "addr:street": "Carrer de T\u00e0nger", "amenity": "restaurant", "name": "T\u00e1nger"}}, {"type": "node", "id": 6532239887, "lat": 41.4003684, "lon": 2.1901005, "tags": {"addr:housenumber": "50", "addr:postcode": "08018", "addr:street": "Carrer de T\u00e0nger", "entrance": "yes", "name": "David", "shop": "convenience"}}, {"type": "node", "id": 6532297485, "lat": 41.4053616, "lon": 2.2003294, "tags": {"addr:housenumber": "98", "addr:street": "Carrer de Bilbao", "amenity": "cafe", "name": "Caffeine"}}, {"type": "node", "id": 6532297486, "lat": 41.4047113, "lon": 2.201252, "tags": {"addr:street": "Carrer de Bilbao", "amenity": "fast_food", "name": "Tuapetito"}}, {"type": "node", "id": 6532297585, "lat": 41.4051228, "lon": 2.2006251, "tags": {"addr:street": "Carrer de Bilbao", "amenity": "bar", "name": "Molika"}}, {"type": "node", "id": 6533458685, "lat": 41.4045048, "lon": 2.2010302, "tags": {"addr:street": "Carrer de Bilbao", "amenity": "bar", "name": "Curro"}}, {"type": "node", "id": 6533543186, "lat": 41.3954241, "lon": 2.1927662, "tags": {"amenity": "restaurant", "name": "La Terrassa"}}, {"type": "node", "id": 6535101487, "lat": 41.3990612, "lon": 2.1968513, "tags": {"name": "Proxim", "shop": "supermarket"}}, {"type": "node", "id": 6535101586, "lat": 41.3962666, "lon": 2.1921849, "tags": {"addr:housenumber": ",78", "addr:street": "Carrer de Pamplona", "amenity": "restaurant", "name": "Xiscarexantar"}}, {"type": "node", "id": 6535101685, "lat": 41.4000317, "lon": 2.1956346, "tags": {"amenity": "bar", "name": "Catalunya"}}, {"type": "node", "id": 6535101686, "lat": 41.3992845, "lon": 2.1970974, "tags": {"amenity": "restaurant", "name": "Llacuna"}}, {"type": "node", "id": 6535101785, "lat": 41.4048149, "lon": 2.1995456, "tags": {"addr:street": "Carrer de Pere IV", "amenity": "cafe", "name": "Monsieur Bosc"}}, {"type": "node", "id": 6538000266, "lat": 41.3925057, "lon": 2.1894485, "tags": {"brand": "La Sirena", "brand:wikidata": "Q21034458", "brand:wikipedia": "ca:La Sirena", "name": "La Sirena", "opening_hours": "Mo-Sa 09:00-21:00", "shop": "supermarket", "website": "https://www.lasirena.es/"}}, {"type": "node", "id": 6538030943, "lat": 41.3929076, "lon": 2.1885988, "tags": {"name": "M.M Supermercat", "opening_hours": "24/7", "shop": "convenience"}}, {"type": "node", "id": 6538034098, "lat": 41.3897255, "lon": 2.184103, "tags": {"name": "Bon Supermercat", "shop": "convenience"}}, {"type": "node", "id": 6538037331, "lat": 41.389766, "lon": 2.1841634, "tags": {"amenity": "ice_cream", "name": "Gelat & Te"}}, {"type": "node", "id": 6538038332, "lat": 41.3925041, "lon": 2.1891399, "tags": {"amenity": "fast_food", "cuisine": "burger", "name": "babol burguer"}}, {"type": "node", "id": 6538040130, "lat": 41.3918983, "lon": 2.1879248, "tags": {"amenity": "fast_food", "cuisine": "pizza"}}, {"type": "node", "id": 6538041134, "lat": 41.3919848, "lon": 2.1880787, "tags": {"name": "Fruteria Judith", "shop": "greengrocer"}}, {"type": "node", "id": 6538042985, "lat": 41.3923461, "lon": 2.1887696, "tags": {"brand": "Caprabo", "brand:wikidata": "Q1980781", "brand:wikipedia": "en:Caprabo", "name": "Caprabo", "shop": "supermarket"}}, {"type": "node", "id": 6552263885, "lat": 41.4021166, "lon": 2.1898084, "tags": {"addr:housenumber": "31", "addr:street": "Carrer de Bol\u00edvia", "amenity": "restaurant", "cuisine": "local", "internet_access": "wlan", "name": "Mare Meva", "opening_hours": "Mo-Fr 07:30-17:00"}}, {"type": "node", "id": 6552264185, "lat": 41.402359, "lon": 2.1931161, "tags": {"addr:housenumber": "98", "addr:street": "Carrer de T\u00e0nger", "amenity": "restaurant", "email": "info22@casapepe.es", "name": "Casa Pepe", "opening_hours": "Mo-Fr 08:00-17:30", "phone": "+34 933569680"}}, {"type": "node", "id": 6563307386, "lat": 41.4016002, "lon": 2.1889242, "tags": {"amenity": "bar", "name": "Eva-2"}}, {"type": "node", "id": 6563312285, "lat": 41.3971005, "lon": 2.187613, "tags": {"addr:housenumber": "7", "addr:street": "Carrer de Sancho de \u00c0vila", "amenity": "restaurant", "cuisine": "local", "name": "Sancho", "opening_hours": "Mo-Fr 07:00-22:00, Sa-Su 08:00-22:00"}}, {"type": "node", "id": 6576044985, "lat": 41.4010063, "lon": 2.1880935, "tags": {"addr:housenumber": "1-3", "addr:street": "Carrer de Bol\u00edvia", "amenity": "restaurant", "cuisine": "arab", "name": "Al Jaima - Els Encants", "name:es": "Al-Jaima - Els Encants", "opening_hours": "Mo-Sa 07:00-23:00", "phone": "034930178487"}}, {"type": "node", "id": 6576045085, "lat": 41.4010388, "lon": 2.1883527, "tags": {"addr:housenumber": "1", "addr:street": "Carrer de Bol\u00edvia", "name": "Alimentaci\u00f3 Escribano", "opening_hours": "Mo-Sa 07:45-15:00, 17:00-21:00", "shop": "convenience"}}, {"type": "node", "id": 6576045185, "lat": 41.4013195, "lon": 2.1887189, "tags": {"addr:housenumber": "11", "addr:street": "Carrer de Bol\u00edvia", "amenity": "restaurant", "name": "Tovar", "opening_hours": "Mo-Sa 06:00-17:00"}}, {"type": "node", "id": 6579626787, "lat": 41.4077053, "lon": 2.1921041, "tags": {"addr:housenumber": "873", "addr:street": "Gran Via de les Corts Catalanes", "amenity": "cafe", "name": "Gloria bean's coffee"}}, {"type": "node", "id": 6579626886, "lat": 41.406837, "lon": 2.1909846, "tags": {"addr:housenumber": "857", "addr:street": "Gran Via de les Corts Catalanes", "amenity": "bar", "name": "Chaplin"}}, {"type": "node", "id": 6579626985, "lat": 41.4065594, "lon": 2.190623, "tags": {"addr:housenumber": "855", "addr:street": "Gran Via de les Corts Catalanes", "amenity": "cafe", "internet_access": "wlan", "name": "Carlu"}}, {"type": "node", "id": 6579627085, "lat": 41.4056827, "lon": 2.1894676, "tags": {"addr:housenumber": "837", "addr:street": "Gran Via de les Corts Catalanes", "amenity": "restaurant", "name": "Bar Avenida"}}, {"type": "node", "id": 6582515706, "lat": 41.4003043, "lon": 2.183255, "tags": {"addr:city": "Barcelona", "addr:housenumber": "798", "addr:postcode": "08013", "addr:street": "Gran Via de les Corts Catalanes", "brand": "Caprabo", "brand:wikidata": "Q1980781", "brand:wikipedia": "en:Caprabo", "name": "Caprabo", "opening_hours": "Mo-Su 08:00-23:00", "payment:cash": "yes", "payment:mastercard": "yes", "payment:visa": "yes", "shop": "supermarket"}}, {"type": "node", "id": 6588176585, "lat": 41.4013749, "lon": 2.1887841, "tags": {"addr:housenumber": "15,17", "addr:street": "Carrer de Bol\u00edvia", "amenity": "restaurant", "name": "La Fonda", "opening_hours": "Mo-Fr 07:00-20:00"}}, {"type": "node", "id": 6588191385, "lat": 41.4014243, "lon": 2.188848, "tags": {"addr:housenumber": "15,17", "addr:street": "Carrer de Bol\u00edvia", "amenity": "restaurant", "name": "Can Miguel\u00edn", "opening_hours": "Mo-Su 09:00-00:00"}}, {"type": "node", "id": 6638904861, "lat": 41.4026914, "lon": 2.1989384, "tags": {"amenity": "restaurant", "name": "L'origen"}}, {"type": "node", "id": 6641746885, "lat": 41.3926249, "lon": 2.1857745, "tags": {"addr:housenumber": "31", "addr:street": "Carrer de Buenaventura Mu\u00f1oz", "amenity": "cafe", "cuisine": "coffee_shop", "name": "Orval"}}, {"type": "node", "id": 6750085594, "lat": 41.4043447, "lon": 2.1785638, "tags": {"addr:street": "Carrer de Val\u00e8ncia", "amenity": "cafe", "internet_access": "wlan", "name": "365 Obrador", "opening_hours": "Mo-Su 06:00-22:00"}}, {"type": "node", "id": 6750690090, "lat": 41.4041238, "lon": 2.1782774, "tags": {"addr:housenumber": "475", "addr:street": "Carrer de Val\u00e8ncia", "amenity": "restaurant", "name": "Bar Chen"}},