{"version": 0.6, "generator": "Overpass API 0.7.58.5 b0c4acbb", "osm3s": {"timestamp_osm_base": "2022-09-05T10:25:24Z", "copyright": "The data included in this document is from www.openstreetmap.org. The data is made available under ODbL."}, "elements": [{"type": "node", "id": 830462039, "lat": 41.4043015, "lon": 2.1949428, "tags": {"amenity": "cafe", "name": "Cafe Tampa", "smoking": "outside"}}, {"type": "node", "id": 1312224402, "lat": 41.3948006, "lon": 2.1940578, "tags": {"amenity": "restaurant", "name": "Mann\u00e0"}}, {"type": "node", "id": 1357828862, "lat": 41.4037433, "lon": 2.1938343, "tags": {"amenity": "cafe", "name": "Cafeter\u00eda universitaria", "opening_hours": "Mo-Fr 09:00-19:00"}}, {"type": "node", "id": 2065469522, "lat": 41.3997461, "lon": 2.2003004, "tags": {"addr:housenumber": "159", "addr:street": "Carrer de Llull", "amenity": "pub", "name": "Restaurant Pipa", "opening_hours": "Mo-Su 12:30-00:00"}}, {"type": "node", "id": 2075453725, "lat": 41.4012569, "lon": 2.1966826, "tags": {"addr:housenumber": "92", "addr:street": "Carrer Roc Boronat", "amenity": "restaurant", "cuisine": "spanish", "name": "La Mossegada del Poblenou", "smoking": "outside"}}, {"type": "node", "id": 2158865607, "lat": 41.399043, "lon": 2.1884309, "tags": {"addr:housenumber": "22", "addr:street": "Carrer de T\u00e0nger", "amenity": "cafe", "contact:phone": "+34 933 09 33 75", "contact:website": "http://www.carrotcafe.es/", "name": "Carrot Caf\u00e9", "name:ca": "Carrot caf\u00e9", "name:en": "Carrot caf\u00e9", "name:es": "Carrot caf\u00e9"}}, {"type": "node", "id": 2187210264, "lat": 41.4023416, "lon": 2.1952788, "tags": {"addr:city": "Barcelona", "addr:housenumber": "114", "addr:postcode": "08018", "addr:street": "Carrer de Roc Boronat", "amenity": "restaurant", "cuisine": "mediterranean", "diet:vegan": "no", "diet:vegetarian": "only", "name": "Sopa", "organic": "only", "phone": "+34 933 09 56 76", "smoking": "outside", "takeaway": "yes", "website": "http://www.sopa.vg/"}}, {"type": "node", "id": 2187282137, "lat": 41.4017897, "lon": 2.196068, "tags": {"addr:city": "Barcelona", "addr:housenumber": "211", "addr:postcode": "08018", "addr:street": "Carrer dels Almog\u00e0vers", "amenity": "restaurant", "cuisine": "spanish", "name": "El Catacroquet", "phone": "+34932809059", "website": "http://catacroquet.es/"}}, {"type": "node", "id": 2192226738, "lat": 41.4034935, "lon": 2.1960697, "tags": {"amenity": "restaurant", "cuisine": "pizza", "name": "L'Aldil\u00e0"}}, {"type": "node", "id": 2193095414, "lat": 41.402733, "lon": 2.1969736, "tags": {"addr:city": "Barcelona", "addr:street": "Carrer de la Llacuna", "amenity": "restaurant", "cuisine": "spanish", "name": "Braseria Julian"}}, {"type": "node", "id": 2193095435, "lat": 41.4026626, "lon": 2.1971936, "tags": {"addr:city": "Barcelona", "amenity": "restaurant", "cuisine": "spanish", "name": "Llacuna"}}, {"type": "node", "id": 2193415475, "lat": 41.4035357, "lon": 2.1962709, "tags": {"amenity": "restaurant", "cuisine": "spanish"}}, {"type": "node", "id": 2400689820, "lat": 41.4006365, "lon": 2.1961225, "tags": {"addr:city": "Barcelona", "addr:housenumber": "132", "addr:postcode": "08005", "addr:street": "Carrer de Pere IV", "amenity": "restaurant", "cuisine": "international", "name": "L\u00facuma", "phone": "+34 933569310", "smoking": "outside", "takeaway": "yes"}}, {"type": "node", "id": 2408482659, "lat": 41.402164, "lon": 2.193314, "tags": {"addr:city": "Barcelona", "addr:street": "Carrer Ciutat de Granada", "amenity": "restaurant", "cuisine": "spanish", "name": "Quinabarra", "opening_hours": "Mo-Fr 08:00-17:00", "smoking": "no"}}, {"type": "node", "id": 2528521163, "lat": 41.4003612, "lon": 2.1959358, "tags": {"name": "Alimentacion", "shop": "convenience"}}, {"type": "node", "id": 2703829256, "lat": 41.4007421, "lon": 2.1991334, "tags": {"addr:city": "Barcelona", "addr:housenumber": "155", "addr:postcode": "08005", "addr:street": "Carrer de Pujades", "amenity": "cafe", "cuisine": "regional", "name": "Bon Gust"}}, {"type": "node", "id": 2781788371, "lat": 41.3994356, "lon": 2.197621, "tags": {"addr:city": "Barcelona", "addr:housenumber": "127", "addr:street": "Carrer de Pujades", "building": "kiosk", "building:levels": "1", "shop": "kiosk"}}, {"type": "node", "id": 3005463983, "lat": 41.3972585, "lon": 2.1916091, "tags": {"addr:city": "Barcelona", "addr:housenumber": "88", "addr:postcode": "08018", "addr:street": "Carrer de Pamplona", "amenity": "pub", "name": "Ceferino", "smoking": "outside"}}, {"type": "node", "id": 3023964339, "lat": 41.4007199, "lon": 2.1997229, "tags": {"addr:city": "Barcelona", "addr:housenumber": "168", "addr:postcode": "08005", "addr:street": "Carrer de Pujades", "amenity": "fast_food", "branch": "Poblenou", "contact:phone": "+34933285188", "cuisine": "burger", "name": "Timesburg", "smoking": "outside", "website": "https://www.timesburg.com/"}}, {"type": "node", "id": 3361212874, "lat": 41.3965202, "lon": 2.1918882, "tags": {"addr:housenumber": "120", "addr:street": "Carrer de Pallars", "amenity": "fast_food", "cuisine": "american"}}, {"type": "node", "id": 3955968257, "lat": 41.3986109, "lon": 2.1978895, "tags": {"addr:city": "Barcelona", "addr:housenumber": "54", "addr:postcode": "08005", "addr:street": "Carrer de la Ciutat de Granada", "amenity": "restaurant", "name": "El rac\u00f3 de les Gl\u00f2ries", "opening_hours": "Mo-Fr 06:30-23:00; Sa-Su 08:00-23:00"}}, {"type": "node", "id": 4060217594, "lat": 41.3993348, "lon": 2.1997769, "tags": {"addr:city": "Barcelona", "addr:housenumber": "147", "addr:postcode": "08005", "addr:street": "Carrer de Llull", "amenity": "restaurant", "name": "La Taverna del Poblenou"}}, {"type": "node", "id": 4138769013, "lat": 41.3970017, "lon": 2.1913538, "tags": {"addr:housenumber": "88", "addr:street": "Carrer de Pamplona", "amenity": "cafe", "name": "SKYE Coffee", "opening_hours": "Mo-Tu 09:00-13:30; We-Fr 09:00-17:00"}}, {"type": "node", "id": 4254685758, "lat": 41.3967509, "lon": 2.1929295, "tags": {"amenity": "cafe", "name": "Bread Bucket", "shop": "bakery"}}, {"type": "node", "id": 4254686706, "lat": 41.3970854, "lon": 2.1928808, "tags": {"amenity": "cafe"}}, {"type": "node", "id": 4289682653, "lat": 41.3978888, "lon": 2.189968, "tags": {"addr:city": "Barcelona", "addr:housenumber": "96", "addr:postcode": "08018", "addr:street": "Carrer de Pamplona", "amenity": "pub", "name": "Sonora Sport Tavern"}}, {"type": "node", "id": 5010794821, "lat": 41.3979072, "lon": 2.1955319, "tags": {"addr:housenumber": "95", "addr:street": "Carrer de Pujades", "amenity": "cafe", "name": "N\u00f8mad Roaster's Home", "name:en": "N\u00f8mad Roaster's Home", "opening_hours": "Mo-Fr 09:00-17:00"}}, {"type": "node", "id": 5028979721, "lat": 41.3987513, "lon": 2.1950702, "tags": {"addr:housenumber": "95", "addr:street": "Carrer de Badajoz", "amenity": "cafe", "contact:facebook": "https://www.facebook.com/espaijoliu/", "name": "Espai Joliu", "opening_hours": "Mo-Fr 09:00-19:00; Sa 10:00-15:00", "website": "http://espaijoliu.tumblr.com/"}}, {"type": "node", "id": 5081403253, "lat": 41.3988611, "lon": 2.199136, "tags": {"addr:city": "Barcelona", "addr:housenumber": "141 bis", "addr:postcode": "08005", "addr:street": "Carrer de Llull", "diet:gluten_free": "yes", "diet:vegan": "only", "email": "calveganic@calveganic.com", "name": "Cal Veganic", "opening_hours": "Mo-Sa 10:00-20:30", "phone": "+34 656 38 57 73", "shop": "convenience", "website": "http://calveganic.com/"}}, {"type": "node", "id": 5106588429, "lat": 41.3982968, "lon": 2.1983407, "tags": {"addr:housenumber": "44", "addr:street": "Carrer de la Ciutat de Granada", "amenity": "restaurant", "name": "Can Dend\u00ea", "name:es": "Can Dend\u00ea"}}, {"type": "node", "id": 5380241103, "lat": 41.4004924, "lon": 2.1903645, "tags": {"amenity": "restaurant", "name": "Diamantico"}}, {"type": "node", "id": 5380241629, "lat": 41.4004229, "lon": 2.1906076, "tags": {"amenity": "restaurant", "name": "el Jard\u00ed"}}, {"type": "node", "id": 5522265621, "lat": 41.3990264, "lon": 2.194494}, {"type": "node", "id": 5531275475, "lat": 41.3980449, "lon": 2.1941948, "tags": {"brand": "Dia", "brand:wikidata": "Q925132", "brand:wikipedia": "es:DIA (supermercados)", "name": "Dia", "operator": "Distribuidora Internacional de Alimentaci\u00f3n, S.A.", "shop": "supermarket", "website": "https://www.dia.es"}}, {"type": "node", "id": 5617465886, "lat": 41.3967536, "lon": 2.1962847, "tags": {"amenity": "restaurant"}}, {"type": "node", "id": 5881622778, "lat": 41.4013423, "lon": 2.1977952, "tags": {"name": "El Fornet", "shop": "bakery"}}, {"type": "node", "id": 6138906566, "lat": 41.3990235, "lon": 2.1944916, "tags": {"man_made": "surveillance", "surveillance:type": "camera"}}, {"type": "node", "id": 6138906835, "lat": 41.3989804, "lon": 2.1943079}, {"type": "node", "id": 6138906836, "lat": 41.3990757, "lon": 2.1943864}, {"type": "node", "id": 6138906883, "lat": 41.3989288, "lon": 2.1944148}, {"type": "node", "id": 6138906896, "lat": 41.3989667, "lon": 2.1944456, "tags": {"addr:housenumber": "101", "addr:postcode": "08018", "addr:street": "Carrer de Pere IV", "entrance": "yes"}}, {"type": "node", "id": 6263376152, "lat": 41.401928, "lon": 2.1945021, "tags": {"addr:street": "Carrer de Sancho d'Avila", "amenity": "restaurant", "name": "MyKasa"}}, {"type": "node", "id": 6532230691, "lat": 41.3991988, "lon": 2.1885302, "tags": {"addr:street": "Carrer de T\u00e0nger", "amenity": "restaurant", "name": "L'Estoneta"}}, {"type": "node", "id": 6532239885, "lat": 41.4001402, "lon": 2.1897924, "tags": {"addr:housenumber": "44", "addr:postcode": "08018", "addr:street": "Carrer de T\u00e0nger", "amenity": "restaurant", "entrance": "yes", "name": "Casa Mar\u00eda"}}, {"type": "node", "id": 6532239886, "lat": 41.4003823, "lon": 2.1901179, "tags": {"addr:housenumber": "50", "addr:street": "Carrer de T\u00e0nger", "amenity": "restaurant", "name": "T\u00e1nger"}}, {"type": "node", "id": 6532239887, "lat": 41.4003684, "lon": 2.1901005, "tags": {"addr:housenumber": "50", "addr:postcode": "08018", "addr:street": "Carrer de T\u00e0nger", "entrance": "yes", "name": "David", "shop": "convenience"}}, {"type": "node", "id": 6533543186, "lat": 41.3954241, "lon": 2.1927662, "tags": {"amenity": "restaurant", "name": "La Terrassa"}}, {"type": "node", "id": 6535101487, "lat": 41.3990612, "lon": 2.1968513, "tags": {"name": "Proxim", "shop": "supermarket"}}, {"type": "node", "id": 6535101586, "lat": 41.3962666, "lon": 2.1921849, "tags": {"addr:housenumber": ",78", "addr:street": "Carrer de Pamplona", "amenity": "restaurant", "name": "Xiscarexantar"}}, {"type": "node", "id": 6535101685, "lat": 41.4000317, "lon": 2.1956346, "tags": {"amenity": "bar", "name": "Catalunya"}}, {"type": "node", "id": 6535101686, "lat": 41.3992845, "lon": 2.1970974, "tags": {"amenity": "restaurant", "name": "Llacuna"}}, {"type": "node", "id": 6535101786, "lat": 41.3974655, "lon": 2.1967141, "tags": {"amenity": "restaurant", "name": "Leka"}}, {"type": "node", "id": 6552264185, "lat": 41.402359, "lon": 2.1931161, "tags": {"addr:housenumber": "98", "addr:street": "Carrer de T\u00e0nger", "amenity": "restaurant", "email": "info22@casapepe.es", "name": "Casa Pepe", "opening_hours": "Mo-Fr 08:00-17:30", "phone": "+34 933569680"}}, {"type": "node", "id": 6973926711, "lat": 41.3965047, "lon": 2.1941864, "tags": {"addr:housenumber": "100", "addr:street": "Carrer de Pujades", "amenity": "cafe", "name": "Syra Coffee", "name:en": "Itnig", "website": "https://syra.coffee/"}}, {"type": "node", "id": 7040899089, "lat": 41.3946338, "lon": 2.1938209, "tags": {"amenity": "cafe", "name": "carme"}}, {"type": "node", "id": 7556742392, "lat": 41.40441, "lon": 2.1947619, "tags": {"amenity": "bar", "name": "El Padrino"}}, {"type": "node", "id": 7556742598, "lat": 41.4033088, "lon": 2.1964188, "tags": {"amenity": "restaurant", "delivery": "only", "name": "Xoubas"}}, {"type": "node", "id": 7556742599, "lat": 41.4035243, "lon": 2.1962293, "tags": {"amenity": "bar", "name": "L'Enxaneta"}}, {"type": "node", "id": 7556742600, "lat": 41.4039082, "lon": 2.1954534, "tags": {"amenity": "bar", "name": "Honest Food"}}, {"type": "node", "id": 7615982501, "lat": 41.4003896, "lon": 2.1978586, "tags": {"amenity": "bar", "name": "La Tavernicola"}}, {"type": "node", "id": 7616019787, "lat": 41.3996205, "lon": 2.1959957, "tags": {"shop": "convenience"}}, {"type": "node", "id": 8034999886, "lat": 41.3980284, "lon": 2.1986941, "tags": {"amenity": "restaurant", "name": "Costa Dorada"}}, {"type": "node", "id": 8035019187, "lat": 41.400417, "lon": 2.1955634, "tags": {"amenity": "restaurant", "name": "Die Spiegel"}}, {"type": "node", "id": 8046554489, "lat": 41.4001224, "lon": 2.2000188, "tags": {"amenity": "restaurant", "name": "Sport"}}, {"type": "node", "id": 8046559285, "lat": 41.4023415, "lon": 2.1975419, "tags": {"amenity": "bar", "name": "little ferm"}}, {"type": "node", "id": 8064873686, "lat": 41.3977404, "lon": 2.1934117, "tags": {"amenity": "restaurant", "name": "La Cantonada del Xenia"}}, {"type": "node", "id": 8064873887, "lat": 41.396904, "lon": 2.1931193, "tags": {"amenity": "restaurant", "name": "Cala Joana"}}, {"type": "node", "id": 8064873985, "lat": 41.3957712, "lon": 2.1953013, "tags": {"amenity": "restaurant", "name": "Saramar"}}, {"type": "node", "id": 8064873986, "lat": 41.3974759, "lon": 2.1931865, "tags": {"amenity": "restaurant", "name": "Xenia"}}, {"type": "node", "id": 8064873987, "lat": 41.3993018, "lon": 2.1920928, "tags": {"amenity": "cafe", "name": "Oasis"}}, {"type": "node", "id": 8064874185, "lat": 41.396382, "lon": 2.1935012, "tags": {"amenity": "cafe", "name": "El primer caf\u00e9"}}, {"type": "node", "id": 8760560770, "lat": 41.3994943, "lon": 2.2003731, "tags": {"amenity": "cafe", "name": "That's l-fe"}}, {"type": "node", "id": 9023362418, "lat": 41.3955052, "lon": 2.1923565, "tags": {"amenity": "fast_food", "cuisine": "kebab", "name": "J\u00e9rusalem", "name:ca": "Jerusalem", "name:en": "Jerusalem"}}, {"type": "node", "id": 9376342919, "lat": 41.3966728, "lon": 2.1919552, "tags": {"addr:housenumber": "122", "addr:postcode": "08018", "addr:street": "Carrer de Pallars", "air_conditioning": "no", "amenity": "bar", "email": "hijoscain@hotmail.com", "indoor_seating": "yes", "name": "Hijos de cain Bar", "opening_hours": "Fr-Sa 22:30-03:00", "operator": "PH Fr,Sa 23:00-03:00", "outdoor_seating": "no", "payment:credit_cards": "yes", "payment:debit_cards": "yes", "smoking": "no", "website": "http://www.hijosdecain.es/", "wheelchair": "no"}}, {"type": "node", "id": 9376343220, "lat": 41.3963512, "lon": 2.1922632, "tags": {"addr:housenumber": "61", "addr:postcode": "08018", "addr:street": "Carrer de Pere IV", "amenity": "bar", "contact:facebook": "airbarpoblenou", "email": "airbarpoblenou@hotmail.com", "name:en": "Airbar"}}, {"type": "node", "id": 9376372117, "lat": 41.3967903, "lon": 2.1921194, "tags": {"addr:housenumber": "122", "addr:postcode": "08018", "addr:street": "Carrer de Pallars", "air_conditioning": "no", "amenity": "bar", "contact:facebook": "D9bar", "contact:instagram": "d9poblenou", "email": "ramon@denou.bar", "indoor_seating": "yes", "name": "D9", "opening_hours": "Mo-Su 18:00-01:00", "outdoor_seating": "yes", "payment:credit_cards": "yes", "payment:debit_cards": "yes", "phone": "+34 933 099 202;+34 687 955 816", "smoking": "outside", "website": "https://denou.bar/", "wheelchair": "no"}}, {"type": "node", "id": 9376642417, "lat": 41.3988768, "lon": 2.1953173, "tags": {"addr:housenumber": "92", "addr:postcode": "08005", "addr:street": "Carrer de Badajoz", "amenity": "bar", "contact:facebook": "ravenpoblenou", "name": "Raven Poblenou", "opening_hours": "Fr-Sa 23:00-03:30"}}, {"type": "node", "id": 9377066517, "lat": 41.3983197, "lon": 2.1942274, "tags": {"addr:housenumber": "100", "addr:postcode": "08006", "addr:street": "Carrer de Pere IV", "amenity": "restaurant", "name": "El rey del kebab", "opening_hours": "Mo-Fr 11:30-23:00; Sa-Su 14:00-23:00"}}, {"type": "node", "id": 9810799117, "lat": 41.3995409, "lon": 2.2000183, "tags": {"addr:housenumber": "155", "addr:street": "Carrer de Llull", "amenity": "restaurant", "cuisine": "japanese", "name:en": "Kibuka", "opening_hours": "Mo-Su 13:00-23:30"}}, {"type": "node", "id": 9812455817, "lat": 41.3996622, "lon": 2.1978459, "tags": {"name:en": "Vains", "shop": "supermarket"}}, {"type": "node", "id": 9812455818, "lat": 41.4001622, "lon": 2.1984615, "tags": {"shop": "supermarket"}}, {"type": "way", "id": 655182341, "nodes": [6138906835, 6138906836, 5522265621, 6138906566, 6138906896, 6138906883, 6138906835], "tags": {"amenity": "bar", "building": "industrial", "building:levels": "2", "name": "Comtu bar"}}]}