{"version": 0.6, "generator": "Overpass API 0.7.58.5 b0c4acbb", "osm3s": {"timestamp_osm_base": "2022-09-04T19:15:21Z", "copyright": "The data included in this document is from www.openstreetmap.org. The data is made available under ODbL."}, "elements": [{"type": "node", "id": 2918950016, "lat": 41.4035015, "lon": 2.2033088, "tags": {"name": "Raffel Pall\u00e9s", "shop": "hairdresser"}}, {"type": "node", "id": 2919000427, "lat": 41.4036009, "lon": 2.2030413, "tags": {"name": "home i dona", "shop": "clothes"}}, {"type": "node", "id": 8062015488, "lat": 41.4040476, "lon": 2.2036363, "tags": {"name": "Boutique Juanita", "shop": "clothes"}}, {"type": "node", "id": 8062015489, "lat": 41.4037083, "lon": 2.2035571, "tags": {"name": "Rustic barber", "shop": "hairdresser"}}, {"type": "node", "id": 8062015786, "lat": 41.4038732, "lon": 2.2033856, "tags": {"name": "Abi", "shop": "clothes"}}, {"type": "node", "id": 8062016286, "lat": 41.4037271, "lon": 2.2035782, "tags": {"name": "Barber club", "shop": "hairdresser"}}]}