{"version": 0.6, "generator": "Overpass API 0.7.58.5 b0c4acbb", "osm3s": {"timestamp_osm_base": "2022-09-02T23:01:29Z", "copyright": "The data included in this document is from www.openstreetmap.org. The data is made available under ODbL."}, "elements": [{"type": "node", "id": 660100527, "lat": 41.4046882, "lon": 2.1967694, "tags": {"amenity": "cafe", "cuisine": "spanish", "name": "Rambla Poblenou", "shop": "optician"}}, {"type": "node", "id": 660100529, "lat": 41.404858, "lon": 2.1941868, "tags": {"amenity": "cafe", "name": "El Fornet d'en Rosend"}}, {"type": "node", "id": 660771772, "lat": 41.4035018, "lon": 2.1977649, "tags": {"amenity": "restaurant", "name": "Anormalfood"}}, {"type": "node", "id": 660778318, "lat": 41.403467, "lon": 2.1978397, "tags": {"name": "granel", "shop": "convenience"}}, {"type": "node", "id": 660778771, "lat": 41.402858, "lon": 2.1987158, "tags": {"addr:housenumber": "105", "amenity": "restaurant", "cuisine": "spanish", "name": "braseria xorus"}}, {"type": "node", "id": 660779414, "lat": 41.402675, "lon": 2.1989594, "tags": {"addr:housenumber": "99", "addr:street": "Ramble de Poblenou", "amenity": "bar", "name": "Bar Burgales"}}, {"type": "node", "id": 660784487, "lat": 41.4027269, "lon": 2.1989008, "tags": {"amenity": "restaurant", "name": "La broqueta"}}, {"type": "node", "id": 660784488, "lat": 41.4027071, "lon": 2.1989239, "tags": {"addr:housenumber": "101", "amenity": "restaurant", "cuisine": "indian", "name": "Sitar"}}, {"type": "node", "id": 660784489, "lat": 41.4023418, "lon": 2.1991561, "tags": {"brand": "Mercadona", "brand:wikidata": "Q377705", "brand:wikipedia": "es:Mercadona", "name": "Mercadona", "opening_hours:covid19": "open", "operator": "Mercadona", "shop": "supermarket", "website": "https://www.mercadona.es"}}, {"type": "node", "id": 830462039, "lat": 41.4043015, "lon": 2.1949428, "tags": {"amenity": "cafe", "name": "Cafe Tampa", "smoking": "outside"}}, {"type": "node", "id": 1159727140, "lat": 41.4048148, "lon": 2.19663, "tags": {"opening_hours:covid19": "open", "shop": "greengrocer", "takeaway:covid19": "yes"}}, {"type": "node", "id": 1357828862, "lat": 41.4037433, "lon": 2.1938343, "tags": {"amenity": "cafe", "name": "Cafeter\u00eda universitaria", "opening_hours": "Mo-Fr 09:00-19:00"}}, {"type": "node", "id": 1934456468, "lat": 41.4003905, "lon": 2.2039006, "tags": {"brand": "Bon Area", "brand:wikidata": "Q11924743", "brand:wikipedia": "ca:Grup Alimentari Guissona", "name": "Bon Area", "shop": "supermarket"}}, {"type": "node", "id": 1934456567, "lat": 41.4000539, "lon": 2.2028611, "tags": {"addr:city": "Barcelona", "addr:housenumber": "44", "addr:street": "Rambla del Poblenou", "amenity": "ice_cream", "name": "Horchateria El Tio Che", "outdoor_seating": "yes", "phone": "+34 933091872", "smoking": "outside", "website": "https://eltioche.es/"}}, {"type": "node", "id": 2065469522, "lat": 41.3997461, "lon": 2.2003004, "tags": {"addr:housenumber": "159", "addr:street": "Carrer de Llull", "amenity": "pub", "name": "Restaurant Pipa", "opening_hours": "Mo-Su 12:30-00:00"}}, {"type": "node", "id": 2075453725, "lat": 41.4012569, "lon": 2.1966826, "tags": {"addr:housenumber": "92", "addr:street": "Carrer Roc Boronat", "amenity": "restaurant", "cuisine": "spanish", "name": "La Mossegada del Poblenou", "smoking": "outside"}}, {"type": "node", "id": 2085656651, "lat": 41.4027075, "lon": 2.1977649, "tags": {"addr:city": "Barcelona", "addr:housenumber": "178", "addr:postcode": "08005", "addr:street": "Carrer de Pere IV", "amenity": "restaurant", "cuisine": "japanese", "name": "Arce", "phone": "+34 93 309 86 75"}}, {"type": "node", "id": 2187210264, "lat": 41.4023416, "lon": 2.1952788, "tags": {"addr:city": "Barcelona", "addr:housenumber": "114", "addr:postcode": "08018", "addr:street": "Carrer de Roc Boronat", "amenity": "restaurant", "cuisine": "mediterranean", "diet:vegan": "no", "diet:vegetarian": "only", "name": "Sopa", "organic": "only", "phone": "+34 933 09 56 76", "smoking": "outside", "takeaway": "yes", "website": "http://www.sopa.vg/"}}, {"type": "node", "id": 2187257123, "lat": 41.4047259, "lon": 2.1943414, "tags": {"amenity": "bar", "name": "24 mm"}}, {"type": "node", "id": 2187259019, "lat": 41.404967, "lon": 2.1945963, "tags": {"addr:city": "Barcelona", "addr:housenumber": "173", "addr:street": "Avinguda Diagonal", "amenity": "restaurant", "cuisine": "japanese", "name": "Nanaya", "phone": "+34 933008401", "smoking": "no", "source": "http://nanaya.es/", "website": "http://nanaya.es/"}}, {"type": "node", "id": 2187282137, "lat": 41.4017897, "lon": 2.196068, "tags": {"addr:city": "Barcelona", "addr:housenumber": "211", "addr:postcode": "08018", "addr:street": "Carrer dels Almog\u00e0vers", "amenity": "restaurant", "cuisine": "spanish", "name": "El Catacroquet", "phone": "+34932809059", "website": "http://catacroquet.es/"}}, {"type": "node", "id": 2192226738, "lat": 41.4034935, "lon": 2.1960697, "tags": {"amenity": "restaurant", "cuisine": "pizza", "name": "L'Aldil\u00e0"}}, {"type": "node", "id": 2193095318, "lat": 41.4043344, "lon": 2.1967134, "tags": {"amenity": "restaurant", "name": "Can Pizza"}}, {"type": "node", "id": 2193095338, "lat": 41.40326, "lon": 2.1985353, "tags": {"addr:housenumber": "118", "addr:street": "Rambla de Poblenou", "amenity": "bar", "name": "Saint Pol"}}, {"type": "node", "id": 2193095377, "lat": 41.4049762, "lon": 2.1976093, "tags": {"amenity": "cafe", "cuisine": "coffee_shop", "name": "Sant Mart\u00ed"}}, {"type": "node", "id": 2193095391, "lat": 41.4036263, "lon": 2.1981913, "tags": {"amenity": "restaurant", "cuisine": "sandwich", "name": "Espress a T\u00e9"}}, {"type": "node", "id": 2193095406, "lat": 41.4042962, "lon": 2.1981726, "tags": {"amenity": "cafe", "cuisine": "spanish", "name": "Hmm que rico"}}, {"type": "node", "id": 2193095414, "lat": 41.402733, "lon": 2.1969736, "tags": {"addr:city": "Barcelona", "addr:street": "Carrer de la Llacuna", "amenity": "restaurant", "cuisine": "spanish", "name": "Braseria Julian"}}, {"type": "node", "id": 2193095435, "lat": 41.4026626, "lon": 2.1971936, "tags": {"addr:city": "Barcelona", "amenity": "restaurant", "cuisine": "spanish", "name": "Llacuna"}}, {"type": "node", "id": 2193095440, "lat": 41.4027631, "lon": 2.1988499, "tags": {"addr:housenumber": "103", "addr:street": "Ramble de Poblenou", "amenity": "restaurant", "cuisine": "turkish", "name": "Hitit"}}, {"type": "node", "id": 2193389549, "lat": 41.4021933, "lon": 2.1993724, "tags": {"amenity": "restaurant", "name": "L'altre Romero"}}, {"type": "node", "id": 2193391405, "lat": 41.4045879, "lon": 2.1958203, "tags": {"amenity": "restaurant", "cuisine": "sushi", "name": "3E sushi"}}, {"type": "node", "id": 2193415475, "lat": 41.4035357, "lon": 2.1962709, "tags": {"amenity": "restaurant", "cuisine": "spanish"}}, {"type": "node", "id": 2197824500, "lat": 41.4016702, "lon": 2.2016399, "tags": {"amenity": "bar", "name": "Serrano"}}, {"type": "node", "id": 2197837743, "lat": 41.4018412, "lon": 2.2007225, "tags": {"name": "Cruixent", "shop": "bakery"}}, {"type": "node", "id": 2197837768, "lat": 41.4019136, "lon": 2.2008137, "tags": {"name": "El manduxot", "shop": "greengrocer"}}, {"type": "node", "id": 2400689820, "lat": 41.4006365, "lon": 2.1961225, "tags": {"addr:city": "Barcelona", "addr:housenumber": "132", "addr:postcode": "08005", "addr:street": "Carrer de Pere IV", "amenity": "restaurant", "cuisine": "international", "name": "L\u00facuma", "phone": "+34 933569310", "smoking": "outside", "takeaway": "yes"}}, {"type": "node", "id": 2408482659, "lat": 41.402164, "lon": 2.193314, "tags": {"addr:city": "Barcelona", "addr:street": "Carrer Ciutat de Granada", "amenity": "restaurant", "cuisine": "spanish", "name": "Quinabarra", "opening_hours": "Mo-Fr 08:00-17:00", "smoking": "no"}}, {"type": "node", "id": 2528521163, "lat": 41.4003612, "lon": 2.1959358, "tags": {"name": "Alimentacion", "shop": "convenience"}}, {"type": "node", "id": 2703829256, "lat": 41.4007421, "lon": 2.1991334, "tags": {"addr:city": "Barcelona", "addr:housenumber": "155", "addr:postcode": "08005", "addr:street": "Carrer de Pujades", "amenity": "cafe", "cuisine": "regional", "name": "Bon Gust"}}, {"type": "node", "id": 2781788371, "lat": 41.3994356, "lon": 2.197621, "tags": {"addr:city": "Barcelona", "addr:housenumber": "127", "addr:street": "Carrer de Pujades", "building": "kiosk", "building:levels": "1", "shop": "kiosk"}}, {"type": "node", "id": 2921806501, "lat": 41.4011887, "lon": 2.1998376, "tags": {"addr:city": "Barcelona", "addr:housenumber": "161", "addr:street": "Carrer de Pujades", "amenity": "restaurant", "name": "Spoon factory"}}, {"type": "node", "id": 2966340931, "lat": 41.4022886, "lon": 2.1998883, "tags": {"addr:housenumber": "100", "addr:street": "Rambla del Poblenou", "amenity": "bar", "name": "El Capritx", "name:ca": "El Capritx", "name:en": "El Capritx", "name:es": "El Capritx"}}, {"type": "node", "id": 2966341089, "lat": 41.4023159, "lon": 2.1998443, "tags": {"addr:housenumber": "100", "addr:street": "Rambla del Poblenou", "name": "rico", "shop": "supermarket"}}, {"type": "node", "id": 2975013896, "lat": 41.4008443, "lon": 2.2013842, "tags": {"amenity": "cafe", "name": "la buena vida"}}, {"type": "node", "id": 2975020209, "lat": 41.3991782, "lon": 2.2035839, "tags": {"name": "Fruites I Verdures", "operator": "Hui Yuan2", "shop": "supermarket"}}, {"type": "node", "id": 2975024521, "lat": 41.3992279, "lon": 2.203533, "tags": {"amenity": "restaurant", "cuisine": "pizza", "name": "Le Fabrik", "website": "http://www.lefabrik.es/"}}, {"type": "node", "id": 2975024874, "lat": 41.3992962, "lon": 2.2037652, "tags": {"amenity": "restaurant", "name": "la tertulia"}}, {"type": "node", "id": 2975030773, "lat": 41.3993411, "lon": 2.2037098, "tags": {"name": "Galaxia", "shop": "department_store"}}, {"type": "node", "id": 3023964339, "lat": 41.4007199, "lon": 2.1997229, "tags": {"addr:city": "Barcelona", "addr:housenumber": "168", "addr:postcode": "08005", "addr:street": "Carrer de Pujades", "amenity": "fast_food", "branch": "Poblenou", "contact:phone": "+34933285188", "cuisine": "burger", "name": "Timesburg", "smoking": "outside", "website": "https://www.timesburg.com/"}}, {"type": "node", "id": 3048076134, "lat": 41.3997857, "lon": 2.2026204, "tags": {"shop": "kiosk"}}, {"type": "node", "id": 3048076438, "lat": 41.4004427, "lon": 2.2022947, "tags": {"addr:city": "Barcelona", "addr:housenumber": "58", "addr:postcode": "08005", "addr:street": "Rambla del Poblenou", "amenity": "bar", "contact:facebook": "https://m.facebook.com/el58poblenou", "cuisine": "tapas", "name": "le cinquante huit", "name:ca": "El 58", "smoking": "no"}}, {"type": "node", "id": 3048076838, "lat": 41.4045744, "lon": 2.199062, "tags": {"name:signed": "no", "opening_hours": "Mo-Fr 07:00-15:00; PH,Sa,Su 08:00-15:00", "shop": "kiosk"}}, {"type": "node", "id": 3048076940, "lat": 41.4009194, "lon": 2.2037905, "tags": {"addr:city": "Barcelona", "addr:housenumber": "99", "addr:street": "Carrer de Mari\u00e0 Aguil\u00f3", "amenity": "cafe", "name": "Ideal", "smoking": "no"}}, {"type": "node", "id": 3048077141, "lat": 41.3999148, "lon": 2.2025577, "tags": {"name": "El surtidor", "shop": "bakery"}}, {"type": "node", "id": 3048077142, "lat": 41.3997067, "lon": 2.2032276, "tags": {"addr:city": "Barcelona", "addr:housenumber": "42", "addr:street": "Rambla del Poblenou", "amenity": "restaurant", "name": "L'Alian\u00e7a del Poblenou", "name:ca": "L'Alian\u00e7a del Poblenou", "wikidata": "Q8195560", "wikipedia": "ca:Casino l'Alian\u00e7a del Poblenou"}}, {"type": "node", "id": 3048077144, "lat": 41.3989138, "lon": 2.2037682, "tags": {"shop": "kiosk"}}, {"type": "node", "id": 3048078145, "lat": 41.3998443, "lon": 2.2054629, "tags": {"amenity": "bar", "name": "La pubilla del Taulat"}}, {"type": "node", "id": 3048078236, "lat": 41.4013897, "lon": 2.2006002, "tags": {"shop": "kiosk"}}, {"type": "node", "id": 3048079634, "lat": 41.4024271, "lon": 2.199798, "tags": {"amenity": "restaurant", "name": "Recasens", "smoking": "no"}}, {"type": "node", "id": 3048083133, "lat": 41.3995954, "lon": 2.2028652, "tags": {"addr:city": "Barcelona", "addr:housenumber": "41", "addr:street": "Rambla del Poblenou", "name": "Triomf", "shop": "confectionery"}}, {"type": "node", "id": 3955968257, "lat": 41.3986109, "lon": 2.1978895, "tags": {"addr:city": "Barcelona", "addr:housenumber": "54", "addr:postcode": "08005", "addr:street": "Carrer de la Ciutat de Granada", "amenity": "restaurant", "name": "El rac\u00f3 de les Gl\u00f2ries", "opening_hours": "Mo-Fr 06:30-23:00; Sa-Su 08:00-23:00"}}, {"type": "node", "id": 3962556129, "lat": 41.3995952, "lon": 2.2029522, "tags": {"addr:city": "Barcelona", "addr:postcode": "08005", "addr:street": "Rambla del Poblenou", "amenity": "fast_food", "cuisine": "burger", "name": "El Pibe"}}, {"type": "node", "id": 4042474702, "lat": 41.4034227, "lon": 2.19997, "tags": {"amenity": "restaurant", "name": "El Timbal"}}, {"type": "node", "id": 4060217594, "lat": 41.3993348, "lon": 2.1997769, "tags": {"addr:city": "Barcelona", "addr:housenumber": "147", "addr:postcode": "08005", "addr:street": "Carrer de Llull", "amenity": "restaurant", "name": "La Taverna del Poblenou"}}, {"type": "node", "id": 4252690721, "lat": 41.403496, "lon": 2.1984562, "tags": {"shop": "convenience"}}, {"type": "node", "id": 4254743609, "lat": 41.4013499, "lon": 2.2010764, "tags": {"addr:housenumber": "78", "addr:postcode": "08005", "addr:street": "Rambla del Poblenou", "amenity": "restaurant", "cuisine": "regional", "name": "Caliu del Poblenou"}}, {"type": "node", "id": 4391593389, "lat": 41.4009367, "lon": 2.201263, "tags": {"amenity": "restaurant", "name": "Brisa sin prisa", "name:es": "Brisa sin prisa"}}, {"type": "node", "id": 4518693470, "lat": 41.4023358, "lon": 2.201295, "tags": {"addr:housenumber": "187", "addr:street": "Pujades", "amenity": "restaurant", "name": "Minyam"}}, {"type": "node", "id": 4552992689, "lat": 41.400387, "lon": 2.2023554, "tags": {"addr:housenumber": "56", "addr:street": "Rambla del Poblenou", "amenity": "restaurant", "cuisine": "spanish", "name": "Colom", "name:en": "Colom", "name:es": "Colom"}}, {"type": "node", "id": 4553695195, "lat": 41.4023142, "lon": 2.2014938, "tags": {"addr:housenumber": "187", "addr:street": "Carrer de Pujades", "amenity": "restaurant", "name": "Minyam", "name:es": "Minyam"}}, {"type": "node", "id": 4689020592, "lat": 41.4022025, "lon": 2.2016256, "tags": {"addr:housenumber": "196", "addr:postcode": "08005", "addr:street": "Carrer de Pujades", "amenity": "bar", "contact:facebook": "https://m.facebook.com/BaliusBar/", "cuisine": "tapas", "name": "Balius", "name:es": "Balius", "phone": "+34 933 15 86 50"}}, {"type": "node", "id": 4718616090, "lat": 41.3992398, "lon": 2.2018462, "tags": {"amenity": "restaurant", "cuisine": "pasta;pizza", "name": "Iaia Cristina"}}, {"type": "node", "id": 4787974651, "lat": 41.4045885, "lon": 2.1993428, "tags": {"amenity": "bar", "name": "El Menjador de la Beckett"}}, {"type": "node", "id": 4965677492, "lat": 41.4032881, "lon": 2.2001895, "tags": {"amenity": "bar", "name": "La tasqueta de Can Felipa"}}, {"type": "node", "id": 5028979721, "lat": 41.3987513, "lon": 2.1950702, "tags": {"addr:housenumber": "95", "addr:street": "Carrer de Badajoz", "amenity": "cafe", "contact:facebook": "https://www.facebook.com/espaijoliu/", "name": "Espai Joliu", "opening_hours": "Mo-Fr 09:00-19:00; Sa 10:00-15:00", "website": "http://espaijoliu.tumblr.com/"}}, {"type": "node", "id": 5081403253, "lat": 41.3988611, "lon": 2.199136, "tags": {"addr:city": "Barcelona", "addr:housenumber": "141 bis", "addr:postcode": "08005", "addr:street": "Carrer de Llull", "diet:gluten_free": "yes", "diet:vegan": "only", "email": "calveganic@calveganic.com", "name": "Cal Veganic", "opening_hours": "Mo-Sa 10:00-20:30", "phone": "+34 656 38 57 73", "shop": "convenience", "website": "http://calveganic.com/"}}, {"type": "node", "id": 5103623221, "lat": 41.4058102, "lon": 2.197889, "tags": {"addr:housenumber": "145", "addr:street": "Avinguda Diagonal", "amenity": "restaurant", "cuisine": "chinese", "name": "Chang Feng", "name:es": "Chang Feng", "opening_hours": "Mo-Su 12:00-16:00, 20:00-00:00", "phone": "+34 932664857"}}, {"type": "node", "id": 5204752426, "lat": 41.3991494, "lon": 2.2051653, "tags": {"addr:city": "Barcelona", "addr:housenumber": "95", "addr:postcode": "08005", "addr:street": "Carrer del Taulat", "amenity": "restaurant", "diet:vegetarian": "yes", "name": "Aguaribay", "opening_hours": "Mo-Fr, Su 13:00-16:00; Th 20:30-23:00; Fr, Sa 20:00-23:30; Sa 13:00-16:30", "phone": "+34933003790", "website": "http://www.aguaribay-bcn.com"}}, {"type": "node", "id": 5210881005, "lat": 41.4009899, "lon": 2.2047175, "tags": {"amenity": "bar", "name": "Bitacora"}}, {"type": "node", "id": 5244811325, "lat": 41.3995737, "lon": 2.2056746, "tags": {"amenity": "restaurant", "name:en": "La llum del poble nou"}}, {"type": "node", "id": 5509171592, "lat": 41.4005273, "lon": 2.2035587, "tags": {"brand": "Bonpreu", "brand:wikidata": "Q11924747", "brand:wikipedia": "ca:Grup Bon Preu", "name": "Bonpreu", "shop": "supermarket"}}, {"type": "node", "id": 5509171593, "lat": 41.4002367, "lon": 2.2031905, "tags": {"addr:city": "Barcelona", "addr:housenumber": "5", "addr:postcode": "08005", "addr:street": "Carrer del Joncar", "amenity": "restaurant", "cuisine": "regional;mediterranean", "name": "CALAMARGA"}}, {"type": "node", "id": 5522265621, "lat": 41.3990264, "lon": 2.194494}, {"type": "node", "id": 5545772622, "lat": 41.4024489, "lon": 2.2014463, "tags": {"name": "Baluard", "shop": "bakery"}}, {"type": "node", "id": 5696409381, "lat": 41.4020828, "lon": 2.200141, "tags": {"addr:city": "Barcelona", "addr:housenumber": "92", "addr:postcode": "08005", "addr:street": "Rambla del Poblenou", "amenity": "restaurant", "cuisine": "lebanese", "name": "L'AUT\u00c8NTIC Restaurant Liban\u00e8s", "opening_hours": "Mo-Su 12:00-01:00", "outdoor_seating": "yes", "phone": "+34 934 08 86 74", "takeaway": "yes", "website": "https://lautentic-restaurant-libanes.business.site/"}}, {"type": "node", "id": 5881622778, "lat": 41.4013423, "lon": 2.1977952, "tags": {"name": "El Fornet", "shop": "bakery"}}, {"type": "node", "id": 6138906566, "lat": 41.3990235, "lon": 2.1944916, "tags": {"man_made": "surveillance", "surveillance:type": "camera"}}, {"type": "node", "id": 6138906835, "lat": 41.3989804, "lon": 2.1943079}, {"type": "node", "id": 6138906836, "lat": 41.3990757, "lon": 2.1943864}, {"type": "node", "id": 6138906883, "lat": 41.3989288, "lon": 2.1944148}, {"type": "node", "id": 6138906896, "lat": 41.3989667, "lon": 2.1944456, "tags": {"addr:housenumber": "101", "addr:postcode": "08018", "addr:street": "Carrer de Pere IV", "entrance": "yes"}}, {"type": "node", "id": 6164182991, "lat": 41.4050315, "lon": 2.1963811, "tags": {"addr:city": "Barcelona", "addr:country": "ES", "addr:housenumber": "142", "addr:postcode": "08018", "addr:street": "Rambla del Poblenou", "amenity": "restaurant", "contact:phone": "+34 931925976", "contact:website": "https://rest-atrium.negocio.site/", "cuisine": "mediterranean", "name": "Atrium", "opening_hours": "Mo-Su 07:00-00:00"}}, {"type": "node", "id": 6164234383, "lat": 41.4018825, "lon": 2.2003717, "tags": {"addr:city": "Barcelona", "addr:country": "ES", "addr:housenumber": "88", "addr:postcode": "08005", "addr:street": "Rambla del Poblenou", "amenity": "restaurant", "contact:facebook": "https://www.facebook.com/pg/Isami-1581280252085171/", "contact:phone": "+34 993099482", "cuisine": "japanese", "delivery": "yes", "name": "Isami", "opening_hours": "Tu-Su 12:30-16:00, 20:00-00:00", "takeaway": "yes"}}, {"type": "node", "id": 6164235940, "lat": 41.401992, "lon": 2.1998344, "tags": {"addr:city": "Barcelona", "addr:housenumber": "85", "addr:postcode": "08005", "addr:street": "Rambla del Poblenou", "addr:unit": "9", "amenity": "restaurant", "contact:phone": "+34 934869348", "cuisine": "middle_eastern;libanese;mediterranean", "name": "Sundown", "opening_hours": "Mo-Th 09:00-23:30; Fr-Sa 09:00-01:30; Su 09:00-23:00", "outdoor_seating": "yes"}}, {"type": "node", "id": 6164235941, "lat": 41.4011411, "lon": 2.2009618, "tags": {"addr:city": "Barcelona", "addr:housenumber": "71", "addr:postcode": "08005", "addr:street": "Rambla del Poblenou", "amenity": "fast_food", "branch": "POBLE NOU (B)", "brand": "Telepizza", "brand:wikidata": "Q2699863", "brand:wikipedia": "es:Telepizza", "contact:phone": "+34 933092737", "contact:website": "https://www.telepizza.es", "cuisine": "pizza", "delivery": "yes", "drive_through": "no", "name": "Telepizza", "payment:mastercard": "yes", "payment:visa": "yes", "takeaway": "yes"}}, {"type": "node", "id": 6164236104, "lat": 41.4047343, "lon": 2.1968042, "tags": {"addr:city": "Barcelona", "addr:country": "ES", "addr:housenumber": "134", "addr:postcode": "08018", "addr:street": "Rambla del Poblenou", "amenity": "restaurant", "contact:facebook": "https://es-es.facebook.com/barpaloverde", "contact:phone": "+34 936398409", "cuisine": "spanish;mediterranean", "name": "Palo Verde", "outdoor_seating": "yes"}}, {"type": "node", "id": 6164236105, "lat": 41.4014971, "lon": 2.2008971, "tags": {"addr:city": "Barcelona", "addr:country": "ES", "addr:housenumber": "82", "addr:postcode": "08005", "addr:street": "Rambla del Poblenou", "contact:phone": "+34 993004394", "name": "Boheme", "shop": "bakery"}}, {"type": "node", "id": 6263376152, "lat": 41.401928, "lon": 2.1945021, "tags": {"addr:street": "Carrer de Sancho d'Avila", "amenity": "restaurant", "name": "MyKasa"}}, {"type": "node", "id": 6503344192, "lat": 41.403636, "lon": 2.1986181, "tags": {"addr:housenumber": "208", "addr:postcode": "08005", "addr:street": "Carrer de Pere IV", "amenity": "restaurant", "cuisine": "italian_pizza", "name": "Roma Bella", "opening_hours": "Mo-Su 13:00-23:00", "phone": "+34 938 287 895"}}, {"type": "node", "id": 6532331287, "lat": 41.4008137, "lon": 2.2047522, "tags": {"addr:housenumber": "25", "addr:street": "Carrer Castanys", "amenity": "restaurant", "name": "Cal Tony"}}, {"type": "node", "id": 6532331288, "lat": 41.4019577, "lon": 2.2032297, "tags": {"addr:street": "Carrer de Llull", "name": "El Teu Pa", "shop": "bakery"}}, {"type": "node", "id": 6533558585, "lat": 41.3992951, "lon": 2.2041516, "tags": {"addr:street": "Carrer Doctor Trueta", "name": "Sorli discau", "shop": "supermarket"}}, {"type": "node", "id": 6535101487, "lat": 41.3990612, "lon": 2.1968513, "tags": {"name": "Proxim", "shop": "supermarket"}}, {"type": "node", "id": 6535101685, "lat": 41.4000317, "lon": 2.1956346, "tags": {"amenity": "bar", "name": "Catalunya"}}, {"type": "node", "id": 6535101686, "lat": 41.3992845, "lon": 2.1970974, "tags": {"amenity": "restaurant", "name": "Llacuna"}}, {"type": "node", "id": 6535101785, "lat": 41.4048149, "lon": 2.1995456, "tags": {"addr:street": "Carrer de Pere IV", "amenity": "cafe", "name": "Monsieur Bosc"}}, {"type": "node", "id": 6552264185, "lat": 41.402359, "lon": 2.1931161, "tags": {"addr:housenumber": "98", "addr:street": "Carrer de T\u00e0nger", "amenity": "restaurant", "email": "info22@casapepe.es", "name": "Casa Pepe", "opening_hours": "Mo-Fr 08:00-17:30", "phone": "+34 933569680"}}, {"type": "node", "id": 6638904861, "lat": 41.4026914, "lon": 2.1989384, "tags": {"amenity": "restaurant", "name": "L'origen"}}, {"type": "node", "id": 6821381286, "lat": 41.4004111, "lon": 2.2012133, "tags": {"addr:housenumber": "169", "addr:street": "Carrer de Llull", "amenity": "restaurant", "name:en": "Italian District", "name:ru": "\u0437\u0430\u043a\u0440\u044b\u0442\u043e \u0441 16 \u0434\u043e 20", "opening_hours": "Mo-Sa 13:00-00:00"}}, {"type": "node", "id": 6873720963, "lat": 41.4003963, "lon": 2.2019551, "tags": {"brand": "Dia", "brand:wikidata": "Q925132", "brand:wikipedia": "es:DIA (supermercados)", "name": "Dia", "operator": "Distribuidora Internacional de Alimentaci\u00f3n, S.A.", "shop": "supermarket", "website": "https://www.dia.es"}}, {"type": "node", "id": 6936466985, "lat": 41.4020809, "lon": 2.2010252, "tags": {"amenity": "bar", "name:en": "Madame George"}}, {"type": "node", "id": 7102242810, "lat": 41.4020593, "lon": 2.2020302, "tags": {"addr:city": "Barcelona", "addr:housenumber": "59", "addr:postcode": "08005", "addr:street": "Carrer de Mari\u00e0 Aguil\u00f3", "amenity": "restaurant", "name": "La picanteria de l'Escrib\u00e0", "phone": "+34 934 614 315", "website": "https://restaurantsescriba.com/lapicanteriaescriba/"}}, {"type": "node", "id": 7556637988, "lat": 41.4041586, "lon": 2.1968775, "tags": {"amenity": "bar", "name": "Doncurado"}}, {"type": "node", "id": 7556637989, "lat": 41.4038732, "lon": 2.1971787, "tags": {"amenity": "bar", "name": "SiamoQu\u00e1"}}, {"type": "node", "id": 7556637992, "lat": 41.402687, "lon": 2.1988375, "tags": {"amenity": "bar", "name": "Mexico"}}, {"type": "node", "id": 7556637994, "lat": 41.4026574, "lon": 2.1989656, "tags": {"amenity": "bar", "name": "Vi Tapa"}}, {"type": "node", "id": 7556638001, "lat": 41.4016626, "lon": 2.2002564, "tags": {"amenity": "bar", "name": "Dehesa Santa Maria"}}, {"type": "node", "id": 7556638085, "lat": 41.4044993, "lon": 2.1964618, "tags": {"name": "El Bon Peix", "shop": "seafood"}}, {"type": "node", "id": 7556638086, "lat": 41.4044202, "lon": 2.1965577, "tags": {"name": "Vinalium", "shop": "alcohol"}}, {"type": "node", "id": 7556638088, "lat": 41.4026167, "lon": 2.1989022, "tags": {"amenity": "restaurant", "name": "Giuletta"}}, {"type": "node", "id": 7556638089, "lat": 41.402487, "lon": 2.1991727, "tags": {"amenity": "restaurant", "name": "Aita Galicia"}}, {"type": "node", "id": 7556638090, "lat": 41.4021276, "lon": 2.1996818, "tags": {"name": "J. Tena", "shop": "butcher"}}, {"type": "node", "id": 7556742392, "lat": 41.40441, "lon": 2.1947619, "tags": {"amenity": "bar", "name": "El Padrino"}}, {"type": "node", "id": 7556742485, "lat": 41.4007993, "lon": 2.2014337, "tags": {"amenity": "ice_cream", "name": "Dino"}}, {"type": "node", "id": 7556742585, "lat": 41.4008803, "lon": 2.2012965, "tags": {"shop": "convenience"}}, {"type": "node", "id": 7556742593, "lat": 41.4009756, "lon": 2.2000272, "tags": {"amenity": "bar", "name": "Menjador del Centre"}}, {"type": "node", "id": 7556742594, "lat": 41.4009157, "lon": 2.1999114, "tags": {"name": "Paka\u00f1a", "shop": "greengrocer"}}, {"type": "node", "id": 7556742595, "lat": 41.4008481, "lon": 2.1998121, "tags": {"amenity": "restaurant", "name": "La Taqueria"}}, {"type": "node", "id": 7556742598, "lat": 41.4033088, "lon": 2.1964188, "tags": {"amenity": "restaurant", "delivery": "only", "name": "Xoubas"}}, {"type": "node", "id": 7556742599, "lat": 41.4035243, "lon": 2.1962293, "tags": {"amenity": "bar", "name": "L'Enxaneta"}}, {"type": "node", "id": 7556742600, "lat": 41.4039082, "lon": 2.1954534, "tags": {"amenity": "bar", "name": "Honest Food"}}, {"type": "node", "id": 7556742601, "lat": 41.4046908, "lon": 2.194394, "tags": {"amenity": "bar", "name": "El Petit Daniel"}}, {"type": "node", "id": 7557045996, "lat": 41.4038544, "lon": 2.1973354, "tags": {"amenity": "cafe", "name": "the Cofee Market"}}, {"type": "node", "id": 7563864197, "lat": 41.4037568, "lon": 2.1986742, "tags": {"amenity": "bar", "name": "la Tanda"}}, {"type": "node", "id": 7563882234, "lat": 41.4025464, "lon": 2.1998488, "tags": {"name": "Mon pa", "shop": "bakery"}}, {"type": "node", "id": 7563900752, "lat": 41.4022526, "lon": 2.1998855, "tags": {"name": "Forn de pa Santanach", "shop": "bakery"}}, {"type": "node", "id": 7563925131, "lat": 41.4019268, "lon": 2.2003212, "tags": {"amenity": "restaurant", "name": "Cantoni del Poble9"}}, {"type": "node", "id": 7563959547, "lat": 41.4012919, "lon": 2.2011431, "tags": {"amenity": "bar", "name": "100 montaditos"}}, {"type": "node", "id": 7563960699, "lat": 41.4013257, "lon": 2.2011044, "tags": {"amenity": "restaurant", "name": "La Bienal"}}, {"type": "node", "id": 7563962192, "lat": 41.4014488, "lon": 2.2009478, "tags": {"amenity": "bar", "name": "Passeig9"}}, {"type": "node", "id": 7563962810, "lat": 41.4014117, "lon": 2.2009875, "tags": {"name": "Chocolat-box", "shop": "chocolate"}}, {"type": "node", "id": 7563964446, "lat": 41.4012613, "lon": 2.2011848, "tags": {"amenity": "bar", "name": "Monopol"}}, {"type": "node", "id": 7563974638, "lat": 41.4010005, "lon": 2.2015347, "tags": {"name": "el Vinyet", "shop": "alcohol"}}, {"type": "node", "id": 7615982501, "lat": 41.4003896, "lon": 2.1978586, "tags": {"amenity": "bar", "name": "La Tavernicola"}}, {"type": "node", "id": 7615987485, "lat": 41.3998352, "lon": 2.2025597, "tags": {"name": "365", "shop": "bakery"}}, {"type": "node", "id": 7615998886, "lat": 41.3995025, "lon": 2.2021992, "tags": {"name": "Bodega Mrndoza", "shop": "wine"}}, {"type": "node", "id": 7615998985, "lat": 41.3995862, "lon": 2.2023234, "tags": {"shop": "convenience"}}, {"type": "node", "id": 7616019787, "lat": 41.3996205, "lon": 2.1959957, "tags": {"shop": "convenience"}}, {"type": "node", "id": 8035019187, "lat": 41.400417, "lon": 2.1955634, "tags": {"amenity": "restaurant", "name": "Die Spiegel"}}, {"type": "node", "id": 8046554489, "lat": 41.4001224, "lon": 2.2000188, "tags": {"amenity": "restaurant", "name": "Sport"}}, {"type": "node", "id": 8046559285, "lat": 41.4023415, "lon": 2.1975419, "tags": {"amenity": "bar", "name": "little ferm"}}, {"type": "node", "id": 8046575685, "lat": 41.4026759, "lon": 2.1977843, "tags": {"amenity": "restaurant", "name": "Norman's"}}, {"type": "node", "id": 8049731592, "lat": 41.4010308, "lon": 2.2036251, "tags": {"brand": "Covir\u00e1n", "brand:website": "https://www.coviran.es", "brand:wikidata": "Q61070539", "brand:wikipedia": "es:Covir\u00e1n", "name": "Covir\u00e1n", "shop": "supermarket"}}, {"type": "node", "id": 8049731594, "lat": 41.4013788, "lon": 2.203079, "tags": {"amenity": "fast_food", "name": "La Bodega"}}, {"type": "node", "id": 8049731595, "lat": 41.4018684, "lon": 2.2023424, "tags": {"amenity": "bar", "name": "Echegaray"}}, {"type": "node", "id": 8049731597, "lat": 41.4025485, "lon": 2.2010666, "tags": {"amenity": "bar", "name": "Nina"}}, {"type": "node", "id": 8049731601, "lat": 41.4032433, "lon": 2.2000071, "tags": {"amenity": "restaurant", "name": "Puerto Escondido"}}, {"type": "node", "id": 8049731686, "lat": 41.4000592, "lon": 2.2050938, "tags": {"name": "M\u00e9s de vi", "shop": "wine"}}, {"type": "node", "id": 8049731690, "lat": 41.4008761, "lon": 2.2038406, "tags": {"amenity": "fast_food", "name": "Amigo D\u00f6ner Kebab"}}, {"type": "node", "id": 8049731787, "lat": 41.3999395, "lon": 2.2052755, "tags": {"name": "Narosa", "shop": "confectionery"}}, {"type": "node", "id": 8049731790, "lat": 41.4002469, "lon": 2.204811, "tags": {"amenity": "fast_food", "name": "Cocino"}}, {"type": "node", "id": 8049731792, "lat": 41.400844, "lon": 2.2039023, "tags": {"name": "Corbeera", "shop": "convenience"}}, {"type": "node", "id": 8049731794, "lat": 41.4010623, "lon": 2.2035874, "tags": {"name": "Carns Pont", "shop": "butcher"}}, {"type": "node", "id": 8049731795, "lat": 41.4018263, "lon": 2.202405, "tags": {"amenity": "fast_food", "name": "Furnos"}}, {"type": "node", "id": 8049732285, "lat": 41.4005075, "lon": 2.2044279, "tags": {"amenity": "fast_food", "name": "La caseta azul"}}, {"type": "node", "id": 8049732288, "lat": 41.4014412, "lon": 2.2029904, "tags": {"name": "Estel de Mar", "shop": "seafood"}}, {"type": "node", "id": 8049732291, "lat": 41.4019311, "lon": 2.20227, "tags": {"amenity": "restaurant", "name": "Nabibi"}}, {"type": "node", "id": 8049732292, "lat": 41.4029636, "lon": 2.2006718, "tags": {"amenity": "bar", "name": "Doroteo"}}, {"type": "node", "id": 8049732293, "lat": 41.4028707, "lon": 2.2003397, "tags": {"name": "L'hort fel Poblenou", "shop": "greengrocer"}}, {"type": "node", "id": 8049732298, "lat": 41.4043747, "lon": 2.1983111, "tags": {"amenity": "cafe", "name": "L'Artesana"}}, {"type": "node", "id": 8062015292, "lat": 41.4022269, "lon": 2.2012078, "tags": {"shop": "convenience"}}, {"type": "node", "id": 8062015293, "lat": 41.4021984, "lon": 2.2011676, "tags": {"name": "Macxipa", "shop": "bakery"}}, {"type": "node", "id": 8062015491, "lat": 41.4003933, "lon": 2.2011622, "tags": {"amenity": "bar", "name": "Salitre"}}, {"type": "node", "id": 8062016195, "lat": 41.4021002, "lon": 2.2014634, "tags": {"amenity": "cafe", "name": "artemisia"}}, {"type": "node", "id": 8062017285, "lat": 41.4009407, "lon": 2.2017249, "tags": {"name": "Ametller origen", "shop": "supermarket"}}, {"type": "node", "id": 8077063519, "lat": 41.3988993, "lon": 2.2048599, "tags": {"name": "La Licorera", "shop": "alcohol"}}, {"type": "node", "id": 8077063717, "lat": 41.3992453, "lon": 2.2053597, "tags": {"amenity": "bar", "name": "La Pausa"}}, {"type": "node", "id": 8077127617, "lat": 41.3996528, "lon": 2.2051891, "tags": {"amenity": "restaurant", "name": "Apri Bocca"}}, {"type": "node", "id": 8077127718, "lat": 41.4001955, "lon": 2.2047217, "tags": {"name": "Vinoteca", "shop": "wine"}}, {"type": "node", "id": 8077127920, "lat": 41.4007644, "lon": 2.2037886, "tags": {"amenity": "restaurant", "name": "La Escuineta"}}, {"type": "node", "id": 8077127926, "lat": 41.4000585, "lon": 2.2049299, "tags": {"shop": "convenience"}}, {"type": "node", "id": 8077128019, "lat": 41.4006552, "lon": 2.2036971, "tags": {"amenity": "restaurant", "name": "la Picanteria"}}, {"type": "node", "id": 8077128317, "lat": 41.4006032, "lon": 2.2040922, "tags": {"name": "Veritas", "shop": "supermarket"}}, {"type": "node", "id": 8077128418, "lat": 41.4012027, "lon": 2.2031869, "tags": {"name": "Trigo", "shop": "bakery"}}, {"type": "node", "id": 8077128419, "lat": 41.4012598, "lon": 2.2031023, "tags": {"amenity": "restaurant", "name": "La Fusta"}}, {"type": "node", "id": 8077128420, "lat": 41.4013922, "lon": 2.2028846, "tags": {"amenity": "fast_food", "name": "Tio Bigotes"}}, {"type": "node", "id": 8077128421, "lat": 41.401134, "lon": 2.2025453, "tags": {"name": "Bonpreu", "shop": "supermarket"}}, {"type": "node", "id": 8077128423, "lat": 41.4019007, "lon": 2.2020706, "tags": {"name": "Vida meva", "shop": "convenience"}}, {"type": "node", "id": 8087316617, "lat": 41.4044578, "lon": 2.1992632, "tags": {"name": "Caprabo", "opening_hours": "Mo-Sa 08:00-22:30; Su 09:00-22:30", "shop": "supermarket"}}, {"type": "node", "id": 8433008019, "lat": 41.4005516, "lon": 2.20242, "tags": {"amenity": "restaurant", "cuisine": "tapas", "name": "El 58"}}, {"type": "node", "id": 8615341218, "lat": 41.4004914, "lon": 2.203517, "tags": {"addr:city": "Barcelona", "addr:housenumber": "201", "addr:postcode": "08005", "addr:street": "Ramon Turro", "name": "Vida Meva- Queviures Ecol\u00f2gics de proximitat", "opening_hours": "Mo 17:00-20:30 Tu-Fr 09:00-20:30; Sa 09:30-14:30", "opening_hours:covid19": "same", "payment:cash": "yes", "payment:credit_cards": "yes", "phone": "+34 93 127 23 19", "shop": "supermarket", "website": "https://vidameva.com"}}, {"type": "node", "id": 8615439453, "lat": 41.4018083, "lon": 2.2010138, "tags": {"addr:city": "Barcelona", "addr:housenumber": "188", "addr:postcode": "08005", "addr:street": "Carrer de Pujades", "contact:facebook": "https://www.facebook.com/lagraneriadelpoblenou/", "name": "La Graneria del Poblenou", "opening_hours": "Mo-Sa 010:00-14:00,17:00-20:30", "opening_hours:covid19": "same", "payment:cash": "yes", "payment:credit_cards": "yes", "phone": "+34 93 250 02 68", "shop": "supermarket"}}, {"type": "node", "id": 8760560770, "lat": 41.3994943, "lon": 2.2003731, "tags": {"amenity": "cafe", "name": "That's l-fe"}}, {"type": "node", "id": 8760560772, "lat": 41.3988649, "lon": 2.2008097, "tags": {"amenity": "cafe"}}, {"type": "node", "id": 8778868418, "lat": 41.4008548, "lon": 2.2013241, "tags": {"name": "T\u00edo Bigotes empanadas", "shop": "bakery"}}, {"type": "node", "id": 9007983085, "lat": 41.3994523, "lon": 2.204418, "tags": {"addr:housenumber": "225", "addr:street": "Carrer del Doctor Trueta", "amenity": "restaurant", "name": "El 9 Porr\u00f3"}}, {"type": "node", "id": 9376642417, "lat": 41.3988768, "lon": 2.1953173, "tags": {"addr:housenumber": "92", "addr:postcode": "08005", "addr:street": "Carrer de Badajoz", "amenity": "bar", "contact:facebook": "ravenpoblenou", "name": "Raven Poblenou", "opening_hours": "Fr-Sa 23:00-03:30"}}, {"type": "node", "id": 9377066517, "lat": 41.3983197, "lon": 2.1942274, "tags": {"addr:housenumber": "100", "addr:postcode": "08006", "addr:street": "Carrer de Pere IV", "amenity": "restaurant", "name": "El rey del kebab", "opening_hours": "Mo-Fr 11:30-23:00; Sa-Su 14:00-23:00"}}, {"type": "node", "id": 9467049252, "lat": 41.4032097, "lon": 2.1982348, "tags": {"name": "Primaprix", "shop": "supermarket"}}, {"type": "node", "id": 9476185118, "lat": 41.3988285, "lon": 2.2008609, "tags": {"amenity": "cafe", "name": "La Marmiteria"}}, {"type": "node", "id": 9810799117, "lat": 41.3995409, "lon": 2.2000183, "tags": {"addr:housenumber": "155", "addr:street": "Carrer de Llull", "amenity": "restaurant", "cuisine": "japanese", "name:en": "Kibuka", "opening_hours": "Mo-Su 13:00-23:30"}}, {"type": "node", "id": 9810799317, "lat": 41.400448, "lon": 2.2012449, "tags": {"addr:housenumber": "169", "addr:street": "Carrer de Llull", "amenity": "restaurant", "email": "infofabrikbcn@gmail.com", "name:en": "Fabrik", "phone": "+34 931179888"}}, {"type": "node", "id": 9812455817, "lat": 41.3996622, "lon": 2.1978459, "tags": {"name:en": "Vains", "shop": "supermarket"}}, {"type": "node", "id": 9812455818, "lat": 41.4001622, "lon": 2.1984615, "tags": {"shop": "supermarket"}}, {"type": "way", "id": 655182341, "nodes": [6138906835, 6138906836, 5522265621, 6138906566, 6138906896, 6138906883, 6138906835], "tags": {"amenity": "bar", "building": "industrial", "building:levels": "2", "name": "Comtu bar"}}]}