{"version": 0.6, "generator": "Overpass API 0.7.58.5 b0c4acbb", "osm3s": {"timestamp_osm_base": "2022-09-06T15:40:38Z", "copyright": "The data included in this document is from www.openstreetmap.org. The data is made available under ODbL."}, "elements": [{"type": "node", "id": 21665928, "lat": 51.5137016, "lon": -0.1394579}, {"type": "node", "id": 25505570, "lat": 51.518716, "lon": -0.1358605}, {"type": "node", "id": 26671973, "lat": 51.5112678, "lon": -0.1313549}, {"type": "node", "id": 26699548, "lat": 51.5134466, "lon": -0.1297345}, {"type": "node", "id": 26699550, "lat": 51.5135259, "lon": -0.1294734}, {"type": "node", "id": 26699553, "lat": 51.5145597, "lon": -0.131137}, {"type": "node", "id": 26699558, "lat": 51.5165109, "lon": -0.1307587, "tags": {"amenity": "pub", "brand": "Nicholson's", "brand:wikidata": "Q113130666", "food": "yes", "name": "The Flying Horse", "old_name": "The Tottenham", "opening_hours": "Mo-Sa 11:00-23:00; Su 12:00-22:30", "real_ale": "yes", "wikidata": "Q16707773"}}, {"type": "node", "id": 26845550, "lat": 51.5138365, "lon": -0.1350605}, {"type": "node", "id": 26845554, "lat": 51.5140425, "lon": -0.1342915}, {"type": "node", "id": 26845556, "lat": 51.5123402, "lon": -0.1330222}, {"type": "node", "id": 26845557, "lat": 51.5118867, "lon": -0.134768}, {"type": "node", "id": 26845558, "lat": 51.5110542, "lon": -0.1325596, "tags": {"amenity": "restaurant", "cuisine": "taiwan", "name": "Old Tree Daiwan Bee"}}, {"type": "node", "id": 26846366, "lat": 51.511823, "lon": -0.1281127}, {"type": "node", "id": 26866988, "lat": 51.5149215, "lon": -0.1351856}, {"type": "node", "id": 26866989, "lat": 51.5148695, "lon": -0.137356}, {"type": "node", "id": 26866993, "lat": 51.5128697, "lon": -0.1321966}, {"type": "node", "id": 32843796, "lat": 51.5250731, "lon": -0.1348994}, {"type": "node", "id": 32843797, "lat": 51.5249361, "lon": -0.1351414}, {"type": "node", "id": 49319602, "lat": 51.5218219, "lon": -0.1337724, "tags": {"amenity": "pub", "created_by": "Merkaartor 0.12", "indoor_seating": "yes", "name": "The Marlborough Arms", "outdoor_seating": "yes"}}, {"type": "node", "id": 135787210, "lat": 51.5189744, "lon": -0.1413392}, {"type": "node", "id": 232336975, "lat": 51.5132212, "lon": -0.1366194}, {"type": "node", "id": 246519847, "lat": 51.5084752, "lon": -0.1267238, "tags": {"addr:city": "London", "addr:city:fa": "\u0644\u0646\u062f\u0646", "addr:housenumber": "7", "addr:postcode": "WC2N 4JF", "addr:street": "Duncannon Street", "amenity": "pub", "contact:facebook": "https://www.facebook.com/HalfwaytoHeaven", "contact:instagram": "https://www.instagram.com/onlyathalfway/", "contact:twitter": "https://twitter.com/onlyathalfway", "email": "halfwaytoheaven.london@stonegatepubs.com", "fhrs:confidence_management": "5", "fhrs:hygiene": "5", "fhrs:id": "411373", "fhrs:local_authority_id": "00363/0008/1/000", "fhrs:rating": "5", "fhrs:structural": "5", "internet_access": "wlan", "lgbtq": "primary", "name": "Halfway II Heaven", "opening_hours": "Mo-Th 12:00-00:00; Fr,Sa 12:00-02:00; Su 12:00-22:00", "outdoor_seating": "yes", "payment:american_express": "yes", "phone": "+44 20 7484 0736", "toilets": "yes", "toilets:access": "customers", "toilets:female": "yes", "toilets:male": "yes", "toilets:unisex": "no", "toilets:wheelchair": "no", "website": "https://www.halfway2heaven.net/", "wheelchair": "limited", "wikimedia_commons": "File:Halfway II Heaven, Trafalgar Square, WC2 (3614629275).jpg"}}, {"type": "node", "id": 254924499, "lat": 51.5187404, "lon": -0.132015}, {"type": "node", "id": 254924501, "lat": 51.5183898, "lon": -0.1323288}, {"type": "node", "id": 257937397, "lat": 51.5231854, "lon": -0.138689, "tags": {"addr:city": "London", "addr:housenumber": "72", "addr:postcode": "W1T 5DU", "addr:street": "Grafton Way", "amenity": "pub", "fhrs:id": "426441", "indoor_seating": "yes", "name": "The Grafton Arms", "outdoor_seating": "yes", "roof_terrace": "yes", "source:addr": "FHRS Open Data", "website": "https://www.graftonarms.co.uk/"}}, {"type": "node", "id": 257937398, "lat": 51.5233445, "lon": -0.1382427}, {"type": "node", "id": 266479192, "lat": 51.5136516, "lon": -0.1273747}, {"type": "node", "id": 266481945, "lat": 51.5108588, "lon": -0.1395168, "tags": {"addr:city": "London", "addr:housenumber": "15", "addr:postcode": "W1B 4BF", "addr:street": "Heddon Street", "amenity": "bar", "fhrs:confidence_management": "5", "fhrs:hygiene": "5", "fhrs:id": "412928", "fhrs:local_authority_id": "00982/0015/0/000", "fhrs:rating": "5", "fhrs:structural": "5", "name": "Tank & Paddle", "source:postcode": "FSA Food Hygiene Ratings Database", "website": "https://www.tankandpaddle.co.uk/heddon-street/"}}, {"type": "node", "id": 266481948, "lat": 51.5113103, "lon": -0.1398884, "tags": {"addr:city": "London", "addr:housenumber": "29-33", "addr:interpolation": "odd", "addr:postcode": "W1B 4BN", "addr:street": "Heddon Street", "amenity": "bar", "name": "Icebar", "opening_hours": "Mo 14:15-22:15; Tu-Th 13:30-23:00; Fr 13:30-00:30; Sa 10:30-01:15; Su 10:00-20:15", "toilets": "yes", "toilets:access": "customers", "website": "https://www.belowzeroicebar.com/"}}, {"type": "node", "id": 266481949, "lat": 51.5109108, "lon": -0.1393146, "tags": {"addr:city": "London", "addr:housenumber": "4", "addr:postcode": "W1B 4BS", "addr:street": "Heddon Street", "amenity": "restaurant", "cuisine": "french", "name": "Aubaine", "website": "https://aubaine.co.uk/locations/heddon-street/"}}, {"type": "node", "id": 271949863, "lat": 51.5165073, "lon": -0.1373884, "tags": {"addr:city": "London", "addr:housenumber": "77", "addr:postcode": "W1T 3QJ", "addr:street": "Wells Street", "amenity": "pub", "food": "yes", "name": "The Adam & Eve", "old_name": "Ben Crouches Tavern", "phone": "+44 20 7636 0717", "toilets": "yes", "toilets:access": "customers", "website": "https://www.theadamandevew1.co.uk/"}}, {"type": "node", "id": 294161411, "lat": 51.5237302, "lon": -0.1411047}, {"type": "node", "id": 294599679, "lat": 51.5259074, "lon": -0.1378517, "tags": {"amenity": "pub", "name": "Square Tavern", "operator": "Young's", "toilets": "yes", "toilets:access": "customers"}}, {"type": "node", "id": 295969845, "lat": 51.5137153, "lon": -0.13044}, {"type": "node", "id": 305579010, "lat": 51.5172135, "lon": -0.1311243}, {"type": "node", "id": 306499353, "lat": 51.5230531, "lon": -0.1419511}, {"type": "node", "id": 312159181, "lat": 51.523319, "lon": -0.143984, "tags": {"addr:city": "London", "addr:housenumber": "240-242", "addr:postcode": "W1W 5QU", "addr:street": "Great Portland Street", "amenity": "pub", "diet:vegan": "yes", "diet:vegetarian": "yes", "fhrs:confidence_management": "0", "fhrs:hygiene": "0", "fhrs:id": "427851", "fhrs:local_authority_id": "00603/0240/0/000", "fhrs:rating": "2", "fhrs:structural": "15", "food": "yes", "name": "The Albany", "source:addr": "FSA Food Hygiene Ratings Database", "source:postcode": "FSA Food Hygiene Ratings Database", "wheelchair": "yes"}}, {"type": "node", "id": 313349031, "lat": 51.5129035, "lon": -0.1390316, "tags": {"amenity": "restaurant", "cuisine": "italian", "level": "0", "name": "Pastaio", "website": "https://www.pastaio.london/"}}, {"type": "node", "id": 317291386, "lat": 51.5195455, "lon": -0.1325118, "tags": {"amenity": "restaurant", "name": "Busaba Eathai", "wheelchair": "no"}}, {"type": "node", "id": 317291389, "lat": 51.5196423, "lon": -0.1336008, "tags": {"addr:city": "London", "addr:housenumber": "55", "addr:postcode": "W1T 2EQ", "addr:street": "Tottenham Court Road", "brand": "M&S Foodhall", "brand:wikidata": "Q714491", "brand:wikipedia": "en:Marks & Spencer", "contact:website": "https://www.marksandspencer.com/stores/tottenham-court-rd-simply-food-4750", "name": "M&S Foodhall", "opening_hours": "Mo-Fr 07:00-22:00; Sa 08:00-21:00; Su 12:00-18:00", "shop": "supermarket", "wheelchair": "yes", "wheelchair:description": "This is not just access, this is M"}}, {"type": "node", "id": 330889425, "lat": 51.512941, "lon": -0.1302089}, {"type": "node", "id": 332041595, "lat": 51.520943, "lon": -0.1348273}, {"type": "node", "id": 332041596, "lat": 51.5209011, "lon": -0.1349343}, {"type": "node", "id": 332041597, "lat": 51.5209488, "lon": -0.1349825}, {"type": "node", "id": 332041599, "lat": 51.5209907, "lon": -0.1348755}, {"type": "node", "id": 332311691, "lat": 51.515531, "lon": -0.1277678}, {"type": "node", "id": 333654573, "lat": 51.5192738, "lon": -0.1357298}, {"type": "node", "id": 333670414, "lat": 51.5197871, "lon": -0.1344263}, {"type": "node", "id": 333722503, "lat": 51.5182255, "lon": -0.1384801}, {"type": "node", "id": 333726500, "lat": 51.5227666, "lon": -0.1389599, "tags": {"amenity": "restaurant", "cuisine": "indian", "diet:vegan": "yes", "indoor_seating": "yes", "name": "Indian YMCA", "outdoor_seating": "yes", "tourism": "hostel", "wheelchair": "no", "wikidata": "Q6021671"}}, {"type": "node", "id": 338952744, "lat": 51.513692, "lon": -0.135201, "tags": {"addr:city": "London", "addr:housenumber": "15-17", "addr:street": "Broadwick Street", "amenity": "restaurant", "cuisine": "Asian Fusion", "fhrs:confidence_management": "0", "fhrs:hygiene": "5", "fhrs:id": "414531", "fhrs:local_authority_id": "04/00310/COMM", "fhrs:rating": "5", "fhrs:structural": "0", "name": "Yauatcha", "postal_code": "W1F 0DL", "wheelchair": "yes", "wikidata": "Q8050323", "wikipedia": "en:Yauatcha"}}, {"type": "node", "id": 339924936, "lat": 51.5089115, "lon": -0.127032}, {"type": "node", "id": 339924937, "lat": 51.50894, "lon": -0.1263209}, {"type": "node", "id": 339924938, "lat": 51.5087265, "lon": -0.1263208}, {"type": "node", "id": 339924939, "lat": 51.5087476, "lon": -0.1270319}, {"type": "node", "id": 339925156, "lat": 51.5083226, "lon": -0.1277985, "tags": {"addr:city": "London", "addr:housenumber": "38", "addr:street": "Trafalgar Square", "amenity": "cafe", "fhrs:confidence_management": "10", "fhrs:hygiene": "5", "fhrs:id": "414497", "fhrs:local_authority_id": "03/00342/COMM", "fhrs:rating": "4", "fhrs:structural": "5", "name": "Cafe On The Square", "postal_code": "SW1Y 5BJ", "source:addr": "FSA Food Hygiene Ratings Database", "source:postcode": "FSA Food Hygiene Ratings Database", "wheelchair": "yes"}}, {"type": "node", "id": 339925397, "lat": 51.5093981, "lon": -0.1268964, "tags": {"addr:city": "London", "addr:housenumber": "7-8", "addr:postcode": "WC2N 4JH", "addr:street": "St Martin's Place", "amenity": "fast_food", "brand": "Pret A Manger", "brand:wikidata": "Q2109109", "brand:wikipedia": "en:Pret a Manger", "cuisine": "sandwich", "diet:vegan": "yes", "diet:vegetarian": "yes", "fhrs:confidence_management": "0", "fhrs:hygiene": "0", "fhrs:id": "427873", "fhrs:local_authority_id": "00624/0008/0/000", "fhrs:rating": "5", "fhrs:structural": "5", "name": "Pret A Manger", "outdoor_seating": "yes", "payment:american_express": "yes", "phone": "+44 20 7932 5345", "short_name": "Pret", "takeaway": "yes", "website": "http://www.pret.com", "wheelchair": "yes"}}, {"type": "node", "id": 344084670, "lat": 51.515637, "lon": -0.125979, "tags": {"addr:city": "London", "addr:housenumber": "168", "addr:postcode": "WC1V 7AA", "addr:street": "High Holborn", "amenity": "pub", "check_date": "2022-06-27", "craft_keg": "yes", "fhrs:id": "993196", "food": "yes", "level": "-1;0", "name": "Craft Beer Co.", "opening_hours": "Su-We 12:00-00:00;Th-Sa 12:00-01:00", "real_ale": "yes", "website": "http://thecraftbeerco.com/pubs/coventgarden/"}}, {"type": "node", "id": 344652892, "lat": 51.507901, "lon": -0.131531, "tags": {"addr:city": "London", "addr:housenumber": "80", "addr:street": "Haymarket", "amenity": "bar", "fhrs:confidence_management": "5", "fhrs:hygiene": "0", "fhrs:id": "410895", "fhrs:local_authority_id": "00095/0080/1/023", "fhrs:rating": "5", "fhrs:structural": "5", "name": "Riley's", "postal_code": "SW1Y 4TE", "source:addr": "FSA Food Hygiene Ratings Database", "source:postcode": "FSA Food Hygiene Ratings Database", "wheelchair": "yes"}}, {"type": "node", "id": 345871050, "lat": 51.5073963, "lon": -0.1291207, "tags": {"addr:city": "London", "addr:housenumber": "2", "addr:postcode": "SW1A 2TS", "addr:street": "Spring Gardens", "amenity": "pub", "name": "Rockwell Bar", "note": "part of The Trafalgar St. James Hotel"}}, {"type": "node", "id": 345877690, "lat": 51.5074016, "lon": -0.1299579, "tags": {"amenity": "restaurant", "cuisine": "thai", "name": "Thai Square", "wheelchair": "yes"}}, {"type": "node", "id": 345879041, "lat": 51.5072048, "lon": -0.1270862, "tags": {"addr:city": "London", "addr:city:fa": "\u0644\u0646\u062f\u0646", "addr:housenumber": "1/4", "addr:postcode": "SW1A 2DR", "addr:street": "Charing Cross", "brand": "Tesco Express", "brand:wikidata": "Q98456772", "brand:wikipedia": "en:Tesco", "contact:website": "https://www.tesco.com/store-locator/london/1-4-charing-cross", "fhrs:id": "772636", "name": "Tesco Express", "name:fa": "\u062a\u0633\u06a9\u0648 \u0627\u06a9\u0633\u067e\u0631\u0633", "name:ja": "\u30c6\u30b9\u30b3\u30fb\u30a8\u30af\u30b9\u30d7\u30ec\u30b9", "opening_hours": "24/7", "payment:american_express": "yes", "shop": "convenience", "source:addr": "FHRS Open Data", "wheelchair": "yes"}}, {"type": "node", "id": 345879196, "lat": 51.5072184, "lon": -0.1268242}, {"type": "node", "id": 345880058, "lat": 51.507159, "lon": -0.1272474, "tags": {"addr:city": "London", "addr:housenumber": "1", "addr:postcode": "SW1A 2DD", "addr:street": "Whitehall", "amenity": "fast_food", "brand": "Pret A Manger", "brand:wikidata": "Q2109109", "brand:wikipedia": "en:Pret a Manger", "contact:website": "https://locations.pret.co.uk/london/1-whitehall", "cuisine": "sandwich", "fhrs:confidence_management": "0", "fhrs:hygiene": "0", "fhrs:id": "427927", "fhrs:local_authority_id": "00881/0001/0/000", "fhrs:rating": "5", "fhrs:structural": "0", "name": "Pret A Manger", "name:ja": "\u30d7\u30ec\u30bf\u30fb\u30de\u30f3\u30b8\u30a7", "payment:american_express": "yes", "short_name": "Pret", "source:postcode": "FSA Food Hygiene Ratings Database", "takeaway": "yes", "wheelchair": "no"}}, {"type": "node", "id": 345884989, "lat": 51.5117369, "lon": -0.129769}, {"type": "node", "id": 345885431, "lat": 51.5124709, "lon": -0.1332066}, {"type": "node", "id": 347433577, "lat": 51.5204595, "lon": -0.1353628}, {"type": "node", "id": 348812894, "lat": 51.5109241, "lon": -0.1289596}, {"type": "node", "id": 348814674, "lat": 51.510912, "lon": -0.1294345, "tags": {"addr:city": "London", "addr:housenumber": "17-19", "addr:postcode": "WC2H 7LE", "amenity": "fast_food", "brand": "Burger King", "brand:wikidata": "Q177054", "brand:wikipedia": "en:Burger King", "contact:website": "https://locations.burgerking.co.uk/london-west-end/17-21-leicester-square", "cuisine": "burger", "fhrs:id": "427985", "name": "Burger King", "source:addr": "FHRS Open Data", "takeaway": "yes", "wheelchair": "limited"}}, {"type": "node", "id": 348817410, "lat": 51.5102692, "lon": -0.1293371, "tags": {"addr:city": "London", "addr:housenumber": "28", "addr:postcode": "WC2H 7LE", "addr:street": "Leicester Square", "amenity": "pub", "fhrs:confidence_management": "0", "fhrs:hygiene": "5", "fhrs:id": "412961", "fhrs:local_authority_id": "00989/0028/0/001", "fhrs:rating": "5", "fhrs:structural": "0", "name": "The Moon Under Water", "old_name": "The Moon Under Water", "outdoor_seating": "yes", "phone": "+44 20 7839 2837", "source:addr": "FSA Food Hygiene Ratings Database", "source:postcode": "FSA Food Hygiene Ratings Database", "wheelchair": "no", "wikidata": "Q88966234"}}, {"type": "node", "id": 348857103, "lat": 51.5108246, "lon": -0.1294685, "tags": {"addr:city": "London", "addr:housenumber": "19", "addr:street": "Leicester Square", "amenity": "restaurant", "brand": "Pizza Hut", "brand:wikidata": "Q191615", "brand:wikipedia": "en:Pizza Hut", "cuisine": "pizza", "fhrs:id": "427986", "fhrs:local_authority_id": "00989/0019/0/000", "fhrs:rating": "4", "name": "Pizza Hut", "name:ja": "\u30d4\u30b6\u30cf\u30c3\u30c8", "postal_code": "WC2H 7LE", "source:addr": "FSA Food Hygiene Ratings Database", "source:postcode": "FSA Food Hygiene Ratings Database", "wheelchair": "limited"}}, {"type": "node", "id": 348862855, "lat": 51.5097286, "lon": -0.1287749}, {"type": "node", "id": 348863128, "lat": 51.509988, "lon": -0.1285456}, {"type": "node", "id": 348865880, "lat": 51.5105308, "lon": -0.1316935, "tags": {"addr:city": "London", "addr:housenumber": "1 - 2", "addr:postcode": "W1D 6BH", "addr:street": "Coventry Street", "amenity": "fast_food", "brand": "Shake Shack", "brand:wikidata": "Q1058722", "brand:wikipedia": "en:Shake Shack", "cuisine": "burger", "fhrs:id": "938974", "name": "Shake Shack", "name:ja": "\u30b7\u30a7\u30a4\u30af\u30fb\u30b7\u30e3\u30c3\u30af", "source:addr": "FHRS Open Data", "takeaway": "yes"}}, {"type": "node", "id": 348867089, "lat": 51.511115, "lon": -0.131813, "tags": {"amenity": "pub", "name": "Waxy's Little Sister", "wheelchair": "no", "wikimedia_commons": "File:Wardour Street - Waxy's Little Sister pub.jpg"}}, {"type": "node", "id": 348870323, "lat": 51.5113557, "lon": -0.1321929, "tags": {"entrance": "main"}}, {"type": "node", "id": 348871686, "lat": 51.5114642, "lon": -0.1327974, "tags": {"addr:housenumber": "50", "addr:street": "Shaftesbury Avenue", "amenity": "cafe", "indoor_seating": "yes", "name": "Caff\u00e9 Concerto", "note": "spelling is correct according to its website", "outdoor_seating": "yes", "website": "https://www.caffeconcerto.co.uk/restaurant/shaftesbury-avenue.html"}}, {"type": "node", "id": 348874860, "lat": 51.5121343, "lon": -0.1334375, "tags": {"addr:city": "London", "addr:housenumber": "50", "addr:postcode": "W1D 6DR", "addr:street": "Rupert Street", "amenity": "bar", "contact:facebook": "https://www.facebook.com/RupertStreetBar/", "contact:instagram": "https://www.instagram.com/rupert_street_bar/", "contact:twitter": "https://twitter.com/RupertStreetBar", "fhrs:confidence_management": "0", "fhrs:hygiene": "5", "fhrs:id": "414115", "fhrs:local_authority_id": "01532/0050/0/000", "fhrs:rating": "5", "fhrs:structural": "0", "food": "yes", "lgbtq": "primary", "name": "Rupert Street", "opening_hours": "Mo-Th 12:00-23:00; Fr,Sa 12:00-23:45; Su 12:00-22:30", "outdoor_seating": "yes", "phone": "+44 20 7494 3059", "source:addr": "FSA Food Hygiene Ratings Database", "website": "https://www.rupert-street.com/london", "wheelchair": "yes", "wikimedia_commons": "File:Rupert_Street_bar.jpg"}}, {"type": "node", "id": 348875260, "lat": 51.512006, "lon": -0.133848, "tags": {"addr:city": "London", "addr:housenumber": "57", "addr:street": "Rupert Street", "amenity": "bar", "beer_garden": "yes", "contact:facebook": "https://www.facebook.com/yardbarsoho/", "contact:twitter": "https://twitter.com/theyardsoho", "email": "info@yardbar.co.uk", "fhrs:confidence_management": "20", "fhrs:hygiene": "5", "fhrs:id": "414117", "fhrs:local_authority_id": "01532/0057/0/000", "fhrs:rating": "1", "fhrs:structural": "5", "gay": "yes", "lgbtq": "primary", "name": "The Yard", "opening_hours": "Mo,Tu 14:00-23:30; We,Th 12:00-23:30; Fr,Sa 12:00-00:00; Su 12:00-22:30", "outdoor_seating": "yes", "payment:american_express": "no", "phone": "+44 20 7437 2652", "postal_code": "W1D 7PJ", "source:postcode": "FSA Food Hygiene Ratings Database", "website": "http://www.yardbar.co.uk"}}, {"type": "node", "id": 348904266, "lat": 51.5100549, "lon": -0.1329228, "tags": {"amenity": "restaurant", "diet:vegetarian": "yes", "indoor_seating": "yes", "name": "Angus Steakhouse", "outdoor_seating": "yes"}}, {"type": "node", "id": 348905523, "lat": 51.5101296, "lon": -0.1324716, "tags": {"addr:city": "London", "addr:housenumber": "25-29", "addr:postcode": "W1D 7AG", "addr:street": "Coventry Street", "amenity": "restaurant", "cuisine": "burger;chicken;international;seafood;fish_and_chips", "diet:vegan": "yes", "diet:vegetarian": "yes", "name": "HAPPY", "opening_hours": "Mo-Sa 12:00-23:00", "phone": "+44 20 3883 7874", "website": "https://happyrestaurants.com/", "wheelchair": "yes"}}, {"type": "node", "id": 348911273, "lat": 51.51186, "lon": -0.133452, "tags": {"amenity": "pub", "name": "White Horse", "outdoor_seating": "no", "wheelchair": "yes"}}, {"type": "node", "id": 349284852, "lat": 51.5150778, "lon": -0.1331577}, {"type": "node", "id": 364553628, "lat": 51.5242625, "lon": -0.1385837}, {"type": "node", "id": 366999013, "lat": 51.5189362, "lon": -0.1361415, "tags": {"addr:city": "London", "addr:housenumber": "3", "addr:postcode": "W1T 1SD", "addr:street": "Charlotte Place", "amenity": "restaurant", "cuisine": "italian", "fhrs:confidence_management": "10", "fhrs:hygiene": "5", "fhrs:id": "413536", "fhrs:local_authority_id": "01249/0003/0/001", "fhrs:rating": "4", "fhrs:structural": "5", "indoor_seating": "yes", "name": "Da Paolo", "outdoor_seating": "yes", "phone": "+44 20 7580 0021", "website": "http://www.dapaolo.co.uk/"}}, {"type": "node", "id": 367735472, "lat": 51.5222512, "lon": -0.1407496}, {"type": "node", "id": 367735553, "lat": 51.5179548, "lon": -0.1342209}, {"type": "node", "id": 367735557, "lat": 51.5179887, "lon": -0.1341359}, {"type": "node", "id": 367735563, "lat": 51.5180264, "lon": -0.1340415}, {"type": "node", "id": 367735573, "lat": 51.5184501, "lon": -0.1325198}, {"type": "node", "id": 367735576, "lat": 51.5185118, "lon": -0.1328244}, {"type": "node", "id": 367735591, "lat": 51.5185466, "lon": -0.1327371}, {"type": "node", "id": 367735595, "lat": 51.5183813, "lon": -0.1331518}, {"type": "node", "id": 371050486, "lat": 51.5147163, "lon": -0.1267904, "tags": {"amenity": "cafe", "name": "Monmouth Cafe"}}, {"type": "node", "id": 371050910, "lat": 51.515471, "lon": -0.126639, "tags": {"amenity": "bar", "internet_access": "wlan", "name": "Freud", "outdoor_seating": "no"}}, {"type": "node", "id": 372519264, "lat": 51.5110734, "lon": -0.1319926, "tags": {"entrance": "main"}}, {"type": "node", "id": 372519332, "lat": 51.5111315, "lon": -0.1310105}, {"type": "node", "id": 372519364, "lat": 51.5118214, "lon": -0.1293689, "tags": {"entrance": "main"}}, {"type": "node", "id": 372519414, "lat": 51.5123678, "lon": -0.1303581, "tags": {"addr:city": "London", "addr:housenumber": "1", "addr:postcode": "W1D 5PA", "addr:street": "Gerrard Place", "amenity": "restaurant", "cuisine": "chinese", "fhrs:confidence_management": "20", "fhrs:hygiene": "15", "fhrs:id": "410918", "fhrs:local_authority_id": "00111/0001/0/000", "fhrs:rating": "0", "fhrs:structural": "20", "name": "New World", "name:en": "New World", "name:zh": "\u65b0\u4e16\u754c\u5927\u9152\u5bb6", "source:addr": "FSA Food Hygiene Ratings Database", "source:postcode": "FSA Food Hygiene Ratings Database"}}, {"type": "node", "id": 372519530, "lat": 51.5134461, "lon": -0.1315987, "tags": {"addr:city": "London", "addr:housenumber": "47", "addr:postcode": "W1D 4HT", "addr:street": "Frith Street", "amenity": "bar", "name": "Ronnie Scotts Jazz Club", "source": "Company website", "toilets:wheelchair": "no", "website": "https://www.ronniescotts.co.uk/", "wheelchair": "no", "wikimedia_commons": "Category:Ronnie Scott's Jazz Club"}}, {"type": "node", "id": 372519553, "lat": 51.5134023, "lon": -0.1312004, "tags": {"addr:city": "London", "addr:housenumber": "22", "addr:street": "Frith Street", "amenity": "cafe", "fhrs:confidence_management": "5", "fhrs:hygiene": "0", "fhrs:id": "413657", "fhrs:local_authority_id": "01333/0022/0/001", "fhrs:rating": "5", "fhrs:structural": "5", "name": "Bar Italia", "note": "Open 24h", "postal_code": "W1D 4RP", "source:addr": "FSA Food Hygiene Ratings Database", "source:postcode": "FSA Food Hygiene Ratings Database", "website": "http://www.baritaliasoho.co.uk"}}, {"type": "node", "id": 373039733, "lat": 51.5128861, "lon": -0.1318777, "tags": {"camera:mount": "wall", "camera:type": "dome", "man_made": "surveillance", "note": "Very large camera dome, so likely to be a public camera", "surveillance": "outdoor", "surveillance:type": "camera"}}, {"type": "node", "id": 373442556, "lat": 51.5165817, "lon": -0.1306745, "tags": {"addr:housenumber": "4a", "addr:street": "Oxford Street", "disused:shop": "mobile_phone", "name": "Fiestmart", "old_name": "Carphone Warehouse", "shop": "confectionery"}}, {"type": "node", "id": 382185026, "lat": 51.5135672, "lon": -0.1348154}, {"type": "node", "id": 382186111, "lat": 51.5139629, "lon": -0.1351862, "tags": {"shop": "convenience"}}, {"type": "node", "id": 382512980, "lat": 51.5154983, "lon": -0.1344574, "tags": {"addr:housenumber": "22", "addr:street": "Great Chapel Street", "amenity": "bar", "name": "The London Gin Club", "website": "https://thelondonginclub.com/"}}, {"type": "node", "id": 382512989, "lat": 51.5152192, "lon": -0.1352294}, {"type": "node", "id": 382513014, "lat": 51.5147815, "lon": -0.1350686}, {"type": "node", "id": 382513021, "lat": 51.5144671, "lon": -0.1346384}, {"type": "node", "id": 382513030, "lat": 51.5142122, "lon": -0.134439}, {"type": "node", "id": 382513039, "lat": 51.5141462, "lon": -0.1337974, "tags": {"amenity": "restaurant", "name": "Refuel"}}, {"type": "node", "id": 382513045, "lat": 51.5140915, "lon": -0.1345743}, {"type": "node", "id": 382513051, "lat": 51.5144431, "lon": -0.1348233}, {"type": "node", "id": 382513060, "lat": 51.5145712, "lon": -0.1348992}, {"type": "node", "id": 382513065, "lat": 51.5146482, "lon": -0.1349625}, {"type": "node", "id": 383964432, "lat": 51.5155217, "lon": -0.1389434, "tags": {"entrance": "main"}}, {"type": "node", "id": 383964433, "lat": 51.5155305, "lon": -0.1388593, "tags": {"entrance": "main"}}, {"type": "node", "id": 383980821, "lat": 51.5155449, "lon": -0.1366581, "tags": {"addr:housenumber": "57", "addr:street": "Berwick Street", "amenity": "pub", "cuisine": "fish_and_chips", "name": "Green Man", "opening_hours": "Mo-Th 09:00-23:00; Fr 09:00-01:00; Sa 09:00-00:00; Su 09:00-22:30", "phone": "+44 20 7494 9731", "website": "https://thegreenmansoho.co.uk", "wheelchair": "yes", "wikidata": "Q27083993"}}, {"type": "node", "id": 384759682, "lat": 51.5163212, "lon": -0.1359571, "tags": {"addr:housenumber": "2", "addr:street": "Berners Street", "amenity": "restaurant", "brand": "Nando's", "brand:wikidata": "Q3472954", "brand:wikipedia": "en:Nando's", "cuisine": "chicken;portuguese", "name": "Nando's", "website": "https://www.nandos.co.uk/restaurants/berners-street"}}, {"type": "node", "id": 384759683, "lat": 51.5164498, "lon": -0.1360448, "tags": {"addr:housenumber": "4", "addr:street": "Berners Street", "amenity": "fast_food", "brand": "Subway", "brand:wikidata": "Q244457", "brand:wikipedia": "en:Subway (restaurant)", "cuisine": "sandwich", "name": "Subway", "phone": "+44 20 7580 9051", "postal_code": "W1T 3LE", "takeaway": "yes"}}, {"type": "node", "id": 384759684, "lat": 51.5163911, "lon": -0.1360022, "tags": {"addr:housenumber": "3", "addr:street": "Berners Street", "amenity": "restaurant", "brand": "Gourmet Burger Kitchen", "brand:wikidata": "Q5588445", "brand:wikipedia": "en:Gourmet Burger Kitchen", "cuisine": "burger", "name": "Gourmet Burger Kitchen", "postal_code": "W1T 3LD", "short_name": "GBK"}}, {"type": "node", "id": 385549568, "lat": 51.5158194, "lon": -0.1337922, "tags": {"addr:city": "London", "addr:housenumber": "52", "addr:street": "Dean Street", "amenity": "fast_food", "brand": "Subway", "brand:wikidata": "Q244457", "brand:wikipedia": "en:Subway (restaurant)", "cuisine": "sandwich", "fhrs:confidence_management": "5", "fhrs:hygiene": "5", "fhrs:id": "412879", "fhrs:local_authority_id": "00953/0052/0/002", "fhrs:rating": "4", "fhrs:structural": "10", "name": "Subway", "postal_code": "W1D 5BJ", "source:addr": "FSA Food Hygiene Ratings Database", "source:postcode": "FSA Food Hygiene Ratings Database", "takeaway": "yes", "wheelchair": "limited"}}, {"type": "node", "id": 385554761, "lat": 51.5113628, "lon": -0.1330943}, {"type": "node", "id": 385554762, "lat": 51.510388, "lon": -0.1323295}, {"type": "node", "id": 385554763, "lat": 51.5101852, "lon": -0.1334701, "tags": {"camera:type": "dome", "man_made": "surveillance", "source": "photograph", "surveillance": "outdoor", "surveillance:type": "camera"}}, {"type": "node", "id": 385554764, "lat": 51.5106588, "lon": -0.1338659}, {"type": "node", "id": 385562688, "lat": 51.5162714, "lon": -0.1336904, "tags": {"addr:city": "London", "addr:housenumber": "68", "addr:postcode": "W1D 1BN", "addr:street": "Oxford Street", "cuisine": "sandwich", "description": "Simit Sarayi sell traditional Turkish pretzels and bakery produce in stores across 25 countries.", "name": "Simit Sarayi", "phone": "+44 20 7636 4636", "shop": "bakery", "website": "https://www.simitsarayi.com/en", "wheelchair": "yes"}}, {"type": "node", "id": 385563574, "lat": 51.5163229, "lon": -0.1332403, "tags": {"addr:city": "London", "addr:housenumber": "58", "addr:street": "Oxford Street", "amenity": "restaurant", "brand": "Wasabi", "brand:wikidata": "Q23891278", "brand:wikipedia": "en:Wasabi (restaurant)", "cuisine": "japanese", "fhrs:confidence_management": "10", "fhrs:hygiene": "5", "fhrs:id": "411010", "fhrs:local_authority_id": "00159/0058/0/000", "fhrs:rating": "2", "fhrs:structural": "15", "name": "Wasabi", "postal_code": "W1D 1BH", "source:addr": "FSA Food Hygiene Ratings Database", "source:postcode": "FSA Food Hygiene Ratings Database"}}, {"type": "node", "id": 385564475, "lat": 51.5165329, "lon": -0.1326779, "tags": {"addr:housenumber": "42-44", "addr:street": "Hanway Street", "amenity": "pub", "food": "no", "name": "Bradley's Spanish Bar", "opening_hours": "Mo-Sa 12:00-22:00; Su 12:00-18:00", "outdoor_seating": "no", "phone": "+44 20 7636 0359", "website": "https://www.bradleysspanishbar.com/"}}, {"type": "node", "id": 385579446, "lat": 51.51163, "lon": -0.1285187}, {"type": "node", "id": 385581976, "lat": 51.5096076, "lon": -0.1265109}, {"type": "node", "id": 385581979, "lat": 51.5097239, "lon": -0.1265323}, {"type": "node", "id": 385591324, "lat": 51.5164785, "lon": -0.1309882, "tags": {"addr:housenumber": "12", "addr:street": "Oxford Street", "amenity": "bar", "bar": "juice", "fhrs:confidence_management": "0", "fhrs:hygiene": "0", "fhrs:id": "411000", "fhrs:local_authority_id": "00159/0012/0/000", "fhrs:rating": "5", "fhrs:structural": "0", "name": "Boost Juice Bar", "opening_hours": "Mo-Fr 07:00-22:00; Sa 09:00-21:00; Su 10:00-21:00", "phone": "+44 20 7637 9922", "postal_code": "W1D 1AP", "website": "https://www.boostjuicebars.co.uk/"}}, {"type": "node", "id": 385591326, "lat": 51.5164921, "lon": -0.1308683, "tags": {"addr:housenumber": "8-10", "addr:street": "Oxford Street", "amenity": "fast_food", "brand": "McDonald's", "brand:wikidata": "Q38076", "brand:wikipedia": "en:McDonald's", "contact:website": "https://www.mcdonalds.com/gb/en-gb/location/westminster/oxford-street-1/810-oxford-street/8260028.html", "cuisine": "burger", "drive_through": "no", "name": "McDonald's", "opening_hours": "Mo-Su 05:00-02:45", "takeaway": "yes", "wheelchair": "yes"}}, {"type": "node", "id": 385592206, "lat": 51.5155458, "lon": -0.1335578, "tags": {"addr:city": "London", "addr:housenumber": "2-4", "addr:postcode": "W1D 3RG", "addr:street": "Dean Street", "brand": "Tesco Express", "brand:wikidata": "Q98456772", "fhrs:confidence_management": "5", "fhrs:hygiene": "5", "fhrs:id": "427976", "fhrs:local_authority_id": "00953/0002/0/001", "fhrs:rating": "5", "fhrs:structural": "5", "name": "Tesco Express", "name:fa": "\u062a\u0633\u06a9\u0648 \u0645\u062a\u0631\u0648", "opening_hours": "Mo-Fr 06:00-23:00; Sa 06:00-22:00; Su 12:00-18:00", "payment:american_express": "yes", "shop": "convenience", "source:postcode": "FSA Food Hygiene Ratings Database"}}, {"type": "node", "id": 387261973, "lat": 51.5138003, "lon": -0.1324647}, {"type": "node", "id": 388116716, "lat": 51.5170472, "lon": -0.1267998, "tags": {"shop": "supermarket"}}, {"type": "node", "id": 388116718, "lat": 51.5167167, "lon": -0.1289335, "tags": {"amenity": "pub", "name": "All Bar One"}}, {"type": "node", "id": 388116719, "lat": 51.516674, "lon": -0.129274, "tags": {"amenity": "cafe", "brand": "Starbucks", "brand:wikidata": "Q37158", "brand:wikipedia": "en:Starbucks", "cuisine": "coffee_shop", "name": "Starbucks", "official_name": "Starbucks Coffee", "payment:american_express": "yes", "takeaway": "yes", "wheelchair": "limited"}}, {"type": "node", "id": 388116720, "lat": 51.5169332, "lon": -0.131671, "tags": {"addr:city": "London", "addr:housenumber": "14", "addr:postcode": "W1T 1UD", "addr:street": "Hanway Street", "amenity": "restaurant", "cuisine": "japanese", "name": "Kikuchi", "phone": "+44 20 7637 7720", "website": "https://www.kikuchisushi.com/"}}, {"type": "node", "id": 401529121, "lat": 51.5120174, "lon": -0.128267, "tags": {"addr:housenumber": "50", "addr:street": "Charing Cross Road", "name": "Hardys Original Sweetshop", "shop": "confectionery", "wheelchair": "yes"}}, {"type": "node", "id": 401529129, "lat": 51.5126683, "lon": -0.1285727, "tags": {"addr:housenumber": "76-78", "addr:postcode": "WC2H 0BN", "addr:street": "Charing Cross Road", "amenity": "bar", "contact:website": "https://www.baaria.co.uk/", "name": "Baaria", "opening_hours": "08:00-22:30"}}, {"type": "node", "id": 401529136, "lat": 51.5128913, "lon": -0.1286937, "tags": {"amenity": "fast_food", "brand": "Subway", "brand:wikidata": "Q244457", "brand:wikipedia": "en:Subway (restaurant)", "cuisine": "sandwich", "name": "Subway", "payment:american_express": "no", "takeaway": "yes", "wheelchair": "no"}}, {"type": "node", "id": 401529140, "lat": 51.5130756, "lon": -0.1291714}, {"type": "node", "id": 401529142, "lat": 51.513179, "lon": -0.128808, "tags": {"addr:city": "London", "addr:housenumber": "1", "addr:postcode": "WC2H 8PA", "addr:street": "Cambridge Circus", "amenity": "fast_food", "brand": "Shake Shack", "brand:wikidata": "Q1058722", "brand:wikipedia": "en:Shake Shack", "cuisine": "burger", "name": "Shake Shack", "outdoor_seating": "no", "takeaway": "yes", "wheelchair": "limited"}}, {"type": "node", "id": 401529148, "lat": 51.5140094, "lon": -0.1292936, "tags": {"amenity": "restaurant", "bar": "yes", "cuisine": "spanish", "name": "Salsa!"}}, {"type": "node", "id": 401529157, "lat": 51.5143608, "lon": -0.1294674, "tags": {"addr:housenumber": "106", "addr:street": "Charing Cross Road", "amenity": "cafe", "cuisine": "sandwich", "name": "Snack Bar & Caf\u00e9", "outdoor_seating": "yes", "wheelchair": "no"}}, {"type": "node", "id": 401529159, "lat": 51.5148933, "lon": -0.1296503, "tags": {"addr:housenumber": "124", "addr:street": "Charing Cross Road", "brand": "TK Maxx", "brand:wikidata": "Q23823668", "brand:wikipedia": "en:TK Maxx", "name": "TK Maxx", "opening_hours": "Mo-Sa 09:00-21:00; Su 11:30-18:00", "shop": "department_store", "wheelchair": "yes"}}, {"type": "node", "id": 401529161, "lat": 51.5152059, "lon": -0.1298942, "tags": {"addr:housenumber": "128", "addr:street": "Charing Cross Road", "amenity": "fast_food", "cuisine": "lebanese", "name": "Lebaneats"}}, {"type": "node", "id": 401529164, "lat": 51.5153476, "lon": -0.129956, "tags": {"addr:city": "London", "addr:housenumber": "136", "addr:postcode": "WC2H 0LA", "addr:street": "Charing Cross Road", "amenity": "restaurant", "name": "Apricot", "type": "bags"}}, {"type": "node", "id": 414724604, "lat": 51.5198083, "lon": -0.1424812}, {"type": "node", "id": 447871874, "lat": 51.5174846, "lon": -0.1292905}, {"type": "node", "id": 447872928, "lat": 51.5157962, "lon": -0.1326509, "tags": {"addr:city": "London", "addr:housenumber": "10", "addr:postcode": "W1D 3DL", "addr:street": "Soho Street", "amenity": "restaurant", "cuisine": "indian", "diet:vegan": "yes", "diet:vegetarian": "only", "fhrs:confidence_management": "10", "fhrs:hygiene": "10", "fhrs:id": "413032", "fhrs:local_authority_id": "01019/0010/0/000", "fhrs:rating": "3", "fhrs:structural": "10", "name": "Govinda's", "postal_code": "W1D 3DL", "source:postcode": "FSA Food Hygiene Ratings Database"}}, {"type": "node", "id": 447874478, "lat": 51.5141088, "lon": -0.1312706}, {"type": "node", "id": 447874806, "lat": 51.5141968, "lon": -0.1312912}, {"type": "node", "id": 447875724, "lat": 51.5138834, "lon": -0.1298672}, {"type": "node", "id": 447876511, "lat": 51.5140809, "lon": -0.1297188}, {"type": "node", "id": 447877778, "lat": 51.5165926, "lon": -0.1279733, "tags": {"addr:city": "London", "addr:housenumber": "71-75", "addr:postcode": "WC1A 1DG", "addr:street": "New Oxford Street", "amenity": "post_office", "name": "The Convenience Store", "ref:pol_id": "145432", "shop": "convenience"}}, {"type": "node", "id": 452215462, "lat": 51.510566, "lon": -0.1376134, "tags": {"addr:housenumber": "44", "addr:street": "Glasshouse Street", "amenity": "pub", "brewery": "Foster's;Crossbow;London Pride", "name": "The Leicester Arms", "smoking": "no", "toilets": "yes", "toilets:access": "customers", "wheelchair": "no"}}, {"type": "node", "id": 456213872, "lat": 51.5112791, "lon": -0.1392242}, {"type": "node", "id": 456213882, "lat": 51.5112296, "lon": -0.1391772}, {"type": "node", "id": 456213890, "lat": 51.5111863, "lon": -0.1392987}, {"type": "node", "id": 456213965, "lat": 51.5102976, "lon": -0.1391473, "tags": {"addr:city": "London", "addr:housenumber": "6A", "addr:postcode": "W1S 3HF", "addr:street": "Vigo Street", "amenity": "cafe", "brand": "Starbucks", "brand:wikidata": "Q37158", "brand:wikipedia": "en:Starbucks", "cuisine": "coffee_shop", "name": "Starbucks", "official_name": "Starbucks Coffee", "operator": "Starbucks", "payment:american_express": "yes", "takeaway": "yes"}}, {"type": "node", "id": 456261144, "lat": 51.5111738, "lon": -0.1398138, "tags": {"addr:city": "London", "addr:housenumber": "25", "addr:postcode": "W1B 4BH", "addr:street": "Heddon Street", "amenity": "restaurant", "fhrs:confidence_management": "5", "fhrs:hygiene": "5", "fhrs:id": "412930", "fhrs:local_authority_id": "00982/0025/0/000", "fhrs:rating": "5", "fhrs:structural": "5", "name": "Momo north-African & Mediterranean", "source:postcode": "FSA Food Hygiene Ratings Database", "wheelchair": "limited"}}, {"type": "node", "id": 464800453, "lat": 51.5191917, "lon": -0.1333636}, {"type": "node", "id": 464800454, "lat": 51.5191406, "lon": -0.1332061}, {"type": "node", "id": 464800456, "lat": 51.5192617, "lon": -0.1333262}, {"type": "node", "id": 466926146, "lat": 51.5112267, "lon": -0.1370862, "tags": {"addr:city": "London", "addr:housenumber": "19", "addr:street": "Golden Square", "amenity": "fast_food", "brand": "EAT.", "brand:wikidata": "Q5331219", "brand:wikipedia": "en:Eat (restaurant)", "cuisine": "sandwich", "name": "EAT.", "takeaway": "yes", "wheelchair": "no"}}, {"type": "node", "id": 466926232, "lat": 51.5111757, "lon": -0.1363142, "tags": {"amenity": "pub", "name": "The Crown", "wheelchair": "yes"}}, {"type": "node", "id": 466926237, "lat": 51.5113507, "lon": -0.1359965, "tags": {"addr:city": "London", "addr:housenumber": "58", "addr:postcode": "W1F 9TL", "addr:street": "Brewer Street", "amenity": "restaurant", "cuisine": "thai", "name": "Kiln", "opening_hours": "Mo-Sa 12:00-14:30, 17:00-22:30; Su 13:00-20:00", "website": "http://www.kilnsoho.com/", "wheelchair": "no"}}, {"type": "node", "id": 466926239, "lat": 51.5127138, "lon": -0.1365701}, {"type": "node", "id": 466926242, "lat": 51.5125561, "lon": -0.1372715}, {"type": "node", "id": 475974424, "lat": 51.5114686, "lon": -0.1272335}, {"type": "node", "id": 475974425, "lat": 51.5116113, "lon": -0.1273023, "tags": {"addr:city": "London", "addr:housenumber": "77-78", "addr:postcode": "WC2N 4AA", "addr:street": "St. Martin's Lane", "addr:unit": "Ground Floor", "amenity": "fast_food", "brand": "Pret A Manger", "brand:wikidata": "Q2109109", "brand:wikipedia": "en:Pret a Manger", "contact:website": "https://locations.pret.co.uk/london/77-78-st-martin's-lane", "cuisine": "sandwich", "fhrs:id": "427862", "name": "Pret A Manger", "payment:american_express": "yes", "short_name": "Pret", "source:addr": "FSA Food Hygiene Rating Scheme open data", "takeaway": "yes", "toilets": "yes", "toilets:wheelchair": "yes", "wheelchair": "yes"}}, {"type": "node", "id": 475978442, "lat": 51.5112675, "lon": -0.1321322, "tags": {"entrance": "main"}}, {"type": "node", "id": 484610661, "lat": 51.5251937, "lon": -0.1350027}, {"type": "node", "id": 485649315, "lat": 51.5251116, "lon": -0.1352855}, {"type": "node", "id": 488815507, "lat": 51.5133468, "lon": -0.1284496}, {"type": "node", "id": 488815510, "lat": 51.5132808, "lon": -0.1285429}, {"type": "node", "id": 488815513, "lat": 51.5135259, "lon": -0.1282677}, {"type": "node", "id": 488815517, "lat": 51.5127748, "lon": -0.1279316}, {"type": "node", "id": 488815518, "lat": 51.5128025, "lon": -0.1279119}, {"type": "node", "id": 489301872, "lat": 51.5235744, "lon": -0.1354378}, {"type": "node", "id": 489301925, "lat": 51.5243086, "lon": -0.1371365}, {"type": "node", "id": 489301927, "lat": 51.5245739, "lon": -0.1365068}, {"type": "node", "id": 493149349, "lat": 51.5224561, "lon": -0.136616}, {"type": "node", "id": 494923264, "lat": 51.5198435, "lon": -0.1317528}, {"type": "node", "id": 494923277, "lat": 51.5198979, "lon": -0.1319376}, {"type": "node", "id": 494923305, "lat": 51.51997, "lon": -0.1306368}, {"type": "node", "id": 494923345, "lat": 51.5188105, "lon": -0.1323209}, {"type": "node", "id": 496471917, "lat": 51.5194598, "lon": -0.1420542}, {"type": "node", "id": 496471918, "lat": 51.519416, "lon": -0.1423026}, {"type": "node", "id": 496471919, "lat": 51.5190091, "lon": -0.1421165}, {"type": "node", "id": 496471929, "lat": 51.5200148, "lon": -0.1425752}, {"type": "node", "id": 496471931, "lat": 51.520041, "lon": -0.1424267}, {"type": "node", "id": 496471937, "lat": 51.5200727, "lon": -0.1425989}, {"type": "node", "id": 496645942, "lat": 51.5191944, "lon": -0.1410965}, {"type": "node", "id": 496645943, "lat": 51.5192975, "lon": -0.1411542}, {"type": "node", "id": 496645945, "lat": 51.5192096, "lon": -0.1409939}, {"type": "node", "id": 496645946, "lat": 51.519288, "lon": -0.1410239}, {"type": "node", "id": 496649056, "lat": 51.5193526, "lon": -0.1408244}, {"type": "node", "id": 496649070, "lat": 51.519437, "lon": -0.1402668}, {"type": "node", "id": 496649074, "lat": 51.5192724, "lon": -0.1406275}, {"type": "node", "id": 496649081, "lat": 51.5203454, "lon": -0.1406898}, {"type": "node", "id": 496649082, "lat": 51.5203254, "lon": -0.1408003}, {"type": "node", "id": 496666841, "lat": 51.5192409, "lon": -0.1398462}, {"type": "node", "id": 496666871, "lat": 51.519266, "lon": -0.1400074}, {"type": "node", "id": 496666873, "lat": 51.5191563, "lon": -0.1398556}, {"type": "node", "id": 496666886, "lat": 51.5190854, "lon": -0.1407189}, {"type": "node", "id": 496682141, "lat": 51.518839, "lon": -0.1412847}, {"type": "node", "id": 496682142, "lat": 51.5188275, "lon": -0.1413561}, {"type": "node", "id": 496682145, "lat": 51.5188761, "lon": -0.1413777}, {"type": "node", "id": 496695798, "lat": 51.5181277, "lon": -0.1404822}, {"type": "node", "id": 496695812, "lat": 51.5175092, "lon": -0.1409298}, {"type": "node", "id": 496702563, "lat": 51.5180746, "lon": -0.1393612}, {"type": "node", "id": 496702573, "lat": 51.5182804, "lon": -0.1403442}, {"type": "node", "id": 496702575, "lat": 51.518511, "lon": -0.1404415}, {"type": "node", "id": 496702576, "lat": 51.5185565, "lon": -0.1402054}, {"type": "node", "id": 496702580, "lat": 51.518312, "lon": -0.1401768}, {"type": "node", "id": 496704390, "lat": 51.5164391, "lon": -0.140536}, {"type": "node", "id": 496704393, "lat": 51.5163456, "lon": -0.1404946}, {"type": "node", "id": 496704394, "lat": 51.5165101, "lon": -0.140229}, {"type": "node", "id": 496704395, "lat": 51.5164007, "lon": -0.1401788}, {"type": "node", "id": 496827812, "lat": 51.5241145, "lon": -0.1392698}, {"type": "node", "id": 497147301, "lat": 51.5235173, "lon": -0.1357751}, {"type": "node", "id": 497149330, "lat": 51.5178561, "lon": -0.135695, "tags": {"addr:city": "London", "addr:housenumber": "25", "addr:postcode": "W1T 1PN", "addr:street": "Newman Street", "amenity": "bar", "name": "Nordic Bar", "opening_hours": "Mo-We 17:00-00:00; Th-Fr 12:00-02:00; Sa 17:00-02:00; Su off", "phone": "+44 20 7631 3174", "postal_code": "W1T 1PN", "website": "https://www.nordicbar.com/"}}, {"type": "node", "id": 497149962, "lat": 51.5125437, "lon": -0.1316428}, {"type": "node", "id": 497149974, "lat": 51.5122389, "lon": -0.1316228}, {"type": "node", "id": 497150004, "lat": 51.5126832, "lon": -0.1319382}, {"type": "node", "id": 497150008, "lat": 51.5127071, "lon": -0.1321006}, {"type": "node", "id": 497184036, "lat": 51.5216486, "lon": -0.1400079}, {"type": "node", "id": 497185846, "lat": 51.5223468, "lon": -0.1358152}, {"type": "node", "id": 497394061, "lat": 51.5180218, "lon": -0.1276356}, {"type": "node", "id": 497464834, "lat": 51.5131526, "lon": -0.1303489}, {"type": "node", "id": 497464853, "lat": 51.5129262, "lon": -0.1309647}, {"type": "node", "id": 497464855, "lat": 51.5131699, "lon": -0.1311298}, {"type": "node", "id": 498252025, "lat": 51.5241426, "lon": -0.1391116}, {"type": "node", "id": 498252034, "lat": 51.5243925, "lon": -0.1379313}, {"type": "node", "id": 498252058, "lat": 51.5234666, "lon": -0.1382452}, {"type": "node", "id": 498252471, "lat": 51.5235103, "lon": -0.1374564}, {"type": "node", "id": 498252480, "lat": 51.5233126, "lon": -0.1371012}, {"type": "node", "id": 498252506, "lat": 51.5229951, "lon": -0.136804}, {"type": "node", "id": 498272877, "lat": 51.5218183, "lon": -0.1365934}, {"type": "node", "id": 498272902, "lat": 51.5220821, "lon": -0.1360061}, {"type": "node", "id": 498847731, "lat": 51.5128386, "lon": -0.130893}, {"type": "node", "id": 498847735, "lat": 51.5130672, "lon": -0.1302891}, {"type": "node", "id": 498848051, "lat": 51.5143076, "lon": -0.1341715}, {"type": "node", "id": 498848066, "lat": 51.5142127, "lon": -0.1341039}, {"type": "node", "id": 499320020, "lat": 51.5140952, "lon": -0.1326941}, {"type": "node", "id": 499320021, "lat": 51.5141375, "lon": -0.1325471}, {"type": "node", "id": 499350848, "lat": 51.5150632, "lon": -0.141263, "tags": {"addr:housenumber": "18", "addr:street": "Argyll Street", "amenity": "pub", "brand": "Nicholson's", "brand:wikidata": "Q113130666", "food": "yes", "name": "The Argyll Arms", "real_ale": "yes", "wheelchair": "limited", "wikidata": "Q15978878"}}, {"type": "node", "id": 499350855, "lat": 51.5136712, "lon": -0.1394579}, {"type": "node", "id": 501766778, "lat": 51.5154414, "lon": -0.127635}, {"type": "node", "id": 501766779, "lat": 51.5154771, "lon": -0.1276328}, {"type": "node", "id": 502151317, "lat": 51.5119396, "lon": -0.129307, "tags": {"entrance": "main"}}, {"type": "node", "id": 551888289, "lat": 51.5212701, "lon": -0.1419445, "tags": {"addr:city": "London", "addr:housenumber": "131-151", "addr:street": "Great Titchfield Street", "amenity": "restaurant", "fhrs:confidence_management": "10", "fhrs:hygiene": "10", "fhrs:id": "413760", "fhrs:local_authority_id": "01379/0131/1/000", "fhrs:rating": "3", "fhrs:structural": "5", "name": "Vanilla", "postal_code": "W1W 5BB", "source:addr": "FSA Food Hygiene Ratings Database", "source:postcode": "FSA Food Hygiene Ratings Database"}}, {"type": "node", "id": 553311934, "lat": 51.5194121, "lon": -0.1359536, "tags": {"addr:city": "London", "addr:housenumber": "46", "addr:postcode": "W1T 4LU", "addr:street": "Goodge Street", "alt_name": "Italiano Coffee Co", "amenity": "restaurant", "branch": "Goodge Street", "cuisine": "italian", "indoor_seating": "yes", "name": "Icco", "outdoor_seating": "yes", "phone": "+44 20 7580 9688", "postal_code": "W1T 4LU", "website": "https://icco.co.uk/", "wheelchair": "limited"}}, {"type": "node", "id": 559346441, "lat": 51.5108336, "lon": -0.1324219}, {"type": "node", "id": 559348481, "lat": 51.5111602, "lon": -0.1316513, "tags": {"entrance": "main"}}, {"type": "node", "id": 559520519, "lat": 51.5073138, "lon": -0.1285538, "tags": {"addr:city": "Leeds", "addr:country": "GB", "addr:housenumber": "62-65", "addr:postcode": "WC2N 5NJ", "addr:street": "Trafalgar Square", "amenity": "fast_food", "brand": "Pret A Manger", "brand:wikidata": "Q2109109", "brand:wikipedia": "en:Pret a Manger", "cuisine": "sandwich", "fhrs:id": "427748", "name": "Pret A Manger", "name:ja": "\u30d7\u30ec\u30bf\u30fb\u30de\u30f3\u30b8\u30a7", "payment:american_express": "yes", "short_name": "Pret", "takeaway": "yes", "wheelchair": "no"}}, {"type": "node", "id": 559520875, "lat": 51.5072772, "lon": -0.1283651, "tags": {"addr:city": "London", "addr:housenumber": "60", "addr:street": "Trafalgar Square", "amenity": "cafe", "brand": "Caff\u00e8 Nero", "brand:wikidata": "Q675808", "brand:wikipedia": "en:Caff\u00e8 Nero", "cuisine": "coffee_shop", "name": "Caff\u00e8 Nero", "name:ja": "\u30ab\u30d5\u30a7\u30fb\u30cd\u30ed", "takeaway": "yes", "website": "https://caffenero.com/", "wheelchair": "no"}}, {"type": "node", "id": 565470122, "lat": 51.5133508, "lon": -0.1309301}, {"type": "node", "id": 565470131, "lat": 51.5136314, "lon": -0.1300077}, {"type": "node", "id": 565470140, "lat": 51.512986, "lon": -0.131919}, {"type": "node", "id": 565470149, "lat": 51.5151393, "lon": -0.130809, "tags": {"addr:city": "London", "addr:housenumber": "133", "addr:postcode": "WC2H 0EA", "addr:street": "Charing Cross Road", "amenity": "pub", "email": "enquiry@theroyalgeorgewc2.co.uk", "name": "Royal George", "payment:american_express": "yes", "phone": "+44 20 7734 8837", "website": "https://www.theroyalgeorgewc2.co.uk/"}}, {"type": "node", "id": 565545526, "lat": 51.5170281, "lon": -0.1353826}, {"type": "node", "id": 565545558, "lat": 51.5188111, "lon": -0.1369413, "tags": {"entrance": "yes"}}, {"type": "node", "id": 565564943, "lat": 51.517239, "lon": -0.1353171}, {"type": "node", "id": 565573093, "lat": 51.5188655, "lon": -0.1367475}, {"type": "node", "id": 566144426, "lat": 51.5194765, "lon": -0.1374639}, {"type": "node", "id": 566228932, "lat": 51.5137044, "lon": -0.140077}, {"type": "node", "id": 566357928, "lat": 51.512359, "lon": -0.133217, "tags": {"addr:housenumber": "79", "addr:street": "Wardour Street", "amenity": "bar", "contact:facebook": "https://www.facebook.com/pages/The-Friendly-Society/136813716365787", "lgbtq": "primary", "name": "The Friendly Society", "outdoor_seating": "no", "payment:american_express": "yes", "smoking": "no", "wheelchair": "no"}}, {"type": "node", "id": 567936944, "lat": 51.5152012, "lon": -0.1301798}, {"type": "node", "id": 567940399, "lat": 51.5174253, "lon": -0.1313349}, {"type": "node", "id": 581058547, "lat": 51.5072749, "lon": -0.128886, "tags": {"addr:city": "London", "addr:housenumber": "66", "addr:postcode": "WC2N 5DS", "addr:street": "Trafalgar Square", "amenity": "pub", "brand": "Fuller's", "brand:wikidata": "Q5253950", "brand:wikipedia": "en:Fuller's Brewery", "food": "yes", "name": "The Admiralty", "operator": "Fullers", "real_ale": "4 or so from Fullers", "wheelchair": "limited", "wikidata": "Q14955146", "wikipedia": "en:Admiralty, Trafalgar Square"}}, {"type": "node", "id": 582630405, "lat": 51.5148343, "lon": -0.1407765, "tags": {"addr:city": "London", "addr:housenumber": "11", "addr:postcode": "W1F 7TH", "addr:street": "Argyll Street", "amenity": "cafe", "brand": "Costa", "brand:wikidata": "Q608845", "brand:wikipedia": "en:Costa Coffee", "cuisine": "coffee_shop", "fhrs:confidence_management": "5", "fhrs:hygiene": "5", "fhrs:id": "413209", "fhrs:local_authority_id": "01092/0011/0/001", "fhrs:rating": "5", "fhrs:structural": "5", "name": "Costa", "source:postcode": "FSA Food Hygiene Ratings Database", "takeaway": "yes", "wheelchair": "limited"}}, {"type": "node", "id": 582631405, "lat": 51.5143348, "lon": -0.1404149}, {"type": "node", "id": 582632318, "lat": 51.514691, "lon": -0.1409747, "tags": {"addr:housenumber": "25", "addr:street": "Argyll Street", "amenity": "restaurant", "brand": "Bella Italia", "brand:wikidata": "Q4883362", "brand:wikipedia": "en:Bella Italia", "cuisine": "italian", "fhrs:confidence_management": "5", "fhrs:hygiene": "5", "fhrs:id": "413212", "fhrs:local_authority_id": "01092/0025/0/000", "fhrs:rating": "4", "fhrs:structural": "10", "name": "Bella Italia", "postal_code": "W1F 7TU", "website": "https://www.bellaitalia.co.uk/", "wheelchair": "yes"}}, {"type": "node", "id": 582769226, "lat": 51.5151074, "lon": -0.1413059, "tags": {"amenity": "restaurant", "cuisine": "steak_house", "name": "Angus Steak Houses", "wheelchair": "no"}}, {"type": "node", "id": 582793582, "lat": 51.517546, "lon": -0.1426726, "tags": {"addr:housenumber": "1-2", "addr:street": "Langham Place", "amenity": "cafe", "brand": "Starbucks", "brand:wikidata": "Q37158", "brand:wikipedia": "en:Starbucks", "cuisine": "coffee_shop", "diet:vegetarian": "yes", "indoor_seating": "yes", "name": "Starbucks", "official_name": "Starbucks Coffee", "outdoor_seating": "yes", "takeaway": "yes"}}, {"type": "node", "id": 583682105, "lat": 51.517792, "lon": -0.1428391}, {"type": "node", "id": 588034827, "lat": 51.5074755, "lon": -0.1268118, "tags": {"amenity": "cafe", "brand": "Costa", "brand:wikidata": "Q608845", "brand:wikipedia": "en:Costa Coffee", "cuisine": "coffee_shop", "name": "Costa", "name:ja": "\u30b3\u30b9\u30bf", "takeaway": "yes", "toilets": "yes", "toilets:wheelchair": "yes", "wheelchair": "yes"}}, {"type": "node", "id": 588490958, "lat": 51.5224808, "lon": -0.144, "tags": {"addr:city": "London", "addr:housenumber": "195", "addr:postcode": "W1W 6PB", "addr:street": "Great Portland Street", "amenity": "restaurant", "cuisine": "spanish", "diet:vegetarian": "yes", "fhrs:id": "411921", "name": "Ib\u00e9rica", "source:addr": "FHRS Open Data", "website": "http://www.ibericalondon.com/", "wheelchair": "yes"}}, {"type": "node", "id": 594876703, "lat": 51.511417, "lon": -0.1366962, "tags": {"addr:city": "London", "addr:housenumber": "14/14A", "addr:postcode": "W1F 9JG", "addr:street": "Golden Square", "amenity": "cafe", "fhrs:confidence_management": "0", "fhrs:hygiene": "0", "fhrs:id": "414641", "fhrs:local_authority_id": "07/00004/COMM", "fhrs:rating": "5", "fhrs:structural": "5", "name": "Nordic Bakery", "opening_hours": "Mo-Su 09:00-19:00", "phone": "+44 20 3230 1077", "source:addr": "FSA Food Hygiene Ratings Database", "website": "http://www.nordicbakery.com/", "wheelchair": "yes"}}, {"type": "node", "id": 595252153, "lat": 51.5094358, "lon": -0.1347295}, {"type": "node", "id": 595259850, "lat": 51.5163816, "lon": -0.1421184, "tags": {"addr:city": "London", "addr:country": "GB", "addr:housenumber": "298", "addr:postcode": "W1B 3AP", "addr:street": "Regent Street", "amenity": "fast_food", "brand": "Pret A Manger", "brand:wikidata": "Q2109109", "brand:wikipedia": "en:Pret a Manger", "contact:website": "https://locations.pret.co.uk/london/298-regent-street", "cuisine": "sandwich", "diet:vegetarian": "yes", "fhrs:id": "428057", "indoor_seating": "yes", "internet_access": "wlan", "internet_access:fee": "no", "name": "Pret A Manger", "opening_hours": "Mo-Fr 06:30-22:30; Sa 07:30-22:30; Su 07:30-22:30", "outdoor_seating": "yes", "phone": "+44 20 7932 5219", "short_name": "Pret", "takeaway": "yes", "wheelchair": "yes"}}, {"type": "node", "id": 595301296, "lat": 51.509704, "lon": -0.133266, "tags": {"addr:city": "London", "addr:housenumber": "45", "addr:postcode": "SW1Y 4SE", "addr:street": "Haymarket", "amenity": "cafe", "description": "Opening soon", "fhrs:id": "414755", "indoor_seating": "yes", "name": "Caffee Concerto", "outdoor_seating": "yes", "source:addr": "FHRS Open Data", "wheelchair": "yes"}}, {"type": "node", "id": 595303064, "lat": 51.5092482, "lon": -0.132131, "tags": {"addr:city": "London", "addr:housenumber": "24", "addr:postcode": "SW1Y 4DG", "addr:street": "Haymarket", "amenity": "restaurant", "cuisine": "steak_house", "fhrs:id": "427696", "name": "Steak & Co.", "name:en": "Steak & Co.", "outdoor_seating": "no", "smoking": "no", "source:addr": "FHRS Open Data", "website": "http://www.steakand.co.uk/"}}, {"type": "node", "id": 595303504, "lat": 51.5094198, "lon": -0.1322129, "tags": {"addr:city": "London", "addr:housenumber": "25", "addr:street": "Haymarket", "amenity": "restaurant", "brand": "PizzaExpress", "brand:wikidata": "Q662845", "brand:wikipedia": "en:PizzaExpress", "cuisine": "pizza", "fhrs:confidence_management": "5", "fhrs:hygiene": "10", "fhrs:id": "410887", "fhrs:local_authority_id": "00095/0025/1/006", "fhrs:rating": "3", "fhrs:structural": "10", "name": "PizzaExpress", "postal_code": "SW1Y 4EN", "source:addr": "FSA Food Hygiene Ratings Database", "source:postcode": "FSA Food Hygiene Ratings Database", "wheelchair": "yes"}}, {"type": "node", "id": 595303835, "lat": 51.5094715, "lon": -0.1323526, "tags": {"addr:city": "London", "addr:housenumber": "27", "addr:street": "Haymarket", "amenity": "cafe", "brand": "Caff\u00e8 Nero", "brand:wikidata": "Q675808", "brand:wikipedia": "en:Caff\u00e8 Nero", "cuisine": "coffee_shop", "fhrs:confidence_management": "5", "fhrs:hygiene": "5", "fhrs:id": "410889", "fhrs:local_authority_id": "00095/0027/0/000", "fhrs:rating": "4", "fhrs:structural": "10", "internet_access": "wlan", "name": "Caff\u00e8 Nero", "postal_code": "SW1Y 4ES", "source:addr": "FSA Food Hygiene Ratings Database", "source:internet_access": "survey", "source:postcode": "FSA Food Hygiene Ratings Database", "takeaway": "yes"}}, {"type": "node", "id": 595305035, "lat": 51.5083084, "lon": -0.1312982, "tags": {"amenity": "restaurant", "name": "Brumus", "wheelchair": "yes"}}, {"type": "node", "id": 596720641, "lat": 51.5169035, "lon": -0.1275412}, {"type": "node", "id": 600872384, "lat": 51.5135232, "lon": -0.1403537}, {"type": "node", "id": 601701465, "lat": 51.511813, "lon": -0.1285696, "tags": {"addr:city": "London", "addr:housenumber": "47-49", "addr:postcode": "WC2H 0AN", "addr:street": "Charing Cross Road", "amenity": "restaurant", "cuisine": "chinese", "fhrs:confidence_management": "0", "fhrs:hygiene": "0", "fhrs:id": "412015", "fhrs:local_authority_id": "00626/0047/0/001", "fhrs:rating": "4", "fhrs:structural": "10", "name": "Cafe de Hong Kong", "name:en": "Cafe de Hong Kong", "name:zh": "\u9f8d\u8a18", "phone": "+44 20 7534 9898"}}, {"type": "node", "id": 603119981, "lat": 51.5149993, "lon": -0.126687, "tags": {"addr:city": "London", "addr:housenumber": "1", "addr:postcode": "WC2H 9DA", "addr:street": "Monmouth Street", "amenity": "fast_food", "check_date": "2022-06-27", "cuisine": "arab", "diet:vegan": "yes", "fhrs:id": "1214123", "name": "Fafa's", "website": "https://www.fafas.co.uk/", "wheelchair": "limited"}}, {"type": "node", "id": 603120123, "lat": 51.514755, "lon": -0.126982, "tags": {"amenity": "restaurant", "name": "Cafe Pasta"}}, {"type": "node", "id": 603120730, "lat": 51.515332, "lon": -0.126555, "tags": {"amenity": "bar", "name": "Freud", "opening_hours": "Su-We 16:00-00:00; Th 16:00-01:00; Fr-Sa 16:00-03:00", "website": "http://freud.eu/"}}, {"type": "node", "id": 603125899, "lat": 51.512816, "lon": -0.1283947}, {"type": "node", "id": 603126708, "lat": 51.512831, "lon": -0.1285634}, {"type": "node", "id": 603128624, "lat": 51.5114893, "lon": -0.1276746, "tags": {"addr:city": "London", "addr:housenumber": "32", "addr:postcode": "WC2H 7AD", "addr:street": "Cranbourn Street", "amenity": "cafe", "brand": "Caff\u00e8 Nero", "brand:wikidata": "Q675808", "brand:wikipedia": "en:Caff\u00e8 Nero", "cuisine": "coffee_shop", "fhrs:confidence_management": "5", "fhrs:hygiene": "10", "fhrs:id": "428167", "fhrs:local_authority_id": "01652/0032/0/000", "fhrs:rating": "2", "fhrs:structural": "15", "internet_access": "wlan", "name": "Caff\u00e8 Nero", "source:addr": "FSA Food Hygiene Ratings Database", "source:internet_access": "survey", "source:postcode": "FSA Food Hygiene Ratings Database", "takeaway": "yes"}}, {"type": "node", "id": 603128638, "lat": 51.5117889, "lon": -0.1275055, "tags": {"addr:city": "London", "addr:housenumber": "24", "addr:postcode": "WC2H 7AA", "addr:street": "Cranbourn Street", "amenity": "restaurant", "fhrs:confidence_management": "10", "fhrs:hygiene": "5", "fhrs:id": "428166", "fhrs:local_authority_id": "01652/0024/0/000", "fhrs:rating": "3", "fhrs:structural": "10", "name": "Spaghetti House", "payment:american_express": "yes", "source:addr": "FSA Food Hygiene Ratings Database", "source:postcode": "FSA Food Hygiene Ratings Database", "website": "https://www.spaghettihouse.co.uk/"}}, {"type": "node", "id": 612420255, "lat": 51.5138274, "lon": -0.140623}, {"type": "node", "id": 612420256, "lat": 51.5135627, "lon": -0.1403909}, {"type": "node", "id": 612420263, "lat": 51.5127743, "lon": -0.1393751}, {"type": "node", "id": 612420273, "lat": 51.5138539, "lon": -0.139667}, {"type": "node", "id": 612420274, "lat": 51.5141071, "lon": -0.1396176}, {"type": "node", "id": 612523619, "lat": 51.5128385, "lon": -0.1394546}, {"type": "node", "id": 616691936, "lat": 51.5113738, "lon": -0.1320217}, {"type": "node", "id": 616691964, "lat": 51.5121618, "lon": -0.1313365}, {"type": "node", "id": 616691972, "lat": 51.5121679, "lon": -0.1310823}, {"type": "node", "id": 616691978, "lat": 51.5121599, "lon": -0.1298604}, {"type": "node", "id": 616691979, "lat": 51.5118241, "lon": -0.1293751}, {"type": "node", "id": 616691983, "lat": 51.5119536, "lon": -0.1294878}, {"type": "node", "id": 616691986, "lat": 51.5118755, "lon": -0.1285368}, {"type": "node", "id": 616691992, "lat": 51.5121879, "lon": -0.1301562}, {"type": "node", "id": 616692002, "lat": 51.5129466, "lon": -0.1292451}, {"type": "node", "id": 616692004, "lat": 51.5129208, "lon": -0.129188}, {"type": "node", "id": 616692005, "lat": 51.5130155, "lon": -0.1293139}, {"type": "node", "id": 616692006, "lat": 51.5130761, "lon": -0.1292263}, {"type": "node", "id": 616692009, "lat": 51.5129414, "lon": -0.1290976}, {"type": "node", "id": 618688769, "lat": 51.5172685, "lon": -0.1431315}, {"type": "node", "id": 623364287, "lat": 51.5095294, "lon": -0.1378632}, {"type": "node", "id": 623366167, "lat": 51.5098955, "lon": -0.1379192, "tags": {"addr:city": "London", "addr:housenumber": "99-101", "addr:street": "Regent Street", "amenity": "restaurant", "cuisine": "indian", "fhrs:id": "413493", "fhrs:local_authority_id": "01217/0099/1/008", "fhrs:rating": "5", "name": "The Veeraswamy", "postal_code": "W1B 4EZ", "smoking": "no", "source:addr": "FSA Food Hygiene Ratings Database", "source:postcode": "FSA Food Hygiene Ratings Database", "website": "http://www.veeraswamy.com/", "wheelchair": "yes", "wikidata": "Q7918202", "wikipedia": "en:Veeraswamy"}}, {"type": "node", "id": 623372312, "lat": 51.5110083, "lon": -0.1396484, "tags": {"addr:city": "London", "addr:housenumber": "21", "addr:postcode": "W1B 4BG", "addr:street": "Heddon Street", "amenity": "restaurant", "cuisine": "italian", "fhrs:confidence_management": "5", "fhrs:hygiene": "10", "fhrs:id": "412929", "fhrs:local_authority_id": "00982/0021/0/000", "fhrs:rating": "2", "fhrs:structural": "15", "name": "Piccolino", "website": "http://individualrestaurants.com/piccolino/heddon-street-london/"}}, {"type": "node", "id": 623462457, "lat": 51.5150639, "lon": -0.1409769, "tags": {"amenity": "fast_food", "cuisine": "chinese", "name": "Wok to Walk", "old_name": "Canton"}}, {"type": "node", "id": 624037240, "lat": 51.5121629, "lon": -0.1302205, "tags": {"entrance": "main"}}, {"type": "node", "id": 624037673, "lat": 51.5121627, "lon": -0.1298749, "tags": {"entrance": "main"}}, {"type": "node", "id": 624038350, "lat": 51.5120441, "lon": -0.1302129}, {"type": "node", "id": 624040756, "lat": 51.5118098, "lon": -0.1312738, "tags": {"entrance": "main"}}, {"type": "node", "id": 624041676, "lat": 51.5120266, "lon": -0.1314422, "tags": {"entrance": "main"}}, {"type": "node", "id": 624043050, "lat": 51.5119272, "lon": -0.1313646, "tags": {"entrance": "main"}}, {"type": "node", "id": 624043344, "lat": 51.511855, "lon": -0.1313096, "tags": {"addr:city": "London", "addr:country": "GB", "addr:housenumber": "3", "addr:postcode": "W1D 6AU", "addr:street": "Macclesfield Street", "amenity": "cafe", "cuisine": "deserts", "description": "South East Asian themed soft drinks and deserts.", "level": "1", "name": "Candy Cafe", "note": "On first floor. Entrance to stairs is to the left of Leong's Legend.", "phone": "+44 20 7434 4581", "source": "survey; Bing 2012", "source:addr:postcode": "signage", "survey:date": "2014-08-23", "website": "http://www.candycafe.co.uk/"}}, {"type": "node", "id": 624047506, "lat": 51.5114338, "lon": -0.1318745}, {"type": "node", "id": 624049738, "lat": 51.5115779, "lon": -0.1318168, "tags": {"entrance": "main"}}, {"type": "node", "id": 624052552, "lat": 51.5115651, "lon": -0.1319044, "tags": {"addr:city": "London", "addr:housenumber": "22", "addr:postcode": "W1D 6JH", "addr:street": "Gerrard Street", "amenity": "restaurant", "fhrs:confidence_management": "5", "fhrs:hygiene": "10", "fhrs:id": "412645", "fhrs:local_authority_id": "00909/0021/0/000", "fhrs:rating": "4", "fhrs:structural": "5", "name": "Kowloon Restaurant and Bakery", "name:en": "Kowloon Restaurant and Bakery", "name:zh": "\u4e5d\u9f8d\u9152\u6a13", "source:addr": "FSA Food Hygiene Ratings Database", "source:postcode": "FSA Food Hygiene Ratings Database"}}, {"type": "node", "id": 624055411, "lat": 51.5115503, "lon": -0.1323648, "tags": {"amenity": "restaurant", "name": "Gold Mine"}}, {"type": "node", "id": 624056268, "lat": 51.5115006, "lon": -0.1322956, "tags": {"entrance": "main"}}, {"type": "node", "id": 624057907, "lat": 51.5114256, "lon": -0.1322423, "tags": {"entrance": "main"}}, {"type": "node", "id": 624061059, "lat": 51.5119533, "lon": -0.1323731, "tags": {"addr:city": "London", "addr:housenumber": "53", "addr:postcode": "W1D 6LB", "addr:street": "Shaftesbury Avenue", "amenity": "restaurant", "cuisine": "turkish", "email": "info@babaji.com.tr", "name": "Babaji", "opening_hours": "Mo-Th 12:00-23:00; Fr 12:00-23:30; Sa 11:00-23:30; Su 11:00-22:30", "phone": "+44 20 3327 3888", "website": "http://www.babaji.com.tr/everything", "wheelchair": "yes"}}, {"type": "node", "id": 624064568, "lat": 51.5115305, "lon": -0.1331849, "tags": {"addr:housenumber": "33", "addr:street": "Shaftesbury Avenue", "amenity": "restaurant", "brand": "Wasabi", "brand:wikidata": "Q23891278", "brand:wikipedia": "en:Wasabi (restaurant)", "cuisine": "japanese", "diet:vegan": "yes", "name": "Wasabi", "opening_hours": "Mo-Fr 11:30-19:00, Sa-So 12:00-19:00", "opening_hours:url": "https://www.wasabi.uk.com/location/shaftesbury-avenue", "wheelchair": "no"}}, {"type": "node", "id": 624340694, "lat": 51.515863, "lon": -0.131982, "tags": {"amenity": "fast_food", "brand": "EAT.", "brand:wikidata": "Q5331219", "brand:wikipedia": "en:Eat (restaurant)", "cuisine": "sandwich", "fixme": "check position", "name": "EAT.", "takeaway": "yes", "wheelchair": "no"}}, {"type": "node", "id": 635756147, "lat": 51.5250152, "lon": -0.1348982}, {"type": "node", "id": 639111520, "lat": 51.5130653, "lon": -0.1317011}, {"type": "node", "id": 639111707, "lat": 51.5129947, "lon": -0.1315053, "tags": {"addr:city": "London", "addr:housenumber": "29-31", "addr:street": "Old Compton Street", "amenity": "restaurant", "name": "Belgo", "outdoor_seating": "yes", "payment:american_express": "yes", "phone": "+44 20 7437 7284", "postal_code": "W1D 5JS", "source:addr": "FSA Food Hygiene Ratings Database", "source:postcode": "FSA Food Hygiene Ratings Database", "website": "https://www.belgo.com/"}}, {"type": "node", "id": 639112840, "lat": 51.5132127, "lon": -0.1313047}, {"type": "node", "id": 639113854, "lat": 51.5130431, "lon": -0.1313741, "tags": {"addr:city": "London", "addr:housenumber": "27", "addr:street": "Old Compton Street", "amenity": "fast_food", "cuisine": "italian", "fhrs:confidence_management": "10", "fhrs:hygiene": "15", "fhrs:id": "412520", "fhrs:local_authority_id": "00859/0027/3/004", "fhrs:rating": "2", "fhrs:structural": "10", "name": "Pepe", "postal_code": "W1D 5JP", "source:postcode": "FSA Food Hygiene Ratings Database"}}, {"type": "node", "id": 639113933, "lat": 51.5129209, "lon": -0.1317818}, {"type": "node", "id": 639114112, "lat": 51.513184, "lon": -0.13095, "tags": {"addr:city": "London", "addr:housenumber": "23-25", "amenity": "bar", "fhrs:confidence_management": "5", "fhrs:hygiene": "5", "fhrs:id": "412519", "fhrs:local_authority_id": "00859/0023/0/000", "fhrs:rating": "5", "fhrs:structural": "5", "name": "Bar Soho", "outdoor_seating": "no", "postal_code": "W1D 5JL", "source:addr": "FSA Food Hygiene Ratings Database", "source:postcode": "FSA Food Hygiene Ratings Database", "wheelchair": "no"}}, {"type": "node", "id": 639118129, "lat": 51.5138135, "lon": -0.1314824, "tags": {"addr:city": "London", "addr:country": "GB", "addr:housenumber": "14", "addr:postcode": "W1D 4RD", "addr:street": "Frith Street", "amenity": "restaurant", "contact:fax": "+44 20 7734 8722", "contact:phone": "+44 20 7734 9505", "fhrs:confidence_management": "5", "fhrs:hygiene": "5", "fhrs:id": "413652", "fhrs:local_authority_id": "01333/0014/0/002", "fhrs:rating": "2", "fhrs:structural": "15", "name": "Garlic & Shots", "postal_code": "W1D 4RD", "source:postcode": "FSA Food Hygiene Ratings Database", "website": "http://www.garlicandshots.com/"}}, {"type": "node", "id": 639118743, "lat": 51.5137546, "lon": -0.13149}, {"type": "node", "id": 639122288, "lat": 51.5134563, "lon": -0.1312464, "tags": {"addr:city": "London", "addr:housenumber": "21", "addr:postcode": "W1D 4RN", "addr:street": "Frith Street", "amenity": "restaurant", "fhrs:confidence_management": "10", "fhrs:hygiene": "15", "fhrs:id": "413656", "fhrs:local_authority_id": "01333/0021/0/000", "fhrs:rating": "2", "fhrs:structural": "15", "name": "Little Italy", "phone": "+44 20 7734 4737", "website": "http://www.littleitalysoho.co.uk/"}}, {"type": "node", "id": 639128234, "lat": 51.5126897, "lon": -0.1317295}, {"type": "node", "id": 639128481, "lat": 51.5122453, "lon": -0.1316203, "tags": {"entrance": "main"}}, {"type": "node", "id": 639133081, "lat": 51.5129519, "lon": -0.130328}, {"type": "node", "id": 639174357, "lat": 51.5129245, "lon": -0.130943}, {"type": "node", "id": 639174933, "lat": 51.512905, "lon": -0.1311112}, {"type": "node", "id": 639179083, "lat": 51.5098993, "lon": -0.1299056, "tags": {"amenity": "restaurant", "name": "Leicester Square Kitchen", "wheelchair": "yes"}}, {"type": "node", "id": 639179676, "lat": 51.5093722, "lon": -0.1300249, "tags": {"amenity": "restaurant", "name": "Salt'n Pepper"}}, {"type": "node", "id": 639184315, "lat": 51.5089412, "lon": -0.1301099, "tags": {"amenity": "bar", "name": "Gravity"}}, {"type": "node", "id": 639186392, "lat": 51.508181, "lon": -0.13011, "tags": {"amenity": "restaurant", "name": "Jom Makan"}}, {"type": "node", "id": 639201220, "lat": 51.5134523, "lon": -0.1376032}, {"type": "node", "id": 639824142, "lat": 51.5132923, "lon": -0.1361505}, {"type": "node", "id": 654582423, "lat": 51.5234674, "lon": -0.1443598, "tags": {"addr:housenumber": "215-217", "addr:street": "Great Portland Street", "amenity": "restaurant", "cuisine": "pizza", "level": "0", "name": "Pizza Express", "source": "survey", "toilets": "yes", "toilets:wheelchair": "yes", "website": "https://www.pizzaexpress.com/great-portland-street", "wheelchair": "yes"}}, {"type": "node", "id": 655306919, "lat": 51.5109792, "lon": -0.1366971, "tags": {"addr:city": "London", "addr:housenumber": "76", "addr:street": "Brewer Street", "amenity": "restaurant", "cuisine": "japanese", "name": "Kulu Kulu", "website": "http://www.kulukulu.co.uk/", "wheelchair": "no"}}, {"type": "node", "id": 661144729, "lat": 51.5202939, "lon": -0.1425422}, {"type": "node", "id": 661145403, "lat": 51.5179857, "lon": -0.1425493, "tags": {"amenity": "bar", "name": "The Heights"}}, {"type": "node", "id": 661145887, "lat": 51.5160453, "lon": -0.1424573, "tags": {"addr:city": "London", "addr:housenumber": "275", "addr:postcode": "W1B 2HB", "addr:street": "Regent Street", "amenity": "fast_food", "brand": "LEON", "brand:wikidata": "Q6524851", "brand:wikipedia": "en:Leon Restaurants", "cuisine": "burger;sandwich", "diet:gluten_free": "yes", "diet:vegan": "yes", "diet:vegetarian": "yes", "fhrs:confidence_management": "5", "fhrs:hygiene": "0", "fhrs:id": "413501", "fhrs:local_authority_id": "01217/0275/0/000", "fhrs:rating": "4", "fhrs:structural": "10", "indoor_seating": "yes", "name": "LEON", "outdoor_seating": "yes", "source:addr": "FSA Food Hygiene Ratings Database", "source:postcode": "FSA Food Hygiene Ratings Database", "takeaway": "yes"}}, {"type": "node", "id": 661151610, "lat": 51.5085083, "lon": -0.1319658, "tags": {"addr:city": "London", "addr:floor": "Ground Floor West", "addr:housename": "Greener House", "addr:housenumber": "66-68", "addr:postcode": "SW1Y 4RF", "addr:street": "Haymarket", "amenity": "restaurant", "fhrs:id": "410893", "name": "Spaghetti House", "source:addr": "FHRS Open Data", "wheelchair": "no"}}, {"type": "node", "id": 661152752, "lat": 51.5084346, "lon": -0.1321275, "tags": {"addr:city": "London", "addr:housenumber": "15", "addr:postcode": "SW1Y 4QU", "addr:street": "Charles II Street", "amenity": "cafe", "cuisine": "noodle", "fhrs:id": "568272", "name": "The Borough Barista", "source:addr": "FHRS Open Data", "wheelchair": "no"}}, {"type": "node", "id": 661280195, "lat": 51.5176134, "lon": -0.1371513, "tags": {"amenity": "bar", "name": "Long Bar", "postal_code": "W1T 3NG"}}, {"type": "node", "id": 661359184, "lat": 51.5198514, "lon": -0.1342588}, {"type": "node", "id": 664966075, "lat": 51.5195479, "lon": -0.135626, "tags": {"amenity": "cafe", "cuisine": "coffee_shop", "indoor_seating": "yes", "name": "Blank Street Coffee", "outdoor_seating": "yes"}}, {"type": "node", "id": 664966076, "lat": 51.5192821, "lon": -0.1354368}, {"type": "node", "id": 670481683, "lat": 51.5120873, "lon": -0.1297843, "tags": {"entrance": "main"}}, {"type": "node", "id": 670484433, "lat": 51.5123354, "lon": -0.1308778}, {"type": "node", "id": 670639989, "lat": 51.5127511, "lon": -0.1341537}, {"type": "node", "id": 670640309, "lat": 51.5127578, "lon": -0.1339045}, {"type": "node", "id": 670640330, "lat": 51.512934, "lon": -0.1337032}, {"type": "node", "id": 670645052, "lat": 51.5102845, "lon": -0.1315973, "tags": {"addr:city": "London", "addr:housenumber": "39", "addr:postcode": "W1D 6BZ", "addr:street": "Coventry Street", "amenity": "fast_food", "brand": "Pret A Manger", "brand:wikidata": "Q2109109", "brand:wikipedia": "en:Pret a Manger", "cuisine": "sandwich", "fhrs:id": "428070", "name": "Pret A Manger", "name:ja": "\u30d7\u30ec\u30bf\u30fb\u30de\u30f3\u30b8\u30a7", "opening_hours": "Mo-Fr 07:00-17:00", "payment:american_express": "yes", "short_name": "Pret", "source:addr": "FHRS Open Data", "takeaway": "yes"}}, {"type": "node", "id": 670648653, "lat": 51.5095922, "lon": -0.1317508, "tags": {"addr:city": "London", "addr:housenumber": "36", "addr:postcode": "SW1Y 4EA", "addr:street": "Panton Street", "amenity": "pub", "fhrs:id": "411971", "name": "Tom Cribb", "operator": "Shepherd Neame", "phone": "+44 20 7839 3801", "source:addr": "FHRS Open Data", "wheelchair": "yes"}}, {"type": "node", "id": 670648936, "lat": 51.5095696, "lon": -0.1318191, "tags": {"addr:city": "London", "addr:housenumber": "37", "addr:street": "Panton Street", "amenity": "restaurant", "contact:email": "enquiries@woodlandsrestaurant.co.uk", "contact:phone": "+44 20 7839 7258", "cuisine": "indian", "diet:gluten_free": "yes", "diet:vegan": "yes", "diet:vegetarian": "only", "fhrs:confidence_management": "10", "fhrs:hygiene": "10", "fhrs:id": "411972", "fhrs:local_authority_id": "00614/0037/0/001", "fhrs:rating": "3", "fhrs:structural": "10", "name": "Woodlands", "opening_hours:covid19": "closed", "postal_code": "SW1Y 4EA", "source:addr": "FSA Food Hygiene Ratings Database", "source:postcode": "FSA Food Hygiene Ratings Database", "website": "http://www.woodlandsrestaurant.co.uk"}}, {"type": "node", "id": 670649300, "lat": 51.5095463, "lon": -0.1318843, "tags": {"amenity": "restaurant", "name": "Tasting Sicily"}}, {"type": "node", "id": 670649313, "lat": 51.5095096, "lon": -0.1319607, "tags": {"addr:city": "London", "addr:housenumber": "39", "addr:street": "Panton Street", "amenity": "restaurant", "fhrs:confidence_management": "5", "fhrs:hygiene": "5", "fhrs:id": "411974", "fhrs:local_authority_id": "00614/0039/0/000", "fhrs:rating": "4", "fhrs:structural": "10", "name": "Strada", "postal_code": "SW1Y 4EA", "source:addr": "FSA Food Hygiene Ratings Database", "source:postcode": "FSA Food Hygiene Ratings Database"}}, {"type": "node", "id": 675948326, "lat": 51.5091544, "lon": -0.1347572, "tags": {"addr:city": "London", "addr:housenumber": "16-17", "addr:street": "Jermyn Street", "amenity": "restaurant", "cuisine": "italian", "fhrs:confidence_management": "5", "fhrs:hygiene": "5", "fhrs:id": "411548", "fhrs:local_authority_id": "00480/0017/0/000", "fhrs:rating": "4", "fhrs:structural": "10", "name": "Getti", "note": "In part of the Jermyn Street Theatre building", "outdoor_seating": "yes", "payment:american_express": "yes", "phone": "+44 20 7734 7334", "postal_code": "SW1Y 6EE", "source:addr": "FSA Food Hygiene Ratings Database", "source:postcode": "FSA Food Hygiene Ratings Database", "website": "https://www.getti.com/", "wheelchair": "no"}}, {"type": "node", "id": 675962862, "lat": 51.5088543, "lon": -0.1332578, "tags": {"amenity": "restaurant", "name": "Aquavit", "website": "japancentre.com"}}, {"type": "node", "id": 688060582, "lat": 51.5128593, "lon": -0.1381313}, {"type": "node", "id": 688060610, "lat": 51.5133103, "lon": -0.1377789}, {"type": "node", "id": 688060611, "lat": 51.5133248, "lon": -0.1376104}, {"type": "node", "id": 688060639, "lat": 51.5141731, "lon": -0.1393296}, {"type": "node", "id": 688060640, "lat": 51.5140521, "lon": -0.1393521}, {"type": "node", "id": 688060679, "lat": 51.5126098, "lon": -0.1371377}, {"type": "node", "id": 688060699, "lat": 51.5133344, "lon": -0.1365663}, {"type": "node", "id": 691084094, "lat": 51.5158716, "lon": -0.1406567, "tags": {"addr:city": "London", "addr:housenumber": "4", "addr:postcode": "W1W 8QJ", "addr:street": "Great Portland Street", "amenity": "cafe", "brand": "Costa", "brand:wikidata": "Q608845", "brand:wikipedia": "en:Costa Coffee", "cuisine": "coffee_shop", "fhrs:confidence_management": "0", "fhrs:hygiene": "5", "fhrs:id": "411903", "fhrs:local_authority_id": "00603/0004/1/005", "fhrs:rating": "5", "fhrs:structural": "5", "name": "Costa", "opening_hours": "Mo-Fr 06:00-23:00; Sa 07:00-23:00; Su 07:30-21:00", "outdoor_seating": "yes", "source:postcode": "survey", "takeaway": "yes", "website": "https://www.costa.co.uk/", "wheelchair": "no"}}, {"type": "node", "id": 691084104, "lat": 51.5165228, "lon": -0.1412686, "tags": {"addr:city": "London", "addr:housenumber": "23-25", "addr:postcode": "W1W 8QD", "addr:street": "Great Portland Street", "amenity": "cafe", "brand:wikidata": "Q20746208", "name": "Benugo", "opening_hours": "Mo-Fr 07:00-19:00; Sa 09:00-19:00; Su 10:00-18:00", "outdoor_seating": "yes", "phone": "+44 20 7631 5052", "website": "https://www.benugo.com/", "wheelchair": "limited"}}, {"type": "node", "id": 691084120, "lat": 51.5167882, "lon": -0.1410563, "tags": {"addr:city": "London", "addr:housenumber": "26-28", "addr:postcode": "W1W 8QT", "addr:street": "Great Portland Street", "amenity": "restaurant", "contact:website": "http://www.wahaca.co.uk/locations/great-portland-st/", "cuisine": "mexican", "indoor_seating": "yes", "name": "Wahaca (Oxford Circus)", "opening_hours": "Mo-Fr 08:00-23:00; Sa 09:00-23:00; Su 09:00-22:30", "outdoor_seating": "yes", "payment:american_express": "yes", "phone": "+44 20 3002 8784", "wheelchair": "yes"}}, {"type": "node", "id": 691084123, "lat": 51.5175123, "lon": -0.141718, "tags": {"addr:city": "London", "addr:housenumber": "53", "addr:postcode": "W1W 7LG", "addr:street": "Great Portland Street", "amenity": "fast_food", "cuisine": "thai", "drive_through": "no", "fhrs:confidence_management": "10", "fhrs:hygiene": "10", "fhrs:id": "411906", "fhrs:local_authority_id": "00603/0053/0/000", "fhrs:rating": "3", "fhrs:structural": "5", "name": "Grean Thai Grab & Go", "opening_hours": "Mo-Fr 11:00-17:30", "payment:cash": "yes", "payment:coins": "yes", "payment:visa": "yes", "payment:visa_debit": "yes", "postal_code": "W1W 7LF", "source:postcode": "FSA Food Hygiene Ratings Database", "takeaway": "yes"}}, {"type": "node", "id": 691114548, "lat": 51.5182957, "lon": -0.1407038, "tags": {"amenity": "bar", "indoor_seating": "yes", "name": "The Riding House Cafe", "outdoor_seating": "yes"}}, {"type": "node", "id": 691114553, "lat": 51.5182443, "lon": -0.141725, "tags": {"amenity": "cafe", "indoor_seating": "yes", "name": "GT Corner", "outdoor_seating": "yes"}}, {"type": "node", "id": 691114559, "lat": 51.5182097, "lon": -0.141482, "tags": {"addr:housenumber": "14", "addr:street": "Riding House Street", "amenity": "restaurant", "cuisine": "oriental_fusion", "name": "Fusion Food House"}}, {"type": "node", "id": 691582300, "lat": 51.5101631, "lon": -0.1267943}, {"type": "node", "id": 691585431, "lat": 51.5106067, "lon": -0.1270998, "tags": {"addr:city": "London", "addr:housenumber": "95", "addr:street": "St Martin's Lane", "amenity": "cafe", "name": "Abokado", "wheelchair": "no"}}, {"type": "node", "id": 691632516, "lat": 51.5113231, "lon": -0.1281015, "tags": {"amenity": "pub", "indoor_seating": "yes", "name": "Brewmaster", "outdoor_seating": "yes", "wheelchair": "limited"}}, {"type": "node", "id": 691635154, "lat": 51.5109233, "lon": -0.1276968, "tags": {"addr:city": "London", "addr:housenumber": "28-34", "addr:postcode": "WC2N 4AL", "addr:street": "Saint Martin's Court", "amenity": "restaurant", "cuisine": "fish", "fhrs:confidence_management": "5", "fhrs:hygiene": "5", "fhrs:id": "414450", "fhrs:local_authority_id": "01779/0028/0/000", "fhrs:rating": "5", "fhrs:structural": "5", "name": "J. Sheekey", "phone": "+44 20 7240 2565", "website": "https://www.j-sheekey.co.uk/", "wheelchair": "designated"}}, {"type": "node", "id": 691636621, "lat": 51.5109133, "lon": -0.1280618, "tags": {"amenity": "pub", "name": "Round Table", "toilets": "yes", "toilets:access": "customers", "wheelchair": "limited"}}, {"type": "node", "id": 691637963, "lat": 51.511192, "lon": -0.127852, "tags": {"amenity": "cafe", "name": "Cafe Koha", "wheelchair": "limited"}}, {"type": "node", "id": 691719232, "lat": 51.5157185, "lon": -0.1355956}, {"type": "node", "id": 691728906, "lat": 51.5176864, "lon": -0.1368424, "tags": {"addr:city": "London", "addr:housenumber": "21", "addr:street": "Berners Street", "amenity": "restaurant", "cuisine": "italian", "fhrs:confidence_management": "10", "fhrs:hygiene": "10", "fhrs:id": "412332", "fhrs:local_authority_id": "00765/0021/0/002", "fhrs:rating": "2", "fhrs:structural": "15", "name": "IL Sud", "phone": "+44 20 7323 9123", "postal_code": "W1T 3LP", "website": "http://www.ilsud.co.uk/"}}, {"type": "node", "id": 691759506, "lat": 51.5187648, "lon": -0.1357193, "tags": {"addr:city": "London", "addr:housenumber": "33", "addr:postcode": "W1T 1RR", "addr:street": "Charlotte Street", "amenity": "restaurant", "cuisine": "spanish", "name": "Fino", "opening_hours": "Mo-Fr 12:00-14:30,18:00-22:30; Sa 18:00-22:30; Su off", "phone": "+44 20 7813 8010", "postal_code": "W1T 1RR", "website": "http://www.finorestaurant.com/"}}, {"type": "node", "id": 692129363, "lat": 51.5182666, "lon": -0.1405976, "tags": {"amenity": "restaurant", "name": "The Riding House Cafe", "wheelchair": "no"}}, {"type": "node", "id": 692129366, "lat": 51.5181547, "lon": -0.1402859}, {"type": "node", "id": 692129387, "lat": 51.5181203, "lon": -0.1394034}, {"type": "node", "id": 692129403, "lat": 51.5184073, "lon": -0.1399849, "tags": {"addr:city": "London", "addr:housenumber": "52", "addr:postcode": "W1T 3PR", "addr:street": "Wells Street", "amenity": "restaurant", "cuisine": "pizza", "internet_access": "wlan", "name": "Homeslice", "opening_hours": "Mo-Sa 12:00-23:00; Su 12:00-22:00", "phone": "+44 20 3151 9273", "website": "http://www.homeslicepizza.co.uk/", "wheelchair": "yes"}}, {"type": "node", "id": 692190687, "lat": 51.5130372, "lon": -0.131766}, {"type": "node", "id": 692190688, "lat": 51.5130057, "lon": -0.1318284}, {"type": "node", "id": 692190694, "lat": 51.512913, "lon": -0.1321933, "tags": {"addr:housenumber": "52", "addr:street": "Old Compton Street", "name": "Algerian Coffee Stores", "name:en": "Algerian Coffee Stores", "name:zh": "\u963f\u5c14\u53ca\u5229\u4e9a\u5bb6\u5496\u5561\u5e97", "shop": "coffee", "wheelchair": "yes"}}, {"type": "node", "id": 692190788, "lat": 51.5137372, "lon": -0.1299905, "tags": {"addr:city": "London", "addr:housenumber": "12", "addr:postcode": "W1D 4TF", "addr:street": "Old Compton Street", "amenity": "bar", "cuisine": "japanese", "name": "Swift Bar", "opening_hours": "Mo-Th 12:00-22:30; Fr 12:00-22:45; Sa 12:30-22:45; Su 12:30-21:30", "phone": "+44 20 7439 2275", "website": "http://www.tarorestaurants.co.uk", "wheelchair": "no"}}, {"type": "node", "id": 692190815, "lat": 51.5136813, "lon": -0.1301377}, {"type": "node", "id": 692190822, "lat": 51.5137315, "lon": -0.1302738}, {"type": "node", "id": 692190845, "lat": 51.5134583, "lon": -0.1299966}, {"type": "node", "id": 692190852, "lat": 51.5134651, "lon": -0.1301292}, {"type": "node", "id": 692190863, "lat": 51.5137945, "lon": -0.1298458, "tags": {"addr:city": "London", "addr:housenumber": "8", "addr:street": "Old Compton Street", "amenity": "restaurant", "cuisine": "italian", "fhrs:confidence_management": "10", "fhrs:hygiene": "5", "fhrs:id": "412510", "fhrs:local_authority_id": "00859/0008/0/001", "fhrs:rating": "3", "fhrs:structural": "10", "name": "Il Cucciolo", "payment:american_express": "yes", "postal_code": "W1D 4TE", "website": "http://www.piccolodiavolo.co.uk/", "wheelchair": "limited"}}, {"type": "node", "id": 692296635, "lat": 51.5107502, "lon": -0.1282396, "tags": {"entrance": "main"}}, {"type": "node", "id": 693187109, "lat": 51.5092786, "lon": -0.1365251}, {"type": "node", "id": 693189988, "lat": 51.5080614, "lon": -0.131102, "tags": {"amenity": "restaurant", "name": "Mint Leaf", "wheelchair": "yes"}}, {"type": "node", "id": 696546831, "lat": 51.5231618, "lon": -0.1365402, "tags": {"amenity": "restaurant", "cuisine": "japanese", "diet:vegetarian": "yes", "indoor_seating": "yes", "name": "Japanese Canteen", "opening_hours": "Mo-Su 11:30-22:00", "outdoor_seating": "yes", "toilets": "yes", "toilets:access": "customers", "toilets:wheelchair": "no", "wheelchair": "limited"}}, {"type": "node", "id": 696746887, "lat": 51.5223949, "lon": -0.1322463, "tags": {"amenity": "cafe", "name": "Dillons", "toilets:wheelchair": "yes", "wheelchair": "yes", "wheelchair:description": "Toilet located on basement level (Waterstones)."}}, {"type": "node", "id": 698382604, "lat": 51.5229265, "lon": -0.1369819}, {"type": "node", "id": 698382606, "lat": 51.5230157, "lon": -0.1370723}, {"type": "node", "id": 699779195, "lat": 51.5173202, "lon": -0.131229}, {"type": "node", "id": 699779196, "lat": 51.5172681, "lon": -0.1311778}, {"type": "node", "id": 699779199, "lat": 51.5171846, "lon": -0.1317214, "tags": {"addr:city": "London", "addr:housenumber": "8", "addr:postcode": "W1T 1HD", "addr:street": "Hanway Place", "amenity": "restaurant", "cuisine": "cantonese", "name": "Hakkasan", "phone": "+44 20 7927 7000", "takeaway": "no", "website": "https://hakkasan.com/locations/hakkasan-hanway-place/", "wikidata": "Q5640540"}}, {"type": "node", "id": 699782222, "lat": 51.5169132, "lon": -0.1317531, "tags": {"addr:city": "London", "addr:housenumber": "16", "addr:postcode": "W1T 1UE", "addr:street": "Hanway Street", "amenity": "restaurant", "cuisine": "korean", "name": "Han Kang", "phone": "+44 20 7637 1410", "website": "http://www.hankang.co.uk/hankang.html"}}, {"type": "node", "id": 699785451, "lat": 51.5165617, "lon": -0.1330152, "tags": {"addr:city": "London", "addr:housenumber": "3-5", "addr:postcode": "W1T 1HJ", "addr:street": "Rathbone Place", "amenity": "restaurant", "cuisine": "asian", "fhrs:id": "414092", "name": "East Street", "opening_hours": "Mo-Sa 12:00-23:00; Su 12:00-22:00", "phone": "+44 20 7323 0860", "takeaway": "yes", "website": "https://www.eaststreetrestaurant.com/", "wheelchair": "yes"}}, {"type": "node", "id": 699793183, "lat": 51.5171068, "lon": -0.1334785, "tags": {"addr:city": "London", "addr:housenumber": "14", "addr:postcode": "W1T 1HT", "addr:street": "Rathbone Place", "amenity": "fast_food", "brand": "Subway", "brand:wikidata": "Q244457", "brand:wikipedia": "en:Subway (restaurant)", "cuisine": "sandwich", "fhrs:confidence_management": "5", "fhrs:hygiene": "0", "fhrs:id": "414093", "fhrs:local_authority_id": "01522/0014/0/000", "fhrs:rating": "5", "fhrs:structural": "5", "name": "Subway", "opening_hours": "Mo-We 08:00-21:00; Th 08:00-23:00; Fr 08:00-04:00; Sa 10:00-04:00; Su 10:00-05:00", "payment:american_express": "no", "phone": "+44 20 7436 9298", "postal_code": "W1T 1HT", "source:postcode": "FSA Food Hygiene Ratings Database", "takeaway": "yes"}}, {"type": "node", "id": 699796655, "lat": 51.5176113, "lon": -0.1339168, "tags": {"addr:city": "London", "addr:housenumber": "23", "addr:postcode": "W1T 1HZ", "addr:street": "Rathbone Place", "amenity": "cafe", "name": "Pisqu", "opening_hours": "Mo-Fr 07:00-18:00; Sa 08:00-18:00", "outdoor_seating": "yes", "phone": "+44 20 7436 6123", "website": "http://www.russiespressobar.co.uk/", "wheelchair": "no"}}, {"type": "node", "id": 699796657, "lat": 51.5177937, "lon": -0.1341769}, {"type": "node", "id": 699822214, "lat": 51.5178159, "lon": -0.1344133}, {"type": "node", "id": 699848874, "lat": 51.5177299, "lon": -0.134369, "tags": {"addr:city": "London", "addr:housenumber": "31", "addr:postcode": "W1T 1JH", "addr:street": "Rathbone Place", "amenity": "restaurant", "cuisine": "peruvian", "name": "Lima", "opening_hours": "Mo-Sa 12:00-14:30,17:30-22:30; Su off", "phone": "+44 20 3002 2640", "website": "https://www.limalondongroup.com/fitzrovia", "wikidata": "Q15242357"}}, {"type": "node", "id": 701600695, "lat": 51.5137825, "lon": -0.1406352}, {"type": "node", "id": 701600713, "lat": 51.5131542, "lon": -0.1376484}, {"type": "node", "id": 701600714, "lat": 51.5131392, "lon": -0.1375664}, {"type": "node", "id": 701600718, "lat": 51.5132041, "lon": -0.1376888}, {"type": "node", "id": 701600722, "lat": 51.5132986, "lon": -0.1376981}, {"type": "node", "id": 701600723, "lat": 51.5132523, "lon": -0.1376604}, {"type": "node", "id": 701600729, "lat": 51.513355, "lon": -0.1375715}, {"type": "node", "id": 701600735, "lat": 51.513842, "lon": -0.1396567, "tags": {"man_made": "surveillance", "surveillance": "outdoor", "surveillance:type": "camera"}}, {"type": "node", "id": 701600736, "lat": 51.5138925, "lon": -0.1395089}, {"type": "node", "id": 701600737, "lat": 51.5139332, "lon": -0.1395432}, {"type": "node", "id": 701600739, "lat": 51.5139466, "lon": -0.139522}, {"type": "node", "id": 701600740, "lat": 51.5139674, "lon": -0.1395154}, {"type": "node", "id": 701608594, "lat": 51.5124308, "lon": -0.1376177, "tags": {"addr:housenumber": "39", "addr:street": "Beak Street", "amenity": "fast_food", "description": "Smoothies, salads, wraps, sandwiches.", "name": "Pure", "outdoor_seating": "no", "payment:american_express": "yes", "payment:contactless": "yes", "wheelchair": "no"}}, {"type": "node", "id": 701608617, "lat": 51.5132513, "lon": -0.136783, "tags": {"addr:city": "London", "addr:housenumber": "43", "addr:street": "Broadwick Street", "name": "Central Food & Wine", "opening_hours": "Mo-Fr 09:00-23:00; Sa 12:00-23:00; Su 12:00-21:00", "shop": "convenience", "wheelchair": "no"}}, {"type": "node", "id": 701608623, "lat": 51.5141004, "lon": -0.1369301}, {"type": "node", "id": 701608629, "lat": 51.5144648, "lon": -0.1366522}, {"type": "node", "id": 722870084, "lat": 51.511518, "lon": -0.128699}, {"type": "node", "id": 731010520, "lat": 51.5239759, "lon": -0.1376315}, {"type": "node", "id": 731019945, "lat": 51.5234551, "lon": -0.1374074}, {"type": "node", "id": 731026337, "lat": 51.5238697, "lon": -0.1375547, "tags": {"amenity": "atm", "check_date": "2022-02-03", "fee": "no", "opening_hours": "24/7", "operator": "Natwest", "wheelchair": "yes"}}, {"type": "node", "id": 735137634, "lat": 51.5201983, "lon": -0.1363455}, {"type": "node", "id": 735144912, "lat": 51.5191697, "lon": -0.1353216}, {"type": "node", "id": 735144916, "lat": 51.5197267, "lon": -0.1345962}, {"type": "node", "id": 735144933, "lat": 51.5191317, "lon": -0.1349321}, {"type": "node", "id": 735144946, "lat": 51.5185697, "lon": -0.1346954}, {"type": "node", "id": 735146248, "lat": 51.520105, "lon": -0.1362639}, {"type": "node", "id": 735146252, "lat": 51.5203905, "lon": -0.1355431}, {"type": "node", "id": 735146514, "lat": 51.5199164, "lon": -0.1345479}, {"type": "node", "id": 735146515, "lat": 51.5205048, "lon": -0.1351912}, {"type": "node", "id": 735146516, "lat": 51.5207484, "lon": -0.1346461}, {"type": "node", "id": 735148145, "lat": 51.518987, "lon": -0.1336103}, {"type": "node", "id": 735148163, "lat": 51.5197988, "lon": -0.1343948}, {"type": "node", "id": 735149047, "lat": 51.5185167, "lon": -0.1344874}, {"type": "node", "id": 735150116, "lat": 51.5189518, "lon": -0.1363191}, {"type": "node", "id": 735150119, "lat": 51.5188714, "lon": -0.1365044}, {"type": "node", "id": 767557708, "lat": 51.5140532, "lon": -0.1356275}, {"type": "node", "id": 767557710, "lat": 51.5143326, "lon": -0.1367785}, {"type": "node", "id": 767557711, "lat": 51.5149335, "lon": -0.1371639}, {"type": "node", "id": 767557712, "lat": 51.5146943, "lon": -0.1359056, "tags": {"entrance": "main"}}, {"type": "node", "id": 767557714, "lat": 51.5144167, "lon": -0.1368101, "tags": {"entrance": "main"}}, {"type": "node", "id": 767557744, "lat": 51.515493, "lon": -0.1371712}, {"type": "node", "id": 767557747, "lat": 51.5153577, "lon": -0.1364402}, {"type": "node", "id": 767557771, "lat": 51.5151056, "lon": -0.1372857}, {"type": "node", "id": 767557775, "lat": 51.5146398, "lon": -0.1360775}, {"type": "node", "id": 767557777, "lat": 51.5140623, "lon": -0.1356364}, {"type": "node", "id": 767557808, "lat": 51.5145358, "lon": -0.136134}, {"type": "node", "id": 767557816, "lat": 51.5144987, "lon": -0.1368682}, {"type": "node", "id": 767557823, "lat": 51.5141433, "lon": -0.1354558}, {"type": "node", "id": 771982831, "lat": 51.5147494, "lon": -0.1370378, "tags": {"erected_by": "English Heritage", "historic": "memorial", "inscription": "Percy Bysshe Shelley 1792 - 1822 Poet lived here in 1811", "memorial": "blue_plaque", "name": "Percy Bysshe Shelley", "openplaques:id": "580"}}, {"type": "node", "id": 771982836, "lat": 51.5146726, "lon": -0.1369852}, {"type": "node", "id": 771982853, "lat": 51.5147569, "lon": -0.1370429}, {"type": "node", "id": 771982861, "lat": 51.5146691, "lon": -0.135985}, {"type": "node", "id": 771982871, "lat": 51.514793, "lon": -0.135985}, {"type": "node", "id": 771982877, "lat": 51.5145841, "lon": -0.1356608}, {"type": "node", "id": 771982924, "lat": 51.5145413, "lon": -0.1356232}, {"type": "node", "id": 771982956, "lat": 51.5143495, "lon": -0.1356239}, {"type": "node", "id": 771982962, "lat": 51.5140824, "lon": -0.1356511}, {"type": "node", "id": 772092094, "lat": 51.5137372, "lon": -0.1342609}, {"type": "node", "id": 772092098, "lat": 51.5153775, "lon": -0.1363012}, {"type": "node", "id": 772092103, "lat": 51.5148022, "lon": -0.1352672}, {"type": "node", "id": 772092135, "lat": 51.5136667, "lon": -0.1345217}, {"type": "node", "id": 772092141, "lat": 51.515192, "lon": -0.1361571}, {"type": "node", "id": 772092158, "lat": 51.5140298, "lon": -0.1350123}, {"type": "node", "id": 772092180, "lat": 51.5154639, "lon": -0.1363678}, {"type": "node", "id": 787474861, "lat": 51.5164527, "lon": -0.1399882, "tags": {"addr:city": "London", "addr:housenumber": "6", "addr:postcode": "W1W 8AH", "addr:street": "Market Place", "amenity": "restaurant", "brand": "Tortilla", "brand:wikidata": "Q21006828", "brand:wikipedia": "en:Tortilla (restaurant chain)", "cuisine": "tex-mex", "diet:gluten_free": "yes", "diet:vegetarian": "yes", "fhrs:confidence_management": "5", "fhrs:hygiene": "5", "fhrs:id": "411797", "fhrs:local_authority_id": "00560/0006/0/000", "fhrs:rating": "5", "fhrs:structural": "5", "indoor_seating": "yes", "name": "Tortilla", "opening_hours": "Mo-We 11:30-22:00; Th-Sa 11:30-23:00; Su 11:30-21:00", "outdoor_seating": "yes", "phone": "+44 20 7637 2800", "source:addr": "FSA Food Hygiene Ratings Database", "source:postcode": "FSA Food Hygiene Ratings Database", "website": "https://www.tortilla.co.uk/"}}, {"type": "node", "id": 799284554, "lat": 51.5148894, "lon": -0.1372806}, {"type": "node", "id": 799284556, "lat": 51.5153898, "lon": -0.1375934}, {"type": "node", "id": 799284562, "lat": 51.5151243, "lon": -0.1410199, "tags": {"addr:city": "London", "addr:housenumber": "15", "addr:street": "Argyll Street", "amenity": "cafe", "fhrs:confidence_management": "20", "fhrs:hygiene": "5", "fhrs:id": "413210", "fhrs:local_authority_id": "01092/0015/0/000", "fhrs:rating": "1", "fhrs:structural": "10", "name": "FreDeli", "postal_code": "W1F 7TN", "source:addr": "FSA Food Hygiene Ratings Database", "source:postcode": "FSA Food Hygiene Ratings Database"}}, {"type": "node", "id": 799284578, "lat": 51.5155267, "lon": -0.1388947}, {"type": "node", "id": 799284585, "lat": 51.5155725, "lon": -0.1384488}, {"type": "node", "id": 799284593, "lat": 51.5151576, "lon": -0.1412024}, {"type": "node", "id": 799284629, "lat": 51.5150543, "lon": -0.1374074}, {"type": "node", "id": 799284674, "lat": 51.5144327, "lon": -0.1391221, "tags": {"addr:city": "London", "addr:housenumber": "18", "addr:postcode": "W1F 7HU", "addr:street": "Great Marlborough Street", "amenity": "cafe", "brand": "Le Pain Quotidien", "brand:wikidata": "Q2046903", "brand:wikipedia": "en:Le Pain Quotidien", "cuisine": "coffee_shop", "description": "It is an international chain of bakery-restaurants.", "diet:vegan": "yes", "diet:vegetarian": "yes", "fhrs:confidence_management": "5", "fhrs:hygiene": "0", "fhrs:id": "413725", "fhrs:local_authority_id": "01373/0018/0/000", "fhrs:rating": "4", "fhrs:structural": "10", "name": "Le Pain Quotidien", "phone": "+44 20 3657 6948", "source:addr": "FSA Food Hygiene Ratings Database", "source:postcode": "FSA Food Hygiene Ratings Database", "takeaway": "yes", "website": "http://www.lepainquotidien.co.uk/", "wheelchair": "yes"}}, {"type": "node", "id": 799284685, "lat": 51.5152027, "lon": -0.1411897}, {"type": "node", "id": 799284688, "lat": 51.5142412, "lon": -0.140786, "tags": {"addr:housenumber": "30", "addr:street": "Argyll Street", "amenity": "restaurant", "cuisine": "spanish", "description": "5th Floor\n240 Regent Street (Entrance 30 Argyll Street)", "name": "Aqua Nueva", "website": "https://aquanueva.co.uk/experience", "wheelchair": "yes"}}, {"type": "node", "id": 799284696, "lat": 51.5142546, "lon": -0.1396572}, {"type": "node", "id": 799284699, "lat": 51.5143969, "lon": -0.1397898}, {"type": "node", "id": 799284714, "lat": 51.5141827, "lon": -0.1399517}, {"type": "node", "id": 799284723, "lat": 51.5143304, "lon": -0.1395409, "tags": {"addr:city": "London", "addr:housenumber": "19-21", "addr:street": "Great Marlborough Street", "amenity": "restaurant", "fhrs:confidence_management": "5", "fhrs:hygiene": "5", "fhrs:id": "413726", "fhrs:local_authority_id": "01373/0019/5/000", "fhrs:rating": "4", "fhrs:structural": "10", "name": "The Carnaby", "postal_code": "W1F 7HH", "source:addr": "FSA Food Hygiene Ratings Database", "source:postcode": "FSA Food Hygiene Ratings Database", "website": "http://www.courthouse-hotel.com/restaurantsandbars-en.html", "wheelchair": "no", "wikidata": "Q5178513"}}, {"type": "node", "id": 799284727, "lat": 51.5151927, "lon": -0.1412269}, {"type": "node", "id": 799284733, "lat": 51.5156198, "lon": -0.1380258}, {"type": "node", "id": 799284740, "lat": 51.5145317, "lon": -0.1402198}, {"type": "node", "id": 799284749, "lat": 51.5142576, "lon": -0.1396977}, {"type": "node", "id": 799284770, "lat": 51.5151907, "lon": -0.1383933}, {"type": "node", "id": 799284775, "lat": 51.5151676, "lon": -0.1411651}, {"type": "node", "id": 799284785, "lat": 51.5144453, "lon": -0.1405019},