{"version": 0.6, "generator": "Overpass API 0.7.58.5 b0c4acbb", "osm3s": {"timestamp_osm_base": "2022-08-31T18:26:18Z", "copyright": "The data included in this document is from www.openstreetmap.org. The data is made available under ODbL."}, "elements": [{"type": "node", "id": 262250079, "lat": 41.4084645, "lon": 2.2165326}, {"type": "node", "id": 262250080, "lat": 41.4105988, "lon": 2.2184935}, {"type": "node", "id": 262250081, "lat": 41.4109302, "lon": 2.2183476}, {"type": "node", "id": 262250082, "lat": 41.4098599, "lon": 2.2146992}, {"type": "node", "id": 287007603, "lat": 41.4268685, "lon": 2.2101674}, {"type": "node", "id": 420068862, "lat": 41.4049693, "lon": 2.1894182}, {"type": "node", "id": 420068865, "lat": 41.4044103, "lon": 2.1904275}, {"type": "node", "id": 506202703, "lat": 41.3962323, "lon": 2.1890864, "tags": {"addr:street": "Carrer dels Almog\u00e0vers", "amenity": "cafe", "cuisine": "regional", "internet_access": "yes", "internet_access:fee": "no", "name": "Bar Almog\u00e1vares", "opening_hours": "Mo-Fr 07:00-17:00", "opening_hours:covid19": "open", "outdoor_seating": "yes"}}, {"type": "node", "id": 506202705, "lat": 41.3949813, "lon": 2.1916505, "tags": {"addr:housenumber": "36", "addr:street": "Pere IV", "amenity": "restaurant", "description": "Wifi", "name": "La Braser\u00eda", "phone": "+34 931876537", "website": "www.lawebdelabraseria.com"}}, {"type": "node", "id": 506236266, "lat": 41.3934539, "lon": 2.1881434, "tags": {"amenity": "restaurant", "cuisine": "chinese", "name": "Palacio de China"}}, {"type": "node", "id": 506236267, "lat": 41.3932336, "lon": 2.1884994, "tags": {"amenity": "pub", "name": "Bar Nuria"}}, {"type": "node", "id": 589812788, "lat": 41.4264239, "lon": 2.229745, "tags": {"brand": "Alcampo", "brand:wikidata": "Q2832081", "brand:wikipedia": "es:Alcampo", "name": "Alcampo", "operator": "Alcampo", "shop": "supermarket"}}, {"type": "node", "id": 618457670, "lat": 41.4102762, "lon": 2.1982472}, {"type": "node", "id": 618460197, "lat": 41.4127914, "lon": 2.1974089, "tags": {"addr:city": "Barcelona", "addr:housenumber": "178", "addr:postcode": "08020", "addr:street": "Carrer de Bac de Roda", "brand": "Lidl", "brand:wikidata": "Q151954", "brand:wikipedia": "en:Lidl", "check_date:opening_hours": "2022-08-21", "name": "Lidl", "opening_hours": "Mo-Sa 09:00-21:30", "operator": "Lidl", "shop": "supermarket", "source": "http://www.lidl.es/", "toilets:wheelchair": "yes", "website": "https://www.lidl.es/", "wheelchair": "yes"}}, {"type": "node", "id": 618460202, "lat": 41.4124433, "lon": 2.1967739, "tags": {"addr:city": "Barcelona", "addr:housenumber": "58", "addr:postcode": "08018", "addr:street": "Carrer d'Andrade", "brand": "Bonpreu", "brand:wikidata": "Q11924747", "brand:wikipedia": "ca:Grup Bon Preu", "name": "Bonpreu", "opening_hours": "Mo-Sa 09:15-21:15", "opening_hours:covid19": "open", "operator": "Bonpreu", "phone": "+34933070028", "shop": "supermarket", "source": "http://www.bonpreu.cat/establiment.php?idEstabliment=48&idF=3&idSubF=&idIdiomaCap=2", "website": "https://www.bonpreu.cat/"}}, {"type": "node", "id": 618460205, "lat": 41.4119681, "lon": 2.1961625, "tags": {"addr:city": "Barcelona", "addr:housenumber": "46", "addr:street": "Carrer d'Andrade", "brand": "Supercor", "brand:wikidata": "Q6135841", "brand:wikipedia": "es:Supercor", "name": "Supercor", "opening_hours": "Mo-Su 07:00-01:00", "shop": "supermarket", "website": "http://www.supercor.es/supercor/cargarAplicacionCentro.do?identificador=189"}}, {"type": "node", "id": 618460210, "lat": 41.4138911, "lon": 2.2020633, "tags": {"brand": "Condis", "brand:wikidata": "Q57417581", "name": "Condis", "operator": "Condis", "shop": "supermarket"}}, {"type": "node", "id": 660100527, "lat": 41.4046882, "lon": 2.1967694, "tags": {"amenity": "cafe", "cuisine": "spanish", "name": "Rambla Poblenou", "shop": "optician"}}, {"type": "node", "id": 660100529, "lat": 41.404858, "lon": 2.1941868, "tags": {"amenity": "cafe", "name": "El Fornet d'en Rosend"}}, {"type": "node", "id": 660100530, "lat": 41.40537, "lon": 2.1934837, "tags": {"addr:housenumber": "142-144", "addr:postcode": "08018", "addr:street": "C Llacuna", "amenity": "restaurant", "contact:phone": "+34 933007849", "cuisine": "japanese", "name": "Restaurante UN-ZA", "opening_hours": "Mo-Su 13:00-16:00,20:00-23:30"}}, {"type": "node", "id": 660771772, "lat": 41.4035018, "lon": 2.1977649, "tags": {"amenity": "restaurant", "name": "Anormalfood"}}, {"type": "node", "id": 660778318, "lat": 41.403467, "lon": 2.1978397, "tags": {"name": "granel", "shop": "convenience"}}, {"type": "node", "id": 660778771, "lat": 41.402858, "lon": 2.1987158, "tags": {"addr:housenumber": "105", "amenity": "restaurant", "cuisine": "spanish", "name": "braseria xorus"}}, {"type": "node", "id": 660779414, "lat": 41.402675, "lon": 2.1989594, "tags": {"addr:housenumber": "99", "addr:street": "Ramble de Poblenou", "amenity": "bar", "name": "Bar Burgales"}}, {"type": "node", "id": 660784487, "lat": 41.4027269, "lon": 2.1989008, "tags": {"amenity": "restaurant", "name": "La broqueta"}}, {"type": "node", "id": 660784488, "lat": 41.4027071, "lon": 2.1989239, "tags": {"addr:housenumber": "101", "amenity": "restaurant", "cuisine": "indian", "name": "Sitar"}}, {"type": "node", "id": 660784489, "lat": 41.4023418, "lon": 2.1991561, "tags": {"brand": "Mercadona", "brand:wikidata": "Q377705", "brand:wikipedia": "es:Mercadona", "name": "Mercadona", "opening_hours:covid19": "open", "operator": "Mercadona", "shop": "supermarket", "website": "https://www.mercadona.es"}}, {"type": "node", "id": 668476157, "lat": 41.4225659, "lon": 2.2115743, "tags": {"amenity": "restaurant", "name": "Ca la tata"}}, {"type": "node", "id": 698062664, "lat": 41.4130618, "lon": 2.2176703, "tags": {"brand": "Consum", "brand:wikidata": "Q8350308", "brand:wikipedia": "es:Consum", "name": "Consum", "name:ca": "Consum", "operator": "Consum", "shop": "convenience", "website": "https://www.consum.es/"}}, {"type": "node", "id": 765798696, "lat": 41.3879447, "lon": 2.2020882, "tags": {"amenity": "restaurant"}}, {"type": "node", "id": 826085070, "lat": 41.3806017, "lon": 2.1889995, "tags": {"brand": "Caprabo", "brand:wikidata": "Q1980781", "brand:wikipedia": "en:Caprabo", "name": "Caprabo", "shop": "supermarket"}}, {"type": "node", "id": 830462039, "lat": 41.4043015, "lon": 2.1949428, "tags": {"amenity": "cafe", "name": "Cafe Tampa", "smoking": "outside"}}, {"type": "node", "id": 834396327, "lat": 41.4154987, "lon": 2.2296372, "tags": {"addr:city": "Sant Adri\u00e0 de Bas\u00f2s", "addr:place": "Parc de la Pau", "addr:postcode": "08930", "amenity": "restaurant", "contact:email": "info@labarcadadria.com", "contact:phone": "+34 933563085", "contact:phone:2": "+34 639309292", "name": "La Barca d'Adri\u00e0", "nohousenumber": "yes", "website": "https://www.labarcadadria.com/"}}, {"type": "node", "id": 921275061, "lat": 41.4107728, "lon": 2.194425, "tags": {"addr:city": "Barcelona", "addr:housenumber": "22", "addr:postcode": "08018", "addr:street": "Carrer d'Andrade", "brand": "Mercadona", "brand:wikidata": "Q377705", "brand:wikipedia": "es:Mercadona", "name": "Mercadona", "opening_hours": "Mo-Sa 09:15-21:15", "operator": "Mercadona", "phone": "+34 933031314", "shop": "supermarket", "source": "http://www.mercadona.es/corp/esp-html/donde.html", "website": "https://www.mercadona.es"}}, {"type": "node", "id": 1015712307, "lat": 41.3884287, "lon": 2.2011322, "tags": {"addr:housenumber": "7-8-9", "addr:postcode": "08005", "addr:street": "Moll del Gregal", "amenity": "restaurant", "cuisine": "spanish", "name": "La Fonda del Port Olimpic", "opening_hours": "Mo-Su 07:30-01:00", "phone": "+34932212210", "toilets:wheelchair": "yes", "website": "https://lafondadelport.com/menus/", "wheelchair": "yes"}}, {"type": "node", "id": 1154217251, "lat": 41.4060906, "lon": 2.2141094, "tags": {"amenity": "cafe"}}, {"type": "node", "id": 1154217262, "lat": 41.4045883, "lon": 2.2131215, "tags": {"amenity": "cafe"}}, {"type": "node", "id": 1159727140, "lat": 41.4048148, "lon": 2.19663, "tags": {"opening_hours:covid19": "open", "shop": "greengrocer", "takeaway:covid19": "yes"}}, {"type": "node", "id": 1271879449, "lat": 41.4063985, "lon": 2.1959205, "tags": {"addr:city": "Barcelona", "addr:housenumber": "138", "addr:postcode": "08018", "addr:street": "Carrer de Bol\u00edvia", "amenity": "restaurant", "diet:vegan": "yes", "diet:vegetarian": "yes", "name": "Culleres", "phone": "+34 93 51 33 984", "smoking": "no", "website": "http://www.culleres.com/", "wheelchair": "no"}}, {"type": "node", "id": 1307297607, "lat": 41.4047275, "lon": 2.191709}, {"type": "node", "id": 1307297612, "lat": 41.4051187, "lon": 2.193249}, {"type": "node", "id": 1307297613, "lat": 41.4047988, "lon": 2.1919649}, {"type": "node", "id": 1307297614, "lat": 41.4056259, "lon": 2.1927972}, {"type": "node", "id": 1312224402, "lat": 41.3948006, "lon": 2.1940578, "tags": {"amenity": "restaurant", "name": "Mann\u00e0"}}, {"type": "node", "id": 1320935227, "lat": 41.4061799, "lon": 2.1901275, "tags": {"shop": "convenience", "toilets:wheelchair": "no", "wheelchair": "limited"}}, {"type": "node", "id": 1320935231, "lat": 41.4078939, "lon": 2.1888829, "tags": {"addr:country": "ES", "name": "Jaume", "opening_hours": "Mo-Su 06:30-21:00", "shop": "bakery", "wheelchair": "yes"}}, {"type": "node", "id": 1320935232, "lat": 41.4064857, "lon": 2.1904601, "tags": {"addr:country": "ES", "name": "Forn", "shop": "bakery", "wheelchair": "limited"}}, {"type": "node", "id": 1356119783, "lat": 41.3994633, "lon": 2.2069665}, {"type": "node", "id": 1357828862, "lat": 41.4037433, "lon": 2.1938343, "tags": {"amenity": "cafe", "name": "Cafeter\u00eda universitaria", "opening_hours": "Mo-Fr 09:00-19:00"}}, {"type": "node", "id": 1373983099, "lat": 41.3907975, "lon": 2.1970822}, {"type": "node", "id": 1380389623, "lat": 41.3852602, "lon": 2.1892753}, {"type": "node", "id": 1380389687, "lat": 41.3852066, "lon": 2.189107}, {"type": "node", "id": 1380389695, "lat": 41.3849108, "lon": 2.1892744}, {"type": "node", "id": 1380389745, "lat": 41.3849645, "lon": 2.1894427}, {"type": "node", "id": 1419848103, "lat": 41.3805658, "lon": 2.1877114, "tags": {"amenity": "restaurant", "cuisine": "spanish", "name": "La Bombeta"}}, {"type": "node", "id": 1488979953, "lat": 41.3820204, "lon": 2.1942551, "tags": {"amenity": "restaurant", "cuisine": "spanish", "name": "Arenal"}}, {"type": "node", "id": 1497569346, "lat": 41.3890209, "lon": 2.1865838}, {"type": "node", "id": 1497569348, "lat": 41.3890338, "lon": 2.1866325}, {"type": "node", "id": 1497569350, "lat": 41.3890433, "lon": 2.1866683}, {"type": "node", "id": 1497569360, "lat": 41.3890624, "lon": 2.1865643}, {"type": "node", "id": 1497569361, "lat": 41.3890848, "lon": 2.1866488}, {"type": "node", "id": 1595426658, "lat": 41.3818983, "lon": 2.1883192, "tags": {"addr:housenumber": "11", "addr:postcode": "08003", "addr:street": "Pizarro", "name": "Ultramarins Salatiel", "shop": "convenience", "website": "http://guiadigital.barcelonetapladebarris.cat/markets/view/salatiel"}}, {"type": "node", "id": 1595440421, "lat": 41.3816466, "lon": 2.1881927, "tags": {"addr:housenumber": "13", "addr:postcode": "08003", "addr:street": "Ginebra", "amenity": "bar", "name": "Bar Jai-Ca Barceloneta", "website": "http://guiadigital.barcelonetapladebarris.cat/markets/view/bar-jai-ca"}}, {"type": "node", "id": 1596371259, "lat": 41.3820657, "lon": 2.1882839, "tags": {"amenity": "restaurant", "cuisine": "regional", "name": "Restaurant Ca la Montse"}}, {"type": "node", "id": 1596371261, "lat": 41.3820054, "lon": 2.1880447, "tags": {"addr:country": "ES", "name": "Forn de pa Balboa", "shop": "bakery"}}, {"type": "node", "id": 1597672981, "lat": 41.3822852, "lon": 2.188448, "tags": {"brand": "Dia", "brand:wikidata": "Q925132", "brand:wikipedia": "es:DIA (supermercados)", "name": "Dia", "operator": "Distribuidora Internacional de Alimentaci\u00f3n, S.A.", "shop": "supermarket", "website": "https://www.dia.es"}}, {"type": "node", "id": 1597699130, "lat": 41.3803462, "lon": 2.1887534, "tags": {"brand": "Suma", "brand:wikidata": "Q58012362", "name": "Suma", "shop": "supermarket"}}, {"type": "node", "id": 1597701302, "lat": 41.3820067, "lon": 2.1898797, "tags": {"brand": "Condis", "brand:wikidata": "Q57417581", "brand:wikipedia": "ca:Condis", "name": "Condis", "operator": "Condis", "shop": "supermarket"}}, {"type": "node", "id": 1601776148, "lat": 41.4107795, "lon": 2.1883281, "tags": {"brand": "Condis", "brand:wikidata": "Q57417581", "name": "Condis", "opening_hours": "Mo-Fr 08:30-14:00,17:00-20:00", "operator": "Condis", "shop": "supermarket", "toilets:wheelchair": "no", "wheelchair": "limited"}}, {"type": "node", "id": 1623587489, "lat": 41.4140368, "lon": 2.18928, "tags": {"access:covid19": "yes", "brand": "Bonpreu", "brand:wikidata": "Q11924747", "brand:wikipedia": "ca:Grup Bon Preu", "name": "Bonpreu", "opening_hours:covid19": "open", "shop": "supermarket"}}, {"type": "node", "id": 1636663559, "lat": 41.4000046, "lon": 2.20645, "tags": {"addr:housename": "Puerto Hurrako", "addr:housenumber": "76", "addr:postcode": "08005", "addr:street": "Taulat", "amenity": "pub", "name": "Puerto Hurrako"}}, {"type": "node", "id": 1640963945, "lat": 41.3808197, "lon": 2.1889159, "tags": {"addr:city": "Barcelona", "addr:housenumber": "17", "addr:postcode": "08003", "addr:street": "Carrer de la Maquinista", "amenity": "restaurant", "check_date": "2022-05-28", "cuisine": "regional;fish;seafood;mediterranean", "internet_access": "no", "name": "Can Ramonet", "payment:mastercard": "yes", "payment:visa": "yes", "phone": "+34 933 19 30 64", "website": "https://www.elnouramonet.com/", "wheelchair": "yes"}}, {"type": "node", "id": 1658424921, "lat": 41.3972738, "lon": 2.1884132, "tags": {"amenity": "fast_food", "name": "Forastera"}}, {"type": "node", "id": 1658425572, "lat": 41.3967185, "lon": 2.1890325, "tags": {"addr:city": "Barcelona", "addr:postcode": "08018", "addr:street": "Carrer de Zamora", "amenity": "cafe", "cuisine": "regional", "internet_access": "yes", "internet_access:fee": "no", "name": "Rebeka", "opening_hours": "Mo-Fr 08:00-17:00", "opening_hours:covid19": "open", "outdoor_seating": "yes"}}, {"type": "node", "id": 1710746453, "lat": 41.4061304, "lon": 2.2109384, "tags": {"addr:housenumber": "335", "addr:street": "Carrer de Ramon Turr\u00f3", "brand": "Mercadona", "brand:wikidata": "Q377705", "brand:wikipedia": "es:Mercadona", "name": "Mercadona", "opening_hours": "Mo-Sa 09:00-21:30", "phone": "+34 933082042", "shop": "supermarket", "website": "https://www.mercadona.es"}}, {"type": "node", "id": 1710746461, "lat": 41.4064398, "lon": 2.2101589, "tags": {"addr:housenumber": "22 C", "addr:street": "Carrer de Proven\u00e7als", "brand": "Mercadona", "brand:wikidata": "Q377705", "brand:wikipedia": "es:Mercadona", "name": "Mercadona", "opening_hours": "Mo-Sa 09:00-21:30", "phone": "+34 933082042", "shop": "supermarket", "website": "https://www.mercadona.es"}}, {"type": "node", "id": 1711181312, "lat": 41.4054874, "lon": 2.2129348, "tags": {"amenity": "cafe"}}, {"type": "node", "id": 1711181318, "lat": 41.4049072, "lon": 2.2135678, "tags": {"amenity": "cafe"}}, {"type": "node", "id": 1711181339, "lat": 41.4052615, "lon": 2.2126526, "tags": {"amenity": "cafe"}}, {"type": "node", "id": 1744470937, "lat": 41.4233646, "lon": 2.2058869, "tags": {"shop": "kiosk"}}, {"type": "node", "id": 1748629917, "lat": 41.4098965, "lon": 2.2146718}, {"type": "node", "id": 1748629930, "lat": 41.4099227, "lon": 2.2146589}, {"type": "node", "id": 1748629960, "lat": 41.4099565, "lon": 2.2146594}, {"type": "node", "id": 1748629986, "lat": 41.4099876, "lon": 2.2146775}, {"type": "node", "id": 1748629995, "lat": 41.410025, "lon": 2.2147281}, {"type": "node", "id": 1766512556, "lat": 41.4140488, "lon": 2.199303, "tags": {"amenity": "bar"}}, {"type": "node", "id": 1766512564, "lat": 41.4145455, "lon": 2.1998787, "tags": {"amenity": "pub"}}, {"type": "node", "id": 1792080688, "lat": 41.3863503, "lon": 2.188721, "tags": {"amenity": "food_court", "name": "Espai Grill", "wheelchair": "yes"}}, {"type": "node", "id": 1792094615, "lat": 41.3857808, "lon": 2.1879271, "tags": {"shop": "kiosk"}}, {"type": "node", "id": 1793491013, "lat": 41.386379, "lon": 2.1914173, "tags": {"amenity": "food_court", "name": "Terrari"}}, {"type": "node", "id": 1878684095, "lat": 41.3909279, "lon": 2.1978477, "tags": {"amenity": "fast_food"}}, {"type": "node", "id": 1878684097, "lat": 41.3907428, "lon": 2.1979509, "tags": {"addr:housenumber": "168", "addr:postcode": "08005", "addr:street": "Avinguda d'Ic\u00e0ria", "amenity": "restaurant", "branch": "Vila Ol\u00edmpica", "cuisine": "syrian", "name": "Ugarit", "phone": "+34932212328", "reservation": "yes", "website": "ugarit.es"}}, {"type": "node", "id": 1878684101, "lat": 41.390451, "lon": 2.1981964, "tags": {"amenity": "cafe", "cuisine": "crepe;ice_cream;grill;pizza;spanish", "internet_access": "wlan", "name": "George\u2018s Bar y Cafet\u00e9ria", "name:ca": "George\u2018s Bar i Cafeter\u00eda", "name:de": "George\u2018s Bar und Cafeteria", "name:en": "George\u2018s Bar and Cafeteria"}}, {"type": "node", "id": 1934456468, "lat": 41.4003905, "lon": 2.2039006, "tags": {"brand": "Bon Area", "brand:wikidata": "Q11924743", "brand:wikipedia": "ca:Grup Alimentari Guissona", "name": "Bon Area", "shop": "supermarket"}}, {"type": "node", "id": 1934456516, "lat": 41.4066798, "lon": 2.2075637, "tags": {"addr:country": "ES", "name": "El fornet de Can Rom\u00e0", "shop": "bakery"}}, {"type": "node", "id": 1934456567, "lat": 41.4000539, "lon": 2.2028611, "tags": {"addr:city": "Barcelona", "addr:housenumber": "44", "addr:street": "Rambla del Poblenou", "amenity": "ice_cream", "name": "Horchateria El Tio Che", "outdoor_seating": "yes", "phone": "+34 933091872", "smoking": "outside", "website": "https://eltioche.es/"}}, {"type": "node", "id": 1936543098, "lat": 41.4100668, "lon": 2.2174327, "tags": {"amenity": "fast_food", "brand": "Pollo Campero", "brand:wikidata": "Q942741", "brand:wikipedia": "en:Pollo Campero", "cuisine": "chicken", "name": "Pollo Campero", "takeaway": "yes"}}, {"type": "node", "id": 1948986220, "lat": 41.3900298, "lon": 2.1901118, "tags": {"addr:city": "Barcelona", "addr:country": "ES", "addr:postcode": "08005", "addr:state": "Catalonia", "amenity": "cafe", "internet_access": "wlan", "name": "Cafeteria UPF Jaume I", "outdoor_seating": "yes", "smoking": "outside", "takeaway": "yes"}}, {"type": "node", "id": 1948987514, "lat": 41.3886776, "lon": 2.1915119, "tags": {"amenity": "cafe", "cuisine": "spanish", "internet_access": "wlan", "name": "Cafeteria UPF Roger de Lluria", "outdoor_seating": "no", "smoking": "no", "takeaway": "yes"}}, {"type": "node", "id": 2065469521, "lat": 41.4035591, "lon": 2.2028602, "tags": {"amenity": "cafe", "name": "El Forn del Metro"}}, {"type": "node", "id": 2065469522, "lat": 41.3997461, "lon": 2.2003004, "tags": {"addr:housenumber": "159", "addr:street": "Carrer de Llull", "amenity": "pub", "name": "Restaurant Pipa", "opening_hours": "Mo-Su 12:30-00:00"}}, {"type": "node", "id": 2075453725, "lat": 41.4012569, "lon": 2.1966826, "tags": {"addr:housenumber": "92", "addr:street": "Carrer Roc Boronat", "amenity": "restaurant", "cuisine": "spanish", "name": "La Mossegada del Poblenou", "smoking": "outside"}}, {"type": "node", "id": 2085656651, "lat": 41.4027075, "lon": 2.1977649, "tags": {"addr:city": "Barcelona", "addr:housenumber": "178", "addr:postcode": "08005", "addr:street": "Carrer de Pere IV", "amenity": "restaurant", "cuisine": "japanese", "name": "Arce", "phone": "+34 93 309 86 75"}}, {"type": "node", "id": 2085656653, "lat": 41.3814709, "lon": 2.1871028, "tags": {"addr:city": "Barcelona", "amenity": "fast_food", "brand": "Burger King", "brand:wikidata": "Q177054", "brand:wikipedia": "es:Burger King", "cuisine": "burger", "diet:vegetarian": "no", "name": "Burger King", "takeaway": "yes"}}, {"type": "node", "id": 2085728733, "lat": 41.3906905, "lon": 2.1983305, "tags": {"amenity": "bar", "name": "Bamb\u00fa Beach Bar"}}, {"type": "node", "id": 2085728735, "lat": 41.3907048, "lon": 2.1982582}, {"type": "node", "id": 2085728742, "lat": 41.3908168, "lon": 2.1981109}, {"type": "node", "id": 2085728744, "lat": 41.3914678, "lon": 2.1978637}, {"type": "node", "id": 2085728748, "lat": 41.390671, "lon": 2.1979155}, {"type": "node", "id": 2085728755, "lat": 41.3906405, "lon": 2.1976416}, {"type": "node", "id": 2085728758, "lat": 41.390559, "lon": 2.1980628}, {"type": "node", "id": 2085728772, "lat": 41.3909954, "lon": 2.1984849}, {"type": "node", "id": 2085728816, "lat": 41.3905416, "lon": 2.1980998, "tags": {"amenity": "pub"}}, {"type": "node", "id": 2085728826, "lat": 41.3909278, "lon": 2.1982595}, {"type": "node", "id": 2085728828, "lat": 41.3907288, "lon": 2.1975257}, {"type": "node", "id": 2085728840, "lat": 41.39056, "lon": 2.1977668}, {"type": "node", "id": 2085728841, "lat": 41.3905985, "lon": 2.1973215}, {"type": "node", "id": 2085728872, "lat": 41.390875, "lon": 2.198329}, {"type": "node", "id": 2085728878, "lat": 41.3915034, "lon": 2.1980784, "tags": {"amenity": "cafe"}}, {"type": "node", "id": 2085728937, "lat": 41.390608, "lon": 2.1977378, "tags": {"addr:housenumber": "160", "addr:street": "Avinguda d'Ic\u00e0ria", "brand": "Consum", "brand:wikidata": "Q8350308", "brand:wikipedia": "es:Consum", "name": "Consum", "operator": "Consum", "shop": "supermarket", "website": "https://www.consum.es/"}}, {"type": "node", "id": 2085902132, "lat": 41.3910559, "lon": 2.1909419, "tags": {"addr:housenumber": "13", "addr:postcode": "08005", "addr:street": "Ram\u00f3n Turr\u00f3", "amenity": "restaurant", "cuisine": "chicken", "name": "Els 'Pollos' de Llull", "website": "https://www.elspollos.com/"}}, {"type": "node", "id": 2085902146, "lat": 41.3915206, "lon": 2.1907387, "tags": {"addr:city": "Barcelona", "addr:housenumber": "63", "addr:postcode": "08005", "addr:street": "Carrer de la Marina", "name": "Sorli Discau", "opening_hours:covid19": "open", "phone": "+34 935610361", "shop": "supermarket"}}, {"type": "node", "id": 2085902179, "lat": 41.3916312, "lon": 2.1916493, "tags": {"addr:housenumber": "19", "addr:postcode": "08005", "addr:street": "Ram\u00f3n Turr\u00f3", "amenity": "restaurant", "name": "Brasseria La Collita", "website": "http://www.letseat.at/lacollita"}}, {"type": "node", "id": 2085902181, "lat": 41.3919204, "lon": 2.1895606, "tags": {"brand": "Caprabo", "brand:wikidata": "Q1980781", "brand:wikipedia": "en:Caprabo", "name": "Caprabo", "shop": "supermarket"}}, {"type": "node", "id": 2131130872, "lat": 41.3886578, "lon": 2.2011064, "tags": {"amenity": "restaurant", "cuisine": "spanish", "name": "El Tunel del Port"}}, {"type": "node", "id": 2158865607, "lat": 41.399043, "lon": 2.1884309, "tags": {"addr:housenumber": "22", "addr:street": "Carrer de T\u00e0nger", "amenity": "cafe", "contact:phone": "+34 933 09 33 75", "contact:website": "http://www.carrotcafe.es/", "name": "Carrot Caf\u00e9", "name:ca": "Carrot caf\u00e9", "name:en": "Carrot caf\u00e9", "name:es": "Carrot caf\u00e9"}}, {"type": "node", "id": 2170715420, "lat": 41.4096259, "lon": 2.2159064, "tags": {"addr:floor": "3", "addr:place": "Local 3450", "amenity": "fast_food", "contact:phone": "+34 933560305", "cuisine": "german", "level": "3", "name": "Kurz & Gut", "operator": "Kurz & Gut"}}, {"type": "node", "id": 2170756627, "lat": 41.4093938, "lon": 2.2163433, "tags": {"amenity": "fast_food", "brand": "McDonald's", "brand:wikidata": "Q38076", "brand:wikipedia": "es:McDonald's", "cuisine": "burger", "name": "McDonald's", "opening_hours": "Mo-Th 09:30-23:30; Fr 09:30-24:00; Sa 00:00-00:30,09:30-24:00; Su 00:00-01:00,11:00-23:30", "operator": "McDonald's", "phone": "+34 933560410"}}, {"type": "node", "id": 2170756632, "lat": 41.4091988, "lon": 2.2163067, "tags": {"amenity": "fast_food", "cuisine": "sandwich", "name": "Viena", "opening_hours": "Mo-Fr 09:00-24:00; Sa 00:00-01:00,09:00-24:00; Su 00:00-01:00,10:00-24:00", "operator": "Viena", "phone": "+34 933562359"}}, {"type": "node", "id": 2187210264, "lat": 41.4023416, "lon": 2.1952788, "tags": {"addr:city": "Barcelona", "addr:housenumber": "114", "addr:postcode": "08018", "addr:street": "Carrer de Roc Boronat", "amenity": "restaurant", "cuisine": "mediterranean", "diet:vegan": "no", "diet:vegetarian": "only", "name": "Sopa", "organic": "only", "phone": "+34 933 09 56 76", "smoking": "outside", "takeaway": "yes", "website": "http://www.sopa.vg/"}}, {"type": "node", "id": 2187257123, "lat": 41.4047259, "lon": 2.1943414, "tags": {"amenity": "bar", "name": "24 mm"}}, {"type": "node", "id": 2187259019, "lat": 41.404967, "lon": 2.1945963, "tags": {"addr:city": "Barcelona", "addr:housenumber": "173", "addr:street": "Avinguda Diagonal", "amenity": "restaurant", "cuisine": "japanese", "name": "Nanaya", "phone": "+34 933008401", "smoking": "no", "source": "http://nanaya.es/", "website": "http://nanaya.es/"}}, {"type": "node", "id": 2187270200, "lat": 41.4055941, "lon": 2.1932194, "tags": {"addr:city": "Barcelona", "addr:housenumber": "150", "addr:postcode": "08018", "addr:street": "Carrer de la Llacuna", "amenity": "restaurant", "cuisine": "italian", "name": "FRATELLI LA BUFALA", "opening_hours": "\"local cerrado\"", "website": "http://www.fratellilabufala.eu"}}, {"type": "node", "id": 2187275712, "lat": 41.4061323, "lon": 2.1909641}, {"type": "node", "id": 2187282137, "lat": 41.4017897, "lon": 2.196068, "tags": {"addr:city": "Barcelona", "addr:housenumber": "211", "addr:postcode": "08018", "addr:street": "Carrer dels Almog\u00e0vers", "amenity": "restaurant", "cuisine": "spanish", "name": "El Catacroquet", "phone": "+34932809059", "website": "http://catacroquet.es/"}}, {"type": "node", "id": 2188278126, "lat": 41.4065634, "lon": 2.1938272, "tags": {"addr:housenumber": "153", "addr:postcode": "08018", "addr:street": "Rambla del Poblenou", "amenity": "restaurant", "cuisine": "japanese", "name": "Restaurante Huang Qingfang", "name:ca": "Yoshinoya-8", "name:en": "Yoshinoya-8", "name:es": "Yoshinoya-8"}}, {"type": "node", "id": 2189959511, "lat": 41.4053062, "lon": 2.1939024, "tags": {"amenity": "restaurant", "name": "Frankfurt Diagonal", "wheelchair": "limited"}}, {"type": "node", "id": 2192226738, "lat": 41.4034935, "lon": 2.1960697, "tags": {"amenity": "restaurant", "cuisine": "pizza", "name": "L'Aldil\u00e0"}}, {"type": "node", "id": 2193095290, "lat": 41.4054932, "lon": 2.1943451, "tags": {"amenity": "fast_food", "cuisine": "kebab", "name": "El rinc\u00f3n de Glorias"}}, {"type": "node", "id": 2193095298, "lat": 41.4055556, "lon": 2.194455, "tags": {"amenity": "cafe", "cuisine": "spanish", "name": "El Duende"}}, {"type": "node", "id": 2193095318, "lat": 41.4043344, "lon": 2.1967134, "tags": {"amenity": "restaurant", "name": "Can Pizza"}}, {"type": "node", "id": 2193095338, "lat": 41.40326, "lon": 2.1985353, "tags": {"addr:housenumber": "118", "addr:street": "Rambla de Poblenou", "amenity": "bar", "name": "Saint Pol"}}, {"type": "node", "id": 2193095358, "lat": 41.4055677, "lon": 2.1949217, "tags": {"shop": "kiosk"}}, {"type": "node", "id": 2193095377, "lat": 41.4049762, "lon": 2.1976093, "tags": {"amenity": "cafe", "cuisine": "coffee_shop", "name": "Sant Mart\u00ed"}}, {"type": "node", "id": 2193095381, "lat": 41.4058392, "lon": 2.1946428, "tags": {"name": "Keisy", "operator": "Keisy", "shop": "supermarket"}}, {"type": "node", "id": 2193095391, "lat": 41.4036263, "lon": 2.1981913, "tags": {"amenity": "restaurant", "cuisine": "sandwich", "name": "Espress a T\u00e9"}}, {"type": "node", "id": 2193095406, "lat": 41.4042962, "lon": 2.1981726, "tags": {"amenity": "cafe", "cuisine": "spanish", "name": "Hmm que rico"}}, {"type": "node", "id": 2193095414, "lat": 41.402733, "lon": 2.1969736, "tags": {"addr:city": "Barcelona", "addr:street": "Carrer de la Llacuna", "amenity": "restaurant", "cuisine": "spanish", "name": "Braseria Julian"}}, {"type": "node", "id": 2193095435, "lat": 41.4026626, "lon": 2.1971936, "tags": {"addr:city": "Barcelona", "amenity": "restaurant", "cuisine": "spanish", "name": "Llacuna"}}, {"type": "node", "id": 2193095440, "lat": 41.4027631, "lon": 2.1988499, "tags": {"addr:housenumber": "103", "addr:street": "Ramble de Poblenou", "amenity": "restaurant", "cuisine": "turkish", "name": "Hitit"}}, {"type": "node", "id": 2193389549, "lat": 41.4021933, "lon": 2.1993724, "tags": {"amenity": "restaurant", "name": "L'altre Romero"}}, {"type": "node", "id": 2193391405, "lat": 41.4045879, "lon": 2.1958203, "tags": {"amenity": "restaurant", "cuisine": "sushi", "name": "3E sushi"}}, {"type": "node", "id": 2193415475, "lat": 41.4035357, "lon": 2.1962709, "tags": {"amenity": "restaurant", "cuisine": "spanish"}}, {"type": "node", "id": 2193421646, "lat": 41.405634, "lon": 2.1917031, "tags": {"brand": "Carrefour", "brand:wikidata": "Q217599", "brand:wikipedia": "fr:Carrefour (enseigne)", "name": "Carrefour", "shop": "supermarket", "toilets:wheelchair": "yes", "wheelchair": "yes"}}, {"type": "node", "id": 2193421652, "lat": 41.405107, "lon": 2.1919659, "tags": {"amenity": "fast_food", "brand": "Burger King", "brand:wikidata": "Q177054", "brand:wikipedia": "es:Burger King", "cuisine": "burger", "name": "Burger King", "opening_hours": "Su-Th 11:00-24:00; Fr,Sa 11:00-01:00", "takeaway": "yes", "toilets:wheelchair": "yes", "wheelchair": "yes"}}, {"type": "node", "id": 2197824500, "lat": 41.4016702, "lon": 2.2016399, "tags": {"amenity": "bar", "name": "Serrano"}}, {"type": "node", "id": 2197837743, "lat": 41.4018412, "lon": 2.2007225, "tags": {"name": "Cruixent", "shop": "bakery"}}, {"type": "node", "id": 2197837768, "lat": 41.4019136, "lon": 2.2008137, "tags": {"name": "El manduxot", "shop": "greengrocer"}}, {"type": "node", "id": 2239890971, "lat": 41.3855314, "lon": 2.1854577, "tags": {"addr:housenumber": "27", "addr:postcode": "08003", "addr:street": "Avinguda Marqu\u00e9s de l'Argentera", "amenity": "restaurant", "cuisine": "greek", "name": "Dionisos Borne", "phone": "+34 2682472", "website": "www.dionisos-bcn.com"}}, {"type": "node", "id": 2268659507, "lat": 41.3926063, "lon": 2.2037697, "tags": {"addr:city": "Barcelona", "addr:postcode": "08005", "amenity": "fast_food", "brand": "McDonald's", "brand:wikidata": "Q38076", "brand:wikipedia": "es:McDonald's", "cuisine": "burger", "name": "McDonald's", "takeaway": "yes"}}, {"type": "node", "id": 2268684579, "lat": 41.3923752, "lon": 2.2046628}, {"type": "node", "id": 2268684582, "lat": 41.392393, "lon": 2.204605}, {"type": "node", "id": 2268684586, "lat": 41.3924002, "lon": 2.2046112}, {"type": "node", "id": 2268684590, "lat": 41.3924441, "lon": 2.2045173}, {"type": "node", "id": 2268684600, "lat": 41.3925583, "lon": 2.2048205}, {"type": "node", "id": 2268684609, "lat": 41.3925806, "lon": 2.2047744}, {"type": "node", "id": 2268684613, "lat": 41.3926088, "lon": 2.2047987}, {"type": "node", "id": 2268684621, "lat": 41.3934119, "lon": 2.2053549}, {"type": "node", "id": 2268684638, "lat": 41.3936125, "lon": 2.2053013}, {"type": "node", "id": 2268684641, "lat": 41.3936167, "lon": 2.2054697}, {"type": "node", "id": 2268684643, "lat": 41.3936322, "lon": 2.2054279}, {"type": "node", "id": 2268684646, "lat": 41.3936621, "lon": 2.2054417}, {"type": "node", "id": 2268684653, "lat": 41.3944695, "lon": 2.2061941}, {"type": "node", "id": 2268684659, "lat": 41.394543, "lon": 2.2060818}, {"type": "node", "id": 2268684662, "lat": 41.3945995, "lon": 2.2063455}, {"type": "node", "id": 2268684664, "lat": 41.3946121, "lon": 2.2063263}, {"type": "node", "id": 2268684665, "lat": 41.3946469, "lon": 2.2063667}, {"type": "node", "id": 2268684668, "lat": 41.3946593, "lon": 2.2063478}, {"type": "node", "id": 2268684670, "lat": 41.3946839, "lon": 2.2063765}, {"type": "node", "id": 2292687549, "lat": 41.395911, "lon": 2.190529}, {"type": "node", "id": 2308130199, "lat": 41.3811461, "lon": 2.1884306, "tags": {"addr:housenumber": "12", "addr:street": "Carrer de Baluard", "amenity": "restaurant", "cuisine": "spanish", "name": "Can Ma\u00f1o"}}, {"type": "node", "id": 2360847335, "lat": 41.3808944, "lon": 2.1861911, "tags": {"amenity": "pub", "name": "Le Kasbah"}}, {"type": "node", "id": 2364075420, "lat": 41.3877417, "lon": 2.1978982, "tags": {"addr:housenumber": "16", "addr:street": "Carrer de la Marina", "amenity": "restaurant", "contact:email": "restaurantepatopekin@gmail.es", "contact:fax": "+34 932254939", "contact:phone": "+34 932254111", "contact:website": "www.patopekin.es", "cuisine": "chinese", "name": "Pato Pek\u00edn"}}, {"type": "node", "id": 2400689820, "lat": 41.4006365, "lon": 2.1961225, "tags": {"addr:city": "Barcelona", "addr:housenumber": "132", "addr:postcode": "08005", "addr:street": "Carrer de Pere IV", "amenity": "restaurant", "cuisine": "international", "name": "L\u00facuma", "phone": "+34 933569310", "smoking": "outside", "takeaway": "yes"}}, {"type": "node", "id": 2402571530, "lat": 41.4148588, "lon": 2.1946058, "tags": {"addr:city": "Barcelona", "amenity": "bar", "name": "El Manolo", "opening_hours": "Mo-Fr 07:00-01:00; Sa,Su,PH 08:00-02:30", "smoking": "outside", "wheelchair": "yes"}}, {"type": "node", "id": 2402571531, "lat": 41.4140502, "lon": 2.1955594, "tags": {"shop": "kiosk"}}, {"type": "node", "id": 2402571533, "lat": 41.4133402, "lon": 2.1951346, "tags": {"addr:city": "Barcelona", "addr:country": "ES", "addr:housenumber": "77", "addr:postcode": "08018", "addr:street": "Carrer del Concili de Trento", "name": "Iaia'Nita", "shop": "bakery"}}, {"type": "node", "id": 2408482659, "lat": 41.402164, "lon": 2.193314, "tags": {"addr:city": "Barcelona", "addr:street": "Carrer Ciutat de Granada", "amenity": "restaurant", "cuisine": "spanish", "name": "Quinabarra", "opening_hours": "Mo-Fr 08:00-17:00", "smoking": "no"}}, {"type": "node", "id": 2430077720, "lat": 41.4180731, "lon": 2.1895967, "tags": {"brand": "Caprabo", "brand:wikidata": "Q1980781", "brand:wikipedia": "en:Caprabo", "name": "Caprabo", "shop": "supermarket"}}, {"type": "node", "id": 2465943679, "lat": 41.3895216, "lon": 2.1954414, "tags": {"name": "Max Supermercat", "shop": "supermarket"}}, {"type": "node", "id": 2472889647, "lat": 41.4173464, "lon": 2.1890428, "tags": {"brand": "Caprabo", "brand:wikidata": "Q1980781", "brand:wikipedia": "en:Caprabo", "name": "Caprabo", "shop": "supermarket"}}, {"type": "node", "id": 2474421355, "lat": 41.4043967, "lon": 2.2145604, "tags": {"amenity": "restaurant", "cuisine": "italian", "name": "Pizza Marbella"}}, {"type": "node", "id": 2491595166, "lat": 41.3932368, "lon": 2.1936985, "tags": {"addr:country": "ES", "name": "La Torrada", "shop": "bakery"}}, {"type": "node", "id": 2491595168, "lat": 41.391953, "lon": 2.190032, "tags": {"delivery:covid19": "yes", "opening_hours:covid19": "open", "shop": "greengrocer"}}, {"type": "node", "id": 2502038301, "lat": 41.392798, "lon": 2.1884594, "tags": {"brand": "Lidl", "brand:wikidata": "Q151954", "brand:wikipedia": "en:Lidl", "internet_access": "wlan", "name": "Lidl", "opening_hours": "Mo-Sa 09:00-21:00", "shop": "supermarket", "website": "https://www.lidl.es/"}}, {"type": "node", "id": 2502069938, "lat": 41.3864307, "lon": 2.1915528, "tags": {"amenity": "ice_cream", "shop": "kiosk"}}, {"type": "node", "id": 2528521163, "lat": 41.4003612, "lon": 2.1959358, "tags": {"name": "Alimentacion", "shop": "convenience"}}, {"type": "node", "id": 2555598408, "lat": 41.4058852, "lon": 2.1929942, "tags": {"amenity": "restaurant", "name": "Aliaga", "opening_hours": "Mo-Sa 13:00-16:00"}}, {"type": "node", "id": 2578587261, "lat": 41.4164718, "lon": 2.1878826, "tags": {"addr:country": "ES", "name": "Mr Pan", "shop": "bakery"}}, {"type": "node", "id": 2595546187, "lat": 41.4043919, "lon": 2.2039015, "tags": {"addr:city": "Barcelona", "addr:country": "ES", "addr:housenumber": "94", "addr:postcode": "08005", "addr:street": "Carrer Lope de Vega", "name": "Cal Mingo Forn de Pa", "shop": "bakery"}}, {"type": "node", "id": 2595792992, "lat": 41.4047978, "lon": 2.2033032, "tags": {"addr:city": "Barcelona", "addr:housenumber": "112-114", "addr:postcode": "08005", "addr:street": "Carrer de Lope de Vega", "brand": "Lidl", "brand:wikidata": "Q151954", "brand:wikipedia": "en:Lidl", "name": "Lidl", "shop": "supermarket", "website": "https://www.lidl.es/"}}, {"type": "node", "id": 2595823499, "lat": 41.4037607, "lon": 2.2042587, "tags": {"shop": "convenience"}}, {"type": "node", "id": 2617962817, "lat": 41.4049285, "lon": 2.1919361, "tags": {"addr:city": "Barcelona", "addr:housenumber": "188", "addr:postcode": "08018", "addr:street": "Avinguda Diagonal", "amenity": "fast_food", "brand": "McDonald's", "brand:wikidata": "Q38076", "brand:wikipedia": "es:McDonald's", "cuisine": "burger", "name": "McDonald's", "opening_hours": "Su-Th 08:00-23:30; Fr,Sa 08:00-01:00"}}, {"type": "node", "id": 2622391531, "lat": 41.3877691, "lon": 2.2017781, "tags": {"addr:city": "Barcelona", "addr:housenumber": "29-30", "addr:postcode": "08005", "addr:street": "Moll de Gregal", "amenity": "restaurant", "cuisine": "seafood", "name": "El Cangrejo Loco", "phone": "+34 93 221 05 33", "website": "http://www.elcangrejoloco.com/"}}, {"type": "node", "id": 2679002628, "lat": 41.41648, "lon": 2.1901456, "tags": {"brand": "Condis", "brand:wikidata": "Q57417581", "name": "Condis", "operator": "Condis", "shop": "supermarket"}}, {"type": "node", "id": 2679002636, "lat": 41.4175152, "lon": 2.197999, "tags": {"addr:city": "Barcelona", "brand": "Bon Area", "brand:wikidata": "Q11924743", "brand:wikipedia": "ca:Grup Alimentari Guissona", "name": "Bon Area", "opening_hours": "Mo-Sa 09:00-21:00; Su 09:00-14:00", "phone": "+34 933074957", "shop": "supermarket", "source": "http://www.bonarea.com/", "website": "http://www.bonarea.com/", "wheelchair": "yes"}}, {"type": "node", "id": 2679002650, "lat": 41.4162667, "lon": 2.195009, "tags": {"addr:city": "Barcelona", "addr:housenumber": "48", "addr:postcode": "08020", "addr:street": "Carrer de Huelva", "name": "Superverd", "opening_hours": "Mo-Fr 09:00-21:00; Sa 09:00-16:00", "opening_hours:covid19": "open", "shop": "greengrocer"}}, {"type": "node", "id": 2679002659, "lat": 41.4159831, "lon": 2.1948556, "tags": {"addr:city": "Barcelona", "addr:postcode": "08020", "addr:street": "Carrer de Fluvi\u00e0", "brand": "Dia", "brand:wikidata": "Q925132", "brand:wikipedia": "es:DIA (supermercados)", "name": "Dia", "operator": "DIA", "shop": "supermarket", "wheelchair": "limited"}}, {"type": "node", "id": 2684052224, "lat": 41.4052109, "lon": 2.1931117, "tags": {"addr:city": "Barcelona", "addr:housenumber": "208", "addr:postcode": "08018", "addr:street": "Avinguda Diagonal", "amenity": "restaurant", "cuisine": "japanese", "name": "Pai Mei", "opening_hours": "Mo-Su 12:30-16:30,19:00-23:00", "outdoor_seating": "no"}}, {"type": "node", "id": 2691127106, "lat": 41.3807514, "lon": 2.1860546, "tags": {"addr:housenumber": "3", "addr:postcode": "08039", "addr:street": "Pla\u00e7a de Pau Vila", "amenity": "restaurant", "brand": "Sagardi", "level": "4", "name": "Restaurant 1881", "note": "Entrance through the mesum", "opening_hours": "13:00-24:00", "operator": "Grupo Sagardi", "phone": "+34 932 21 00 50", "website": "https://gruposagardi.com/ca/restaurant/1881-per-sagardi"}}, {"type": "node", "id": 2703829256, "lat": 41.4007421, "lon": 2.1991334, "tags": {"addr:city": "Barcelona", "addr:housenumber": "155", "addr:postcode": "08005", "addr:street": "Carrer de Pujades", "amenity": "cafe", "cuisine": "regional", "name": "Bon Gust"}}, {"type": "node", "id": 2756677882, "lat": 41.4051928, "lon": 2.1932736}, {"type": "node", "id": 2764585970, "lat": 41.4033811, "lon": 2.2031684, "tags": {"addr:country": "ES", "brand": "Granier", "brand:wikidata": "Q102311169", "name": "Granier", "shop": "bakery"}}, {"type": "node", "id": 2775792649, "lat": 41.4134784, "lon": 2.1953379, "tags": {"addr:city": "Barcelona", "addr:housename": "77", "addr:housenumber": "77", "addr:postcode": "08018", "addr:street": "Carrer del Concili de Trento", "email": "info@babyestel.com", "name": "La sirena", "shop": "frozen_food"}}, {"type": "node", "id": 2781788371, "lat": 41.3994356, "lon": 2.197621, "tags": {"addr:city": "Barcelona", "addr:housenumber": "127", "addr:street": "Carrer de Pujades", "building": "kiosk", "building:levels": "1", "shop": "kiosk"}}, {"type": "node", "id": 2788454383, "lat": 41.4068288, "lon": 2.2077537, "tags": {"addr:city": "Barcelona", "addr:housenumber": "316", "addr:postcode": "08019", "addr:street": "Carrer de Pujades", "amenity": "restaurant", "cuisine": "regional", "name": "Kata Restaurant", "smoking": "no"}}, {"type": "node", "id": 2788454392, "lat": 41.4069555, "lon": 2.2079254, "tags": {"addr:city": "Barcelona", "addr:housenumber": "316", "addr:postcode": "08019", "addr:street": "Carrer de Pujades", "amenity": "restaurant", "cuisine": "regional", "name": "Restaurant Com Sempre", "smoking": "outside"}}, {"type": "node", "id": 2837752098, "lat": 41.4210839, "lon": 2.1879238, "tags": {"addr:city": "Barcelona", "addr:housenumber": "484", "addr:street": "Carrer de Sant Antoni Maria Claret", "email": "pastisseriabareche@gmail.com", "name": "Pastisseria Bareche", "phone": "+34 93 349 7631", "shop": "pastry", "source": "http://www.bareche.com/", "website": "http://www.bareche.com/"}}, {"type": "node", "id": 2865897023, "lat": 41.380178, "lon": 2.1890706, "tags": {"addr:housenumber": "2", "addr:street": "Pla\u00e7a del Poeta Bosc\u00e1", "amenity": "restaurant", "contact:phone": "+34 932215458", "name": "El Guindilla"}}, {"type": "node", "id": 2883832907, "lat": 41.382275, "lon": 2.1871782, "tags": {"addr:housenumber": "6-8", "addr:postcode": "08003", "addr:street": "Carrer del Doctor Aiguader", "amenity": "restaurant", "cuisine": "tapas;spanish", "name": "Restaurante Pasa Tapas", "phone": "+34933194233"}}, {"type": "node", "id": 2891634433, "lat": 41.4032408, "lon": 2.2024557, "tags": {"addr:city": "Barcelona", "addr:housenumber": "207", "addr:postcode": "08005", "addr:street": "Carrer de Pujades", "amenity": "restaurant", "cuisine": "indian", "name": "Nice & Spice", "phone": "+34 933 08 95 48", "smoking": "outside", "website": "http://www.restaurantenicespice.com"}}, {"type": "node", "id": 2910255826, "lat": 41.3854991, "lon": 2.1969746, "tags": {"addr:city": "Barcelona", "addr:housenumber": "36", "addr:postcode": "08005", "addr:street": "Passeig Mar\u00edtim del Port Ol\u00edmpic", "amenity": "bar", "name": "Sh\u00f4ko", "name:ca": "Sh\u00f4ko", "name:de": "Sh\u00f4ko", "name:en": "Sh\u00f4ko", "name:es": "Sh\u00f4ko", "website": "http://shoko.biz"}}, {"type": "node", "id": 2910255827, "lat": 41.3852778, "lon": 2.1967099, "tags": {"addr:city": "Barcelona", "addr:housenumber": "34", "addr:postcode": "08003", "addr:street": "Passeig Mar\u00edtim de la Barceloneta", "amenity": "bar", "name": "Opium", "name:en": "Opium"}}, {"type": "node", "id": 2915567416, "lat": 41.4032667, "lon": 2.2025276, "tags": {"addr:city": "Barcelona", "addr:housenumber": "209", "addr:postcode": "08005", "addr:street": "Carrer de Pujades", "amenity": "restaurant", "cuisine": "italian", "name": "O Principe", "opening_hours": "Mo-Th 12:00-16:00,20:00-23:30; Fr-Su 12:00-16:00,20:00-00:00"}}, {"type": "node", "id": 2918936192, "lat": 41.4035872, "lon": 2.2033968, "tags": {"amenity": "bar", "name": "Bar Restaurant Vendrell"}}, {"type": "node", "id": 2918964887, "lat": 41.4036578, "lon": 2.2034945, "tags": {"name": "L' anxoveta", "shop": "seafood"}}, {"type": "node", "id": 2919000428, "lat": 41.4037406, "lon": 2.2032408, "tags": {"addr:housenumber": "221, 223", "addr:postcode": "08005", "addr:street": "Carrer de Pujades", "amenity": "bar", "name": "Tr\u00e9Bol"}}, {"type": "node", "id": 2919000429, "lat": 41.4037907, "lon": 2.2033082, "tags": {"addr:housenumber": "221, 223", "addr:postcode": "08005", "addr:street": "Carrer de Pujades", "amenity": "restaurant", "cuisine": "barbecue", "delivery": "yes", "name": "Menjarb\u00e9", "takeaway": "only"}}, {"type": "node", "id": 2919002462, "lat": 41.4038148, "lon": 2.2033407, "tags": {"addr:housenumber": "225", "addr:postcode": "08005", "addr:street": "Carrer de Pujades", "amenity": "restaurant", "name": "FOODIES"}}, {"type": "node", "id": 2921806501, "lat": 41.4011887, "lon": 2.1998376, "tags": {"addr:city": "Barcelona", "addr:housenumber": "161", "addr:street": "Carrer de Pujades", "amenity": "restaurant", "name": "Spoon factory"}}, {"type": "node", "id": 2923421005, "lat": 41.4043568, "lon": 2.1902175}, {"type": "node", "id": 2923421010, "lat": 41.4052501, "lon": 2.1932935}, {"type": "node", "id": 2923438698, "lat": 41.3919179, "lon": 2.1872076, "tags": {"addr:city": "Barcelona", "addr:country": "ES", "addr:housenumber": "2", "addr:postcode": "08018", "addr:street": "Avinguda Meridiana", "amenity": "restaurant", "cuisine": "italian", "name": "La Forchetta", "phone": "+34 933285896", "website": "https://www.laforchetta.es/"}}, {"type": "node", "id": 2962042533, "lat": 41.4200219, "lon": 2.1962763, "tags": {"brand": "Carrefour Market", "brand:wikidata": "Q2689639", "brand:wikipedia": "fr:Carrefour Market", "name": "Carrefour Market", "opening_hours:covid19": "open", "shop": "supermarket", "wheelchair": "yes"}}, {"type": "node", "id": 2966340931, "lat": 41.4022886, "lon": 2.1998883, "tags": {"addr:housenumber": "100", "addr:street": "Rambla del Poblenou", "amenity": "bar", "name": "El Capritx", "name:ca": "El Capritx", "name:en": "El Capritx", "name:es": "El Capritx"}}, {"type": "node", "id": 2966341089, "lat": 41.4023159, "lon": 2.1998443, "tags": {"addr:housenumber": "100", "addr:street": "Rambla del Poblenou", "name": "rico", "shop": "supermarket"}}, {"type": "node", "id": 2971983670, "lat": 41.3824684, "lon": 2.1857241, "tags": {"name": "Supermercat", "shop": "convenience"}}, {"type": "node", "id": 2975013896, "lat": 41.4008443, "lon": 2.2013842, "tags": {"amenity": "cafe", "name": "la buena vida"}}, {"type": "node", "id": 2975020209, "lat": 41.3991782, "lon": 2.2035839, "tags": {"name": "Fruites I Verdures", "operator": "Hui Yuan2", "shop": "supermarket"}}, {"type": "node", "id": 2975024521, "lat": 41.3992279, "lon": 2.203533, "tags": {"amenity": "restaurant", "cuisine": "pizza", "name": "Le Fabrik", "website": "http://www.lefabrik.es/"}}, {"type": "node", "id": 2975024874, "lat": 41.3992962, "lon": 2.2037652, "tags": {"amenity": "restaurant", "name": "la tertulia"}}, {"type": "node", "id": 2975030773, "lat": 41.3993411, "lon": 2.2037098, "tags": {"name": "Galaxia", "shop": "department_store"}}, {"type": "node", "id": 3004759375, "lat": 41.4201316, "lon": 2.187446, "tags": {"name": "Sorli Discau", "shop": "supermarket"}}, {"type": "node", "id": 3005463983, "lat": 41.3972585, "lon": 2.1916091, "tags": {"addr:city": "Barcelona", "addr:housenumber": "88", "addr:postcode": "08018", "addr:street": "Carrer de Pamplona", "amenity": "pub", "name": "Ceferino", "smoking": "outside"}}, {"type": "node", "id": 3005490283, "lat": 41.4147788, "lon": 2.1966794, "tags": {"shop": "kiosk"}}, {"type": "node", "id": 3009041122, "lat": 41.4122211, "lon": 2.1935879, "tags": {"addr:housenumber": "282", "addr:street": "Lope de Vega", "amenity": "restaurant", "contact:facebook": "https://www.facebook.com/Frankfurt.Elracodelamel", "name": "Frankfurt El Rac\u00f3 de la Mel"}}, {"type": "node", "id": 3009083162, "lat": 41.4116399, "lon": 2.1933139, "tags": {"addr:street": "Carrer del Concili de Trento", "amenity": "restaurant", "name": "Golf Restaurant"}}, {"type": "node", "id": 3009091336, "lat": 41.4115483, "lon": 2.1931733, "tags": {"addr:housenumber": "48", "addr:street": "Carrer del Concili de Trento", "amenity": "restaurant", "cuisine": "indian;pizza", "name": "Bar Restaurant Virona4 Pizzeria", "website": "http://virona4pizzeria.es"}}, {"type": "node", "id": 3009100214, "lat": 41.4078382, "lon": 2.1881211, "tags": {"addr:housenumber": "55", "addr:postcode": "08018", "addr:street": "Carrer del Clot", "amenity": "bar", "name": "Bodega Sopena", "phone": "+34 932311505", "wheelchair": "limited"}}, {"type": "node", "id": 3009145177, "lat": 41.4086673, "lon": 2.1927392, "tags": {"addr:housenumber": "53", "addr:postcode": "08018", "addr:street": "Carrer de Sant Joan de Malta", "amenity": "bar", "contact:facebook": "https://www.facebook.com/CellerCaLaPaqui", "name": "Celler Ca la Paqui", "phone": "+34 654366853"}}, {"type": "node", "id": 3009238353, "lat": 41.42731, "lon": 2.186366}, {"type": "node", "id": 3009238354, "lat": 41.4271446, "lon": 2.185914}, {"type": "node", "id": 3009238357, "lat": 41.4262089, "lon": 2.1865309}, {"type": "node", "id": 3009238358, "lat": 41.4263185, "lon": 2.1868241}, {"type": "node", "id": 3009238359, "lat": 41.4263667, "lon": 2.186792}, {"type": "node", "id": 3009238360, "lat": 41.426404, "lon": 2.1868918}, {"type": "node", "id": 3009238361, "lat": 41.4264788, "lon": 2.1868405}, {"type": "node", "id": 3009238362, "lat": 41.4265006, "lon": 2.1868997}, {"type": "node", "id": 3023471034, "lat": 41.4187838, "lon": 2.189196, "tags": {"shop": "kiosk"}}, {"type": "node", "id": 3023964339, "lat": 41.4007199, "lon": 2.1997229, "tags": {"addr:city": "Barcelona", "addr:housenumber": "168", "addr:postcode": "08005", "addr:street": "Carrer de Pujades", "amenity": "fast_food", "branch": "Poblenou", "contact:phone": "+34933285188", "cuisine": "burger", "name": "Timesburg", "smoking": "outside", "website": "https://www.timesburg.com/"}}, {"type": "node", "id": 3032894933, "lat": 41.4116354, "lon": 2.1987015, "tags": {"shop": "kiosk", "wheelchair": "yes"}}, {"type": "node", "id": 3032894935, "lat": 41.4128318, "lon": 2.1971997, "tags": {"noname": "yes", "shop": "kiosk"}}, {"type": "node", "id": 3046155434, "lat": 41.4089286, "lon": 2.1951206, "tags": {"amenity": "cafe", "name": "Forn de pa Gil", "shop": "bakery"}}, {"type": "node", "id": 3046155536, "lat": 41.4143356, "lon": 2.2005776, "tags": {"brand": "Dia", "brand:wikidata": "Q925132", "brand:wikipedia": "es:DIA (supermercados)", "name": "Dia", "operator": "Distribuidora Internacional de Alimentaci\u00f3n, S.A.", "shop": "supermarket", "website": "https://www.dia.es", "wheelchair": "yes"}}, {"type": "node", "id": 3048076134, "lat": 41.3997857, "lon": 2.2026204, "tags": {"shop": "kiosk"}}, {"type": "node", "id": 3048076438, "lat": 41.4004427, "lon": 2.2022947, "tags": {"addr:city": "Barcelona", "addr:housenumber": "58", "addr:postcode": "08005", "addr:street": "Rambla del Poblenou", "amenity": "bar", "contact:facebook": "https://m.facebook.com/el58poblenou", "cuisine": "tapas", "name": "le cinquante huit", "name:ca": "El 58", "smoking": "no"}}, {"type": "node", "id": 3048076838, "lat": 41.4045744, "lon": 2.199062, "tags": {"name:signed": "no", "opening_hours": "Mo-Fr 07:00-15:00; PH,Sa,Su 08:00-15:00", "shop": "kiosk"}}, {"type": "node", "id": 3048076940, "lat": 41.4009194, "lon": 2.2037905, "tags": {"addr:city": "Barcelona", "addr:housenumber": "99", "addr:street": "Carrer de Mari\u00e0 Aguil\u00f3", "amenity": "cafe", "name": "Ideal", "smoking": "no"}}, {"type": "node", "id": 3048077141, "lat": 41.3999148, "lon": 2.2025577, "tags": {"name": "El surtidor", "shop": "bakery"}}, {"type": "node", "id": 3048077142, "lat": 41.3997067, "lon": 2.2032276, "tags": {"addr:city": "Barcelona", "addr:housenumber": "42", "addr:street": "Rambla del Poblenou", "amenity": "restaurant", "name": "L'Alian\u00e7a del Poblenou", "name:ca": "L'Alian\u00e7a del Poblenou", "wikidata": "Q8195560", "wikipedia": "ca:Casino l'Alian\u00e7a del Poblenou"}}, {"type": "node", "id": 3048077144, "lat": 41.3989138, "lon": 2.2037682, "tags": {"shop": "kiosk"}}, {"type": "node", "id": 3048077641, "lat": 41.4010293, "lon": 2.2052715, "tags": {"brand": "Mercadona", "brand:wikidata": "Q377705", "brand:wikipedia": "es:Mercadona", "name": "Mercadona", "shop": "supermarket", "website": "https://www.mercadona.es"}}, {"type": "node", "id": 3048078145, "lat": 41.3998443, "lon": 2.2054629, "tags": {"amenity": "bar", "name": "La pubilla del Taulat"}}, {"type": "node", "id": 3048078236, "lat": 41.4013897, "lon": 2.2006002, "tags": {"shop": "kiosk"}}, {"type": "node", "id": 3048079634, "lat": 41.4024271, "lon": 2.199798, "tags": {"amenity": "restaurant", "name": "Recasens", "smoking": "no"}}, {"type": "node", "id": 3048083133, "lat": 41.3995954, "lon": 2.2028652, "tags": {"addr:city": "Barcelona", "addr:housenumber": "41", "addr:street": "Rambla del Poblenou", "name": "Triomf", "shop": "confectionery"}}, {"type": "node", "id": 3049368238, "lat": 41.4078884, "lon": 2.1884107, "tags": {"shop": "kiosk", "wheelchair": "yes"}}, {"type": "node", "id": 3049368239, "lat": 41.4077785, "lon": 2.1885526, "tags": {"amenity": "ice_cream", "cuisine": "ice_cream", "name": "La Lleteria", "wheelchair": "limited"}}, {"type": "node", "id": 3049368240, "lat": 41.4080647, "lon": 2.1884044, "tags": {"addr:city": "Barcelona", "addr:housenumber": "72-74", "addr:postcode": "08018", "addr:street": "Carrer del Clot", "contact:email": "info@pastisserialapalma.com", "contact:phone": "+34 932325257;+34 932323706", "contact:website": "https://www.pastisserialapalma.com", "name": "La Palma", "opening_hours": "Mo 08:30-14:30,16:30-20:30; Tu-Fr 08:00-15:00,16:00-20:30; Sa 08:00-20:00; Su,PH 08:00-17:00", "shop": "pastry", "wheelchair": "limited"}}, {"type": "node", "id": 3049368241, "lat": 41.4077954, "lon": 2.1880996, "tags": {"addr:city": "Barcelona", "addr:country": "ES", "addr:housenumber": "53", "addr:postcode": "08018", "addr:street": "Carrer del Clot", "name": "Mon Pa", "shop": "bakery"}}, {"type": "node", "id": 3049368344, "lat": 41.4082815, "lon": 2.1885259, "tags": {"addr:city": "Barcelona", "addr:country": "ES", "addr:housenumber": "76", "addr:postcode": "08018", "addr:street": "Carrer del Clot", "amenity": "bar", "name": "Clot76", "outdoor_seating": "no", "wheelchair": "no"}}, {"type": "node", "id": 3049368345, "lat": 41.4083173, "lon": 2.1885217, "tags": {"addr:city": "Barcelona", "addr:housenumber": "78", "addr:street": "Carrer del Clot", "amenity": "restaurant", "name": "A ruta gallega"}}, {"type": "node", "id": 3049371937, "lat": 41.4077189, "lon": 2.188061, "tags": {"addr:city": "Barcelona", "addr:housenumber": "49", "addr:street": "Carrer del Clot", "amenity": "restaurant", "cuisine": "pizza", "internet_access": "wlan", "name": "La Clotenca"}}, {"type": "node", "id": 3049372238, "lat": 41.408738, "lon": 2.1894997, "tags": {"addr:city": "Barcelona", "addr:housenumber": "27", "addr:street": "Carrer de Rossend Nobas", "brand": "Dia", "brand:wikidata": "Q925132", "brand:wikipedia": "es:DIA (supermercados)", "name": "Dia", "operator": "Distribuidora Internacional de Alimentaci\u00f3n, S.A.", "shop": "supermarket", "toilets:wheelchair": "no", "website": "https://www.dia.es", "wheelchair": "limited"}}, {"type": "node", "id": 3049395437, "lat": 41.4068426, "lon": 2.1884295, "tags": {"name": "Pa de Georgia", "shop": "bakery"}}, {"type": "node", "id": 3049395438, "lat": 41.4074006, "lon": 2.1890534, "tags": {"addr:city": "Barcelona", "addr:housenumber": "15", "addr:street": "Pla\u00e7a del Mercat", "amenity": "restaurant", "name": "Copi 2"}}, {"type": "node", "id": 3049395439, "lat": 41.4075568, "lon": 2.1891002, "tags": {"addr:city": "Barcelona", "addr:housenumber": "19", "addr:street": "Pla\u00e7a del Mercat", "amenity": "bar", "name": "El refugio de los 33"}}, {"type": "node", "id": 3049395443, "lat": 41.4089676, "lon": 2.1885858, "tags": {"addr:city": "Barcelona", "addr:housenumber": "75-77", "addr:street": "Carrer del Clot", "amenity": "restaurant", "internet_access": "wlan", "name": "Marlen Tastets", "name:ca": "Platill Volador", "name:en": "Platill Volador", "name:es": "Platill Volador", "opening_hours": "Mo,We-Sa 07:30-16:00,20:00-23:30; Su,PH 08:30-16:00; PH 20:00-23:30", "smoking": "no"}}, {"type": "node", "id": 3049395445, "lat": 41.4099761, "lon": 2.1891637, "tags": {"amenity": "fast_food", "cuisine": "argentinian;pizza", "description": "Pizzer\u00eda Argentina", "name": "Sis\u00f3"}}, {"type": "node", "id": 3049395447, "lat": 41.4114686, "lon": 2.1895144, "tags": {"addr:city": "Barcelona", "addr:housenumber": "139-141", "addr:street": "Carrer del Clot", "name": "Bodegas Riojanas", "shop": "beverages"}}, {"type": "node", "id": 3049395448, "lat": 41.4127646, "lon": 2.1899153, "tags": {"shop": "kiosk"}}, {"type": "node", "id": 3049395449, "lat": 41.412857, "lon": 2.1898469, "tags": {"name": "Figuls", "opening_hours": "Mo-Fr 07:30-14:30,16:30-20:30; Sa 08:00-14:30,17:00-20:30; Su,PH 08:30-15:00", "shop": "confectionery"}}, {"type": "node", "id": 3049395450, "lat": 41.4129436, "lon": 2.1897943, "tags": {"addr:city": "Barcelona", "addr:housenumber": "253", "addr:street": "Carrer de Las Navas de Tolosa", "name": "Genaro", "shop": "seafood"}}, {"type": "node", "id": 3049395451, "lat": 41.4130977, "lon": 2.1899669, "tags": {"amenity": "cafe", "name": "Aroma de caf\u00e8"}}, {"type": "node", "id": 3049395452, "lat": 41.4132792, "lon": 2.1904648, "tags": {"amenity": "bar", "cuisine": "spanish;tea;sandwich;coffee_shop", "name": "Luar"}}, {"type": "node", "id": 3058138017, "lat": 41.3979154, "lon": 2.2006807, "tags": {"addr:city": "Barcelona", "addr:housenumber": "180", "addr:postcode": "08005", "addr:street": "Carrer de Ram\u00f3n Turr\u00f3", "amenity": "restaurant", "cuisine": "burger", "name": "Hoppinness", "wheelchair": "limited"}}, {"type": "node", "id": 3058169648, "lat": 41.3973403, "lon": 2.1997469, "tags": {"amenity": "restaurant", "name": "Ivan"}}, {"type": "node", "id": 3058169649, "lat": 41.397535, "lon": 2.199655, "tags": {"amenity": "cafe", "name": "Granja"}}, {"type": "node", "id": 3068367471, "lat": 41.4037086, "lon": 2.209265, "tags": {"amenity": "restaurant", "name": "Bar Restaurante Olimpiada 92"}}, {"type": "node", "id": 3076807047, "lat": 41.3821116, "lon": 2.187671, "tags": {"addr:city": "Barcelona", "addr:housenumber": "1", "addr:postcode": "08003", "addr:street": "Carrer de Balboa", "amenity": "restaurant", "cuisine": "tapas", "name": "Bitacora", "phone": "+34933153588", "source": "business card"}}, {"type": "node", "id": 3084370508, "lat": 41.3863077, "lon": 2.1975017, "tags": {"addr:housenumber": "19-21", "addr:street": "Calle de la Marina", "amenity": "restaurant", "name": "Marina Bay By Moncho's", "phone": "+34932211514"}}, {"type": "node", "id": 3128188880, "lat": 41.4097311, "lon": 2.2153145, "tags": {"amenity": "fast_food", "brand": "Burger King", "brand:wikidata": "Q177054", "brand:wikipedia": "es:Burger King", "cuisine": "burger", "level": "3", "name": "Burger King", "takeaway": "yes"}}, {"type": "node", "id": 3128189784, "lat": 41.4100622, "lon": 2.2171119, "tags": {"amenity": "cafe", "brand": "Starbucks", "brand:wikidata": "Q37158", "brand:wikipedia": "en:Starbucks", "cuisine": "coffee_shop", "name": "Starbucks", "official_name": "Starbucks Coffee", "takeaway": "yes"}}, {"type": "node", "id": 3128192606, "lat": 41.4099005, "lon": 2.2158488, "tags": {"amenity": "fast_food", "brand": "Dunkin' Donuts", "brand:wikidata": "Q847743", "brand:wikipedia": "en:Dunkin' Donuts", "cuisine": "donut;coffee_shop", "level": "3", "name": "Dunkin' Coffe", "takeaway": "yes"}}, {"type": "node", "id": 3128197540, "lat": 41.4101568, "lon": 2.2168925, "tags": {"amenity": "restaurant", "name": "Ginos"}}, {"type": "node", "id": 3128203789, "lat": 41.4099445, "lon": 2.2160096, "tags": {"amenity": "fast_food", "brand": "Subway", "brand:wikidata": "Q244457", "brand:wikipedia": "en:Subway (restaurant)", "cuisine": "sandwich", "level": "3", "name": "Subway", "takeaway": "yes"}}, {"type": "node", "id": 3139902968, "lat": 41.4106326, "lon": 2.2184788}, {"type": "node", "id": 3139902973, "lat": 41.4108653, "lon": 2.2183762}, {"type": "node", "id": 3139947678, "lat": 41.4085634, "lon": 2.2164027}, {"type": "node", "id": 3139947679, "lat": 41.4086678, "lon": 2.2167193}, {"type": "node", "id": 3139947718, "lat": 41.4094323, "lon": 2.2152611}, {"type": "node", "id": 3139947721, "lat": 41.4094529, "lon": 2.215234}, {"type": "node", "id": 3139947735, "lat": 41.4095019, "lon": 2.2174857}, {"type": "node", "id": 3139947759, "lat": 41.4096057, "lon": 2.2165752}, {"type": "node", "id": 3139947764, "lat": 41.4096149, "lon": 2.2163939}, {"type": "node", "id": 3139947769, "lat": 41.4096391, "lon": 2.2163839}, {"type": "node", "id": 3139947770, "lat": 41.40964, "lon": 2.2166544}, {"type": "node", "id": 3139947776, "lat": 41.409648, "lon": 2.2176185}, {"type": "node", "id": 3139947789, "lat": 41.4096978, "lon": 2.216888}, {"type": "node", "id": 3139947793, "lat": 41.4097022, "lon": 2.2176697}, {"type": "node", "id": 3139947795, "lat": 41.4097031, "lon": 2.2176681}, {"type": "node", "id": 3139947796, "lat": 41.4097041, "lon": 2.2166434}, {"type": "node", "id": 3139947798, "lat": 41.4097051, "lon": 2.2175045}, {"type": "node", "id": 3139947799, "lat": 41.4097055, "lon": 2.2169788}, {"type": "node", "id": 3139947805, "lat": 41.4097212, "lon": 2.2175192}, {"type": "node", "id": 3139947808, "lat": 41.4097549, "lon": 2.2168459}, {"type": "node", "id": 3139947813, "lat": 41.4097857, "lon": 2.2173494}, {"type": "node", "id": 3139947815, "lat": 41.4097896, "lon": 2.2170803}, {"type": "node", "id": 3139947816, "lat": 41.4097976, "lon": 2.2171107}, {"type": "node", "id": 3139947820, "lat": 41.4098187, "lon": 2.2171006}, {"type": "node", "id": 3139947828, "lat": 41.4098678, "lon": 2.2147068}, {"type": "node", "id": 3139947830, "lat": 41.4098718, "lon": 2.2173124}, {"type": "node", "id": 3139947834, "lat": 41.4098821, "lon": 2.2146852}, {"type": "node", "id": 3139947840, "lat": 41.4099103, "lon": 2.214663}, {"type": "node", "id": 3139947847, "lat": 41.4099355, "lon": 2.2175669}, {"type": "node", "id": 3139947849, "lat": 41.4099409, "lon": 2.2146568}, {"type": "node", "id": 3139947857, "lat": 41.4099734, "lon": 2.2146676}, {"type": "node", "id": 3139947867, "lat": 41.4100043, "lon": 2.2146986}, {"type": "node", "id": 3139947869, "lat": 41.4100111, "lon": 2.2147133}, {"type": "node", "id": 3139947874, "lat": 41.4100169, "lon": 2.2147311}, {"type": "node", "id": 3139947882, "lat": 41.4100428, "lon": 2.2179826}, {"type": "node", "id": 3139947902, "lat": 41.4100684, "lon": 2.2180062}, {"type": "node", "id": 3139947930, "lat": 41.4101302, "lon": 2.2180629}, {"type": "node", "id": 3139947934, "lat": 41.4101382, "lon": 2.2151842}, {"type": "node", "id": 3139947967, "lat": 41.4101887, "lon": 2.2153877}, {"type": "node", "id": 3139947970, "lat": 41.4102069, "lon": 2.2154607}, {"type": "node", "id": 3139948014, "lat": 41.4106917, "lon": 2.2173902}, {"type": "node", "id": 3139948018, "lat": 41.4107114, "lon": 2.2174693}, {"type": "node", "id": 3139948025, "lat": 41.4107605, "lon": 2.2176678}, {"type": "node", "id": 3147200574, "lat": 41.3930166, "lon": 2.1858405, "tags": {"brand": "Mercadona", "brand:wikidata": "Q377705", "brand:wikipedia": "es:Mercadona", "name": "Mercadona", "opening_hours": "Mo-Sa 09:00-21:00", "shop": "supermarket", "website": "https://www.mercadona.es"}}, {"type": "node", "id": 3170567825, "lat": 41.3975779, "lon": 2.2023219, "tags": {"addr:city": "Barcelona", "addr:housenumber": "192", "addr:postcode": "08005", "addr:street": "Carrer del Doctor Trueta", "amenity": "cafe", "name": "Barcelona Culture World", "phone": "+34 647 756 384", "website": "http://bcw.es/"}}, {"type": "node", "id": 3245787204, "lat": 41.3883188, "lon": 2.2011273, "tags": {"addr:city": "Barcelona", "addr:housenumber": "13-17", "addr:postcode": "08005", "addr:street": "Moll de Gregal", "amenity": "restaurant", "name": "La Barca del Salamanca", "name:ca": "La Barca del Salamanca", "name:es": "La Barca Del Salamanca", "phone": "+34 93 221 18 37", "website": "http://www.labarcadelsalamanca.com"}}, {"type": "node", "id": 3298739648, "lat": 41.4174459, "lon": 2.1874012, "tags": {"brand": "Mercadona", "brand:wikidata": "Q377705", "brand:wikipedia": "es:Mercadona", "name": "Mercadona", "shop": "supermarket", "website": "https://www.mercadona.es"}}, {"type": "node", "id": 3316542524, "lat": 41.3954324, "lon": 2.186404, "tags": {"addr:city": "Barcelona", "addr:housenumber": "107", "addr:postcode": "08018", "addr:street": "Carrer de la Marina", "amenity": "cafe", "cuisine": "churreria", "internet_access": "no", "name": "Churrer\u00eda J. Argil\u00e9s", "opening_hours": "Sa-Su 00:00-24:00; Tu-Fr 08:30-21:30", "phone": "+34 932 32 43 07", "smoking": "yes", "takeaway": "only"}}, {"type": "node", "id": 3350102469, "lat": 41.392498, "lon": 2.2046843, "tags": {"addr:housenumber": "40", "addr:street": "Passeig Maritim del Bogatell", "amenity": "restaurant", "cuisine": "seafood", "name": "L'Escamarla", "operator": "Grupo Happy", "phone": "+34 932 211 366", "website": "http://www.happy.es"}}, {"type": "node", "id": 3361212874, "lat": 41.3965202, "lon": 2.1918882, "tags": {"addr:housenumber": "120", "addr:street": "Carrer de Pallars", "amenity": "fast_food", "cuisine": "american"}}, {"type": "node", "id": 3362597637, "lat": 41.4027825, "lon": 2.2034307, "tags": {"brand": "Condis", "brand:wikidata": "Q57417581", "brand:wikipedia": "ca:Condis", "name": "Condis", "operator": "Condis", "shop": "supermarket"}}, {"type": "node", "id": 3377085268, "lat": 41.3805162, "lon": 2.1886893, "tags": {"addr:housenumber": "28", "addr:postcode": "08003", "addr:street": "Carrer del Baluard", "name": "Komesano", "shop": "supermarket"}}, {"type": "node", "id": 3386550692, "lat": 41.4051386, "lon": 2.1928962, "tags": {"addr:street": "Barcelona Glorias", "amenity": "fast_food", "cuisine": "german", "name": "kurz & gut", "phone": "93486096", "toilets:wheelchair": "yes", "wheelchair": "yes"}}, {"type": "node", "id": 3441772421, "lat": 41.4108993, "lon": 2.1928895, "tags": {"addr:housenumber": "208", "addr:street": "Carrer de Bilbao", "name": "iaia 'nita", "shop": "bakery"}}, {"type": "node", "id": 3504769718, "lat": 41.3907358, "lon": 2.1903752, "tags": {"addr:street": "Carrer de Ram\u00f3n Turr\u00f3", "amenity": "restaurant", "cuisine": "regional", "name": "Menssana", "smoking": "no"}}, {"type": "node", "id": 3504769719, "lat": 41.3908977, "lon": 2.1900669, "tags": {"amenity": "bar", "name": "El Rinc\u00f3n", "not:brand:wikidata": "Q98456614"}}, {"type": "node", "id": 3551790520, "lat": 41.4243268, "lon": 2.2033364, "tags": {"name": "Cansaladeria", "shop": "butcher"}}, {"type": "node", "id": 3551790523, "lat": 41.4245512, "lon": 2.2036372, "tags": {"amenity": "restaurant", "name": "Jordi y Carlos"}}, {"type": "node", "id": 3608776243, "lat": 41.4065498, "lon": 2.2032262, "tags": {"amenity": "bar", "name": "Jaume's"}}, {"type": "node", "id": 3664064879, "lat": 41.3936771, "lon": 2.2054087}, {"type": "node", "id": 3688187084, "lat": 41.3816344, "lon": 2.1888164, "tags": {"addr:housenumber": "20", "addr:street": "Carrer de Ginebra", "amenity": "bar", "name": "Chito's Bar", "phone": "+34 932682373"}}, {"type": "node", "id": 3711001731, "lat": 41.4078204, "lon": 2.1892507, "tags": {"addr:city": "Barcelona", "addr:housenumber": "1", "addr:postcode": "08018", "addr:street": "Carrer del Cabanyal", "amenity": "restaurant", "cuisine": "regional", "name": "Ca la Cuca", "takeaway": "only"}}, {"type": "node", "id": 3749428003, "lat": 41.3806365, "lon": 2.1880355, "tags": {"shop": "convenience"}}, {"type": "node", "id": 3767502027, "lat": 41.4092369, "lon": 2.2081245, "tags": {"addr:city": "Barcelona", "addr:housenumber": "49", "addr:postcode": "08019", "addr:street": "Carrer de la Selva de Mar", "amenity": "bar", "name": "Can Liu", "operator": "Can Liu"}}, {"type": "node", "id": 3779800462, "lat": 41.4089464, "lon": 2.216973}, {"type": "node", "id": 3815929006, "lat": 41.3802042, "lon": 2.189413, "tags": {"amenity": "restaurant", "name": "Caballa Canalla"}}, {"type": "node", "id": 3815929008, "lat": 41.3818555, "lon": 2.1873062, "tags": {"addr:city": "Barcelona", "addr:housenumber": "6", "addr:postcode": "08003", "addr:street": "Carrer de Balboa", "amenity": "pub", "cuisine": "tapas", "name": "El Vaso de Oro", "opening_hours": "Mo-Su 12:00-00:00", "phone": "+34 933 19 30 98"}}, {"type": "node", "id": 3880778777, "lat": 41.4006708, "lon": 2.2062985, "tags": {"addr:housenumber": "11", "addr:street": "Carrer de Bilbao", "amenity": "restaurant", "cuisine": "pizza", "designation": "Local de comida argentina. (Empanadas y pizza)", "name": "Mondo Argento", "name:ca": "F&F Fast food", "name:en": "F&F Fast food", "name:es": "F&F Fast food"}}, {"type": "node", "id": 3913309829, "lat": 41.4176965, "lon": 2.1877208, "tags": {"addr:city": "Barcelona", "addr:housenumber": "34", "addr:postcode": "08027", "addr:street": "Carrer de Josep Estivill", "amenity": "restaurant", "cuisine": "japanese", "name": "Restaurant Fujiyama", "opening_hours": "12:00-17:00,20:00-24:00; Mo off", "phone": "+34 933 51 48 03", "toilets:wheelchair": "no", "wheelchair": "no"}}, {"type": "node", "id": 3938788744, "lat": 41.3959987, "lon": 2.1990598, "tags": {"addr:city": "Barcelona", "addr:housenumber": "36", "addr:postcode": "08005", "addr:street": "Carrer de Badajoz", "amenity": "restaurant", "name": "Can Bigotis"}}, {"type": "node", "id": 3940580367, "lat": 41.3953485, "lon": 2.1994374, "tags": {"addr:city": "Barcelona", "addr:housenumber": "23", "addr:postcode": "08005", "addr:street": "Carrer de Badajoz", "amenity": "restaurant", "name": "Bar Restaurant SAVIGOVI"}}, {"type": "node", "id": 3940588323, "lat": 41.3974371, "lon": 2.1990673, "tags": {"addr:city": "Barcelona", "addr:housenumber": "33", "addr:postcode": "08005", "addr:street": "Carrer de la Ciutat de Granada", "amenity": "restaurant", "name": "Rac\u00f3 de la Vila"}}, {"type": "node", "id": 3945302891, "lat": 41.4255051, "lon": 2.1869263, "tags": {"brand": "Mercadona", "brand:wikidata": "Q377705", "brand:wikipedia": "es:Mercadona", "name": "Mercadona", "shop": "supermarket", "website": "https://www.mercadona.es"}}, {"type": "node", "id": 3945322030, "lat": 41.4265683, "lon": 2.186855}, {"type": "node", "id": 3945322033, "lat": 41.4270657, "lon": 2.1865245}, {"type": "node", "id": 3948138345, "lat": 41.3948938, "lon": 2.2009561, "tags": {"addr:city": "Barcelona", "addr:postcode": "08005", "amenity": "restaurant", "name": "La Bona Cuina"}}, {"type": "node", "id": 3949870504, "lat": 41.391453, "lon": 2.1998401, "tags": {"addr:city": "Barcelona", "addr:housenumber": "79", "addr:postcode": "08005", "addr:street": "Carrer de Salvador Espriu", "amenity": "pub", "name": "Butyklan", "smoking": "no"}}, {"type": "node", "id": 3954272082, "lat": 41.3948671, "lon": 2.2005669, "tags": {"addr:city": "Barcelona", "addr:postcode": "08005", "addr:street": "Carrer de Badajoz", "amenity": "fast_food", "name": "Frankfurt Tito Paco"}}, {"type": "node", "id": 3955968257, "lat": 41.3986109, "lon": 2.1978895, "tags": {"addr:city": "Barcelona", "addr:housenumber": "54", "addr:postcode": "08005", "addr:street": "Carrer de la Ciutat de Granada", "amenity": "restaurant", "name": "El rac\u00f3 de les Gl\u00f2ries", "opening_hours": "Mo-Fr 06:30-23:00; Sa-Su 08:00-23:00"}}, {"type": "node", "id": 3957491156, "lat": 41.3955044, "lon": 2.1997211, "tags": {"addr:city": "Barcelona", "addr:housenumber": "28", "addr:postcode": "08005", "addr:street": "Carrer de Badajoz", "amenity": "restaurant", "name": "Restaurante Los Mart\u00ednez"}}, {"type": "node", "id": 3959362811, "lat": 41.3947968, "lon": 2.2007641, "tags": {"addr:city": "Barcelona", "addr:postcode": "08005", "amenity": "restaurant", "name": "El Santet"}}, {"type": "node", "id": 3961174416, "lat": 41.385788, "lon": 2.1970425}, {"type": "node", "id": 3961174417, "lat": 41.3857501, "lon": 2.1970935}, {"type": "node", "id": 3961174418, "lat": 41.3857101, "lon": 2.1970405}, {"type": "node", "id": 3961174419, "lat": 41.385748, "lon": 2.1969896}, {"type": "node", "id": 3962556129, "lat": 41.3995952, "lon": 2.2029522, "tags": {"addr:city": "Barcelona", "addr:postcode": "08005", "addr:street": "Rambla del Poblenou", "amenity": "fast_food", "cuisine": "burger", "name": "El Pibe"}}, {"type": "node", "id": 3969186993, "lat": 41.3957571, "lon": 2.1990075, "tags": {"addr:city": "Barcelona", "addr:housenumber": "27", "addr:postcode": "08005", "addr:street": "Carrer de Badajoz", "name": "Forn Eduard", "shop": "bakery"}}, {"type": "node", "id": 3977369584, "lat": 41.4188394, "lon": 2.1999547, "tags": {"brand": "Granier", "email": "info@pansgranier.com", "name": "Granier", "phone": "+34 933053285", "shop": "bakery", "website": "https://pansgranier.com/", "wheelchair": "yes"}}, {"type": "node", "id": 3999997375, "lat": 41.4103227, "lon": 2.2073445, "tags": {"addr:city": "Barcelona", "addr:housenumber": "49", "addr:postcode": "08019", "addr:street": "Carrer de Vene\u00e7uela", "amenity": "cafe", "name": "Rachel's"}}, {"type": "node", "id": 4042464036, "lat": 41.4106891, "lon": 2.1948579, "tags": {"addr:street": "Carrer de Lope de Vega", "amenity": "restaurant", "name": "Bar Andrade", "opening_hours": "Mo-Su 08:00-24:00"}}, {"type": "node", "id": 4042474702, "lat": 41.4034227, "lon": 2.19997, "tags": {"amenity": "restaurant", "name": "El Timbal"}}, {"type": "node", "id": 4060217594, "lat": 41.3993348, "lon": 2.1997769, "tags": {"addr:city": "Barcelona", "addr:housenumber": "147", "addr:postcode": "08005", "addr:street": "Carrer de Llull", "amenity": "restaurant", "name": "La Taverna del Poblenou"}}, {"type": "node", "id": 4077861461, "lat": 41.3850168, "lon": 2.1962905}, {"type": "node", "id": 4077861462, "lat": 41.3849855, "lon": 2.1963277}, {"type": "node", "id": 4077861463, "lat": 41.3849329, "lon": 2.1962488}, {"type": "node", "id": 4077861464, "lat": 41.3849643, "lon": 2.1962117}, {"type": "node", "id": 4109300971, "lat": 41.4141493, "lon": 2.2018055, "tags": {"shop": "kiosk", "wheelchair": "yes"}}, {"type": "node", "id": 4109428324, "lat": 41.4137479, "lon": 2.2028622, "tags": {"amenity": "bar", "name": "Bar Restaurante Per\u00fa", "wheelchair": "no"}}, {"type": "node", "id": 4109438018, "lat": 41.4147937, "lon": 2.2029456, "tags": {"shop": "kiosk", "wheelchair": "yes"}}, {"type": "node", "id": 4109443629, "lat": 41.4139013, "lon": 2.2017385, "tags": {"name": "Tap i Carbassa", "organic": "yes", "shop": "greengrocer"}}, {"type": "node", "id": 4109445801, "lat": 41.4137235, "lon": 2.2015045, "tags": {"amenity": "restaurant", "name": "La Bona Tapa"}}, {"type": "node", "id": 4109445920, "lat": 41.4136736, "lon": 2.2014244, "tags": {"amenity": "bar", "name": "Xixi", "wheelchair": "limited"}}, {"type": "node", "id": 4109447789, "lat": 41.4135296, "lon": 2.2012189, "tags": {"name": "Mon Pa", "shop": "bakery", "wheelchair": "yes"}}, {"type": "node", "id": 4109448713, "lat": 41.4134666, "lon": 2.201153, "tags": {"name": "El Rac\u00f3 De La Fruita", "shop": "greengrocer", "wheelchair": "limited"}}, {"type": "node", "id": 4138769013, "lat": 41.3970017, "lon": 2.1913538, "tags": {"addr:housenumber": "88", "addr:street": "Carrer de Pamplona", "amenity": "cafe", "name": "SKYE Coffee", "opening_hours": "Mo-Tu 09:00-13:30; We-Fr 09:00-17:00"}}, {"type": "node", "id": 4140583448, "lat": 41.4111801, "lon": 2.2062065, "tags": {"addr:city": "Barcelona", "addr:housenumber": "84", "addr:postcode": "08019", "addr:street": "Carrer de la Selva de Mar", "amenity": "cafe", "name": "Siberia", "smoking": "no"}}, {"type": "node", "id": 4140597629, "lat": 41.395285, "lon": 2.2041755}, {"type": "node", "id": 4140597630, "lat": 41.3952691, "lon": 2.2042033}, {"type": "node", "id": 4140597631, "lat": 41.3952908, "lon": 2.2042255}, {"type": "node", "id": 4140597632, "lat": 41.3952837, "lon": 2.2042378}, {"type": "node", "id": 4140597633, "lat": 41.3953463, "lon": 2.2043017}, {"type": "node", "id": 4140597634, "lat": 41.3953693, "lon": 2.2042616}, {"type": "node", "id": 4142784489, "lat": 41.406689, "lon": 2.1923166, "tags": {"addr:housenumber": "183", "addr:street": "Llacuna", "amenity": "restaurant", "name": "L'Actiu", "opening_hours": "Mo-Fr 08:00-18:00", "website": "www.lactiu.cat"}}, {"type": "node", "id": 4149728853, "lat": 41.4138775, "lon": 2.212077, "tags": {"addr:city": "Barcelona", "addr:housenumber": "139-149", "addr:postcode": "08019", "addr:street": "Carrer de Vene\u00e7uela", "brand": "Mercadona", "brand:wikidata": "Q377705", "brand:wikipedia": "es:Mercadona", "name": "Mercadona", "shop": "supermarket", "website": "https://www.mercadona.es", "wheelchair": "yes"}}, {"type": "node", "id": 4181430754, "lat": 41.3875417, "lon": 2.1981238, "tags": {"amenity": "fast_food", "brand": "Burger King", "brand:wikidata": "Q177054", "brand:wikipedia": "es:Burger King", "cuisine": "burger", "name": "Burger King", "takeaway": "yes"}}, {"type": "node", "id": 4198654503, "lat": 41.387569, "lon": 2.2017332, "tags": {"addr:housenumber": "24", "addr:street": "Moll de Gregal", "amenity": "cafe", "cuisine": "spanish", "email": "info@latabernagallega.com", "internet_access": "wlan", "name": "La Taberna Gallega", "name:es": "La Taberna Gallega", "phone": "+34 93 221 15 24", "website": "https://www.latabernagallega.com/"}}, {"type": "node", "id": 4228932689, "lat": 41.3824268, "lon": 2.1933587}, {"type": "node", "id": 4228932690, "lat": 41.3824652, "lon": 2.1932852}, {"type": "node", "id": 4228932691, "lat": 41.3824452, "lon": 2.1932667}, {"type": "node", "id": 4228932692, "lat": 41.3824068, "lon": 2.1933401}, {"type": "node", "id": 4232426779, "lat": 41.3878228, "lon": 2.1933186}, {"type": "node", "id": 4232426780, "lat": 41.3878309, "lon": 2.1932978}, {"type": "node", "id": 4232426781, "lat": 41.3877333, "lon": 2.1932374}, {"type": "node", "id": 4232426782, "lat": 41.3877268, "lon": 2.1932575}, {"type": "node", "id": 4241610970, "lat": 41.4162983, "lon": 2.2062781, "tags": {"addr:housenumber": "1", "addr:street": "Carrer del Paraguai", "name": "Vila - Forn de Pa", "shop": "bakery"}}, {"type": "node", "id": 4241611851, "lat": 41.4164049, "lon": 2.2064241, "tags": {"addr:housenumber": "3", "addr:street": "Carrer del Paraguai", "name": "Sorli Discau", "shop": "supermarket"}}, {"type": "node", "id": 4241628814, "lat": 41.4183019, "lon": 2.2057143, "tags": {"addr:housenumber": "196-202", "addr:postcode": "08020", "addr:street": "Carrer de Puigcerd\u00e0", "entrance": "yes", "name": "Macxi Pa", "shop": "bakery"}}, {"type": "node", "id": 4241637422, "lat": 41.4183312, "lon": 2.2053724, "tags": {"name": "Sorli Discau", "shop": "supermarket"}}, {"type": "node", "id": 4241645903, "lat": 41.4197657, "lon": 2.2020355, "tags": {"brand": "Caprabo", "brand:wikidata": "Q1980781", "brand:wikipedia": "en:Caprabo", "name": "Caprabo", "shop": "supermarket", "wheelchair": "yes"}}, {"type": "node", "id": 4252690721, "lat": 41.403496, "lon": 2.1984562, "tags": {"shop": "convenience"}}, {"type": "node", "id": 4254663398, "lat": 41.3935914, "lon": 2.1855444, "tags": {"amenity": "restaurant", "cuisine": "spanish", "name": "El Lito Lito"}}, {"type": "node", "id": 4254685758, "lat": 41.3967509, "lon": 2.1929295, "tags": {"amenity": "cafe", "name": "Bread Bucket", "shop": "bakery"}}, {"type": "node", "id": 4254686706, "lat": 41.3970854, "lon": 2.1928808, "tags": {"amenity": "cafe"}}, {"type": "node", "id": 4254716602, "lat": 41.3911175, "lon": 2.1897833, "tags": {"amenity": "restaurant", "name": "Casa de Lina"}}, {"type": "node", "id": 4254719919, "lat": 41.3915479, "lon": 2.1887873, "tags": {"amenity": "cafe", "name": "Ivin"}}, {"type": "node", "id": 4254721225, "lat": 41.3917707, "lon": 2.1889144, "tags": {"amenity": "cafe", "name": "Dulce Parque"}}, {"type": "node", "id": 4254726126, "lat": 41.3925543, "lon": 2.1881212, "tags": {"amenity": "restaurant", "name": "Casa Fidel"}}, {"type": "node", "id": 4254743609, "lat": 41.4013499, "lon": 2.2010764, "tags": {"addr:housenumber": "78", "addr:postcode": "08005", "addr:street": "Rambla del Poblenou", "amenity": "restaurant", "cuisine": "regional", "name": "Caliu del Poblenou"}}, {"type": "node", "id": 4257987389, "lat": 41.4175581, "lon": 2.1875652, "tags": {"addr:housenumber": "32", "addr:street": "Carrer de Josep Estivill", "amenity": "pub", "name": "Club Swinger Charlie Priv\u00e9e"}}, {"type": "node", "id": 4261767089, "lat": 41.3802954, "lon": 2.1876182, "tags": {"amenity": "fast_food", "diet:vegetarian": "no", "name": "Las Fritas"}}, {"type": "node", "id": 4268314624, "lat": 41.4109541, "lon": 2.1986709}, {"type": "node", "id": 4268314625, "lat": 41.4106856, "lon": 2.1987917}, {"type": "node", "id": 4268321791, "lat": 41.4104542, "lon": 2.1980132}, {"type": "node", "id": 4268329032, "lat": 41.4105209, "lon": 2.1985725, "tags": {"access": "customers", "amenity": "parking_entrance", "name": "Mercadona", "operator": "Mercadona", "parking": "underground"}}, {"type": "node", "id": 4275268133, "lat": 41.4159614, "lon": 2.1980819, "tags": {"addr:city": "Barcelona", "addr:postcode": "08020", "addr:street": "Carrer del Concili de Trento", "amenity": "restaurant", "cuisine": "regional,_Taberna_Gallega", "name": "Restaurante Ca L'estrella"}}, {"type": "node", "id": 4281685057, "lat": 41.4181793, "lon": 2.1943443}, {"type": "node", "id": 4281685059, "lat": 41.4182387, "lon": 2.1942623}, {"type": "node", "id": 4281685060, "lat": 41.4182438, "lon": 2.1944275}, {"type": "node", "id": 4281685064, "lat": 41.4183032, "lon": 2.1943454}, {"type": "node", "id": 4284101383, "lat": 41.4183928, "lon": 2.1988281}, {"type": "node", "id": 4284101384, "lat": 41.4185195, "lon": 2.1989956}, {"type": "node", "id": 4284101386, "lat": 41.4185733, "lon": 2.1985878}, {"type": "node", "id": 4284101387, "lat": 41.4186198, "lon": 2.1986503}, {"type": "node", "id": 4284101388, "lat": 41.4186472, "lon": 2.198828}, {"type": "node", "id": 4284101692, "lat": 41.4187003, "lon": 2.1987583}, {"type": "node", "id": 4289659124, "lat": 41.3947754, "lon": 2.1873544, "tags": {"addr:city": "Barcelona", "addr:housenumber": "114", "addr:postcode": "08018", "addr:street": "Carrer de la Marina", "amenity": "restaurant", "name": "MABEL the Granja", "opening_hours": "Mo-Fr 06:00-22:00; Sa 08:00-16:00", "phone": "+34 934 85 20 28", "smoking": "outside"}}, {"type": "node", "id": 4289682653, "lat": 41.3978888, "lon": 2.189968, "tags": {"addr:city": "Barcelona", "addr:housenumber": "96", "addr:postcode": "08018", "addr:street": "Carrer de Pamplona", "amenity": "pub", "name": "Sonora Sport Tavern"}}, {"type": "node", "id": 4290056070, "lat": 41.4181885, "lon": 2.2036622, "tags": {"amenity": "fast_food", "cuisine": "churro", "diet:vegetarian": "no", "name": "Churrer\u00eda A. Mart\u00ednez", "takeaway": "only", "wheelchair": "yes"}}, {"type": "node", "id": 4290727545, "lat": 41.4113766, "lon": 2.2163402, "tags": {"amenity": "restaurant", "cuisine": "spanish", "name": "Can Canyes"}}, {"type": "node", "id": 4294672648, "lat": 41.3872671, "lon": 2.1977129, "tags": {"addr:housenumber": "16", "addr:street": "carrer de la marina", "amenity": "restaurant", "description": "Chicken restaurant in front of the sea", "name": "Chicken bar", "opening_hours": "Mo-Su 12:00-01:00", "phone": "+34932213883", "website": "https://chickenbar.es/"}}, {"type": "node", "id": 4299182493, "lat": 41.3857313, "lon": 2.1973394, "tags": {"amenity": "bar", "name": "Bamb\u00fa Beach Bar"}}, {"type": "node", "id": 4303210630, "lat": 41.4258944, "lon": 2.201237, "tags": {"addr:city": "Barcelona", "addr:country": "ES", "addr:housenumber": "110", "addr:postcode": "08020", "addr:street": "Carrer del Camp Arriassa", "entrance": "yes"}}, {"type": "node", "id": 4306656624, "lat": 41.4166981, "lon": 2.1954962, "tags": {"opening_hours:covid19": "open", "shop": "greengrocer"}}, {"type": "node", "id": 4306656625, "lat": 41.4165078, "lon": 2.1948482, "tags": {"amenity": "pub", "name": "Bar La familia", "name:es": "Bar La familia"}}, {"type": "node", "id": 4306656626, "lat": 41.4165011, "lon": 2.1945684, "tags": {"amenity": "pub"}}, {"type": "node", "id": 4306656627, "lat": 41.4164889, "lon": 2.1947045, "tags": {"addr:housenumber": "37", "addr:postcode": "08020", "addr:street": "Carrer de Huelva", "name": "Celler MF", "name:ca": "Celler MF", "name:es": "Bodega MF", "shop": "wine"}}, {"type": "node", "id": 4306656628, "lat": 41.4159901, "lon": 2.1945467, "tags": {"amenity": "pub", "name": "Bread & breakfast", "wheelchair": "no"}}, {"type": "node", "id": 4306656629, "lat": 41.4157165, "lon": 2.1956625, "tags": {"amenity": "pub", "name": "La Reina", "wheelchair": "limited"}}, {"type": "node", "id": 4306656631, "lat": 41.4158211, "lon": 2.1951019, "tags": {"addr:city": "Barcelona", "addr:housenumber": "245-247", "addr:postcode": "08020", "addr:street": "Carrer de Fluvi\u00e0", "brand": "Caprabo", "brand:wikidata": "Q1980781", "brand:wikipedia": "en:Caprabo", "name": "Caprabo", "shop": "supermarket", "wheelchair": "limited"}}, {"type": "node", "id": 4306656638, "lat": 41.4170803, "lon": 2.1961641, "tags": {"name": "Maxcipa", "operator": "Maxcipa", "shop": "bakery", "wheelchair": "yes"}}, {"type": "node", "id": 4306656640, "lat": 41.4163976, "lon": 2.1965627, "tags": {"name": "Granier", "shop": "bakery", "wheelchair": "yes"}}, {"type": "node", "id": 4306656641, "lat": 41.4164909, "lon": 2.1969017, "tags": {"amenity": "fast_food", "cuisine": "pizza", "delivery": "no", "diet:vegetarian": "no", "drive_through": "yes", "name": "Red Pizza", "phone": "+34 93 266 45 46", "takeaway": "only", "website": "http://www.redpizzasantmarti.es/", "wheelchair": "no"}}, {"type": "node", "id": 4306656644, "lat": 41.4157708, "lon": 2.1951529, "tags": {"amenity": "pub", "name:en": "Tirabuixo Bar"}}, {"type": "node", "id": 4306677673, "lat": 41.4143105, "lon": 2.1924362, "tags": {"amenity": "fast_food", "cuisine": "chicken;_regional", "diet:vegetarian": "no", "name": "El rei dels pollastres", "name:ca": "El rei dels pollastres", "name:es": "El rey de los pollos", "wheelchair": "no"}}, {"type": "node", "id": 4307026120, "lat": 41.4174627, "lon": 2.2047682, "tags": {"brand": "Bon Area", "brand:wikidata": "Q11924743", "brand:wikipedia": "ca:Grup Alimentari Guissona", "name": "Bon Area", "shop": "supermarket"}}, {"type": "node", "id": 4307026122, "lat": 41.4172048, "lon": 2.2044118, "tags": {"amenity": "fast_food", "cuisine": "pizza", "name": "Pizza", "takeaway": "yes"}}, {"type": "node", "id": 4307026123, "lat": 41.4170583, "lon": 2.2042342, "tags": {"addr:housenumber": "1095", "addr:postcode": "08020", "addr:street": "Gran Via de les Corts Catalanes", "amenity": "restaurant", "cuisine": "spanish;galician", "name": "Foxos", "name:ca": "Foxos", "name:en": "Foxos", "name:es": "Foxos", "phone": "+34 933 14 47 60"}}, {"type": "node", "id": 4307026124, "lat": 41.4171202, "lon": 2.2043146, "tags": {"amenity": "restaurant", "cuisine": "asian;chinese"}}, {"type": "node", "id": 4307083049, "lat": 41.4146504, "lon": 2.2010114, "tags": {"amenity": "restaurant", "cuisine": "chinese", "name": "Gran Mundo", "wheelchair": "limited"}}, {"type": "node", "id": 4316590319, "lat": 41.4133679, "lon": 2.1936004, "tags": {"name": "Luca's Fruit", "shop": "greengrocer"}}, {"type": "node", "id": 4318086442, "lat": 41.4107214, "lon": 2.1987434}, {"type": "node", "id": 4318086443, "lat": 41.4108833, "lon": 2.1987642}, {"type": "node", "id": 4318440846, "lat": 41.4149622, "lon": 2.1999723, "tags": {"amenity": "pub"}}, {"type": "node", "id": 4318440847, "lat": 41.4161323, "lon": 2.2018565, "tags": {"amenity": "pub", "name": "Bar Alexandra"}}, {"type": "node", "id": 4322554496, "lat": 41.3917842, "lon": 2.1862048, "tags": {"amenity": "restaurant", "cuisine": "gallega", "name": "Taberna Gallega"}}, {"type": "node", "id": 4325500689, "lat": 41.4171452, "lon": 2.1882484, "tags": {"name": "Bofarull", "shop": "greengrocer"}}, {"type": "node", "id": 4329228551, "lat": 41.3920883, "lon": 2.1857854, "tags": {"addr:city": "Barcelona", "addr:housenumber": "17", "addr:postcode": "08018", "addr:street": "Carrer de Wellington", "amenity": "cafe", "cuisine": "brazilian", "name": "Bar Santa F\u00e9", "opening_hours": "Mo-Fr 07:30-17:00"}}, {"type": "node", "id": 4334598705, "lat": 41.4076799, "lon": 2.189368, "tags": {"brand": "Bon Area", "brand:wikidata": "Q11924743", "brand:wikipedia": "ca:Grup Alimentari Guissona", "name": "Bon Area", "shop": "supermarket", "wheelchair": "no"}}, {"type": "node", "id": 4335096941, "lat": 41.4131069, "lon": 2.19411, "tags": {"brand": "Condis", "brand:wikidata": "Q57417581", "name": "Condis", "shop": "supermarket"}}, {"type": "node", "id": 4338728045, "lat": 41.4103468, "lon": 2.2005037}, {"type": "node", "id": 4338728053, "lat": 41.4106043, "lon": 2.2001671}, {"type": "node", "id": 4338728054, "lat": 41.4106133, "lon": 2.2008591}, {"type": "node", "id": 4338728061, "lat": 41.4108342, "lon": 2.200476}, {"type": "node", "id": 4338728062, "lat": 41.4108688, "lon": 2.2005225}, {"type": "node", "id": 4339685494, "lat": 41.4209608, "lon": 2.2056791, "tags": {"addr:housenumber": "145", "addr:postcode": "08020", "addr:street": "Rambla de Prim", "amenity": "bar", "cuisine": "sandwich;coffee_shop", "internet_access": "wlan", "name": "Bar Granja L'Espill"}}, {"type": "node", "id": 4341352095, "lat": 41.4194489, "lon": 2.2161153}, {"type": "node", "id": 4341352100, "lat": 41.4194821, "lon": 2.2160713}, {"type": "node", "id": 4345425031, "lat": 41.4203215, "lon": 2.2082873, "tags": {"addr:city": "Barcelona", "addr:housenumber": "160", "addr:postcode": "08020", "addr:street": "Rambla de Prim", "amenity": "restaurant", "name": "La Cantonada de Prim", "smoking": "outside"}}, {"type": "node", "id": 4346058258, "lat": 41.3819459, "lon": 2.1875804, "tags": {"amenity": "restaurant", "name": "La Tasqueta 1800"}}, {"type": "node", "id": 4346562600, "lat": 41.3934288, "lon": 2.1882383, "tags": {"shop": "supermarket"}}, {"type": "node", "id": 4347735694, "lat": 41.4218024, "lon": 2.2048464, "tags": {"addr:housenumber": "155-7", "addr:postcode": "08020", "addr:street": "Rambla de Prim", "brand": "Dia", "brand:wikidata": "Q925132", "brand:wikipedia": "es:DIA (supermercados)", "name": "Dia", "phone": "+34 902453453", "shop": "supermarket", "wheelchair": "limited"}}, {"type": "node", "id": 4348331496, "lat": 41.4207947, "lon": 2.2054905, "tags": {"addr:postcode": "08020", "addr:street": "Carrer de Duoda", "name": "La Bodega", "shop": "beverages"}}, {"type": "node", "id": 4352594692, "lat": 41.4229043, "lon": 2.2061095, "tags": {"shop": "greengrocer"}}, {"type": "node", "id": 4353907289, "lat": 41.3920465, "lon": 2.1857395, "tags": {"amenity": "restaurant", "cuisine": "brazilian", "internet_access": "wlan", "name": "Bar Santa Fe", "opening_hours": "Mo-Fr 07:30-17:00"}}, {"type": "node", "id": 4374244822, "lat": 41.3935502, "lon": 2.205339, "tags": {"addr:housenumber": "62", "addr:postcode": "08005", "addr:street": "Avinguda del Litoral", "amenity": "restaurant", "cuisine": "mediterranean", "name:en": "Xiringuito Escriba", "opening_hours": "Mo-Su 12:00-00:00", "phone": "+34 932 210 729", "website": "http://www.xiringuitoescriba.com/"}}, {"type": "node", "id": 4374244854, "lat": 41.3916487, "lon": 2.2034829, "tags": {"amenity": "restaurant", "name": "Xiroi"}}, {"type": "node", "id": 4374244931, "lat": 41.3946046, "lon": 2.2062187, "tags": {"amenity": "restaurant"}}, {"type": "node", "id": 4374245300, "lat": 41.3911095, "lon": 2.2020613, "tags": {"amenity": "restaurant", "cuisine": "regional", "name": "Chiringuito Las Sardinitas"}}, {"type": "node", "id": 4378968935, "lat": 41.4149686, "lon": 2.2170577, "tags": {"shop": "convenience"}}, {"type": "node", "id": 4378972232, "lat": 41.4143208, "lon": 2.2179992, "tags": {"shop": "convenience"}}, {"type": "node", "id": 4384817989, "lat": 41.3803721, "lon": 2.1887387, "tags": {"addr:housenumber": "34", "addr:postcode": "08003", "addr:street": "Carrer del Baluard", "amenity": "restaurant", "cuisine": "burger;sandwich", "email": "brogrillandbread@gmail.com", "name": "BRO Barceloneta", "opening_hours": "Mo-Fr 13:00-16:30,20:00-23:30; Sa-Su 13:00-23:30", "phone": "+34932210070", "website": "https://brobarcelona.com"}}, {"type": "node", "id": 4390982748, "lat": 41.4045637, "lon": 2.211469, "tags": {"addr:city": "Barcelona", "addr:hamlet": "Palo Alto", "addr:housenumber": "30-38", "addr:postcode": "08019", "addr:street": "Carrer Pellaires", "amenity": "restaurant", "contact:email": "olga@paloaltobcn.com", "contact:phone": "+34 93 307 09 74", "contact:website": "http://www.paloaltobcn.org/", "name": "la cantina de Palo Alto", "opening_hours": "mo-fr 13:00-15:30", "smoking": "outside"}}, {"type": "node", "id": 4391593389, "lat": 41.4009367, "lon": 2.201263, "tags": {"amenity": "restaurant", "name": "Brisa sin prisa", "name:es": "Brisa sin prisa"}}, {"type": "node", "id": 4391707691, "lat": 41.3922258, "lon": 2.198576, "tags": {"amenity": "cafe"}}, {"type": "node", "id": 4391716589, "lat": 41.3931177, "lon": 2.1995985, "tags": {"shop": "supermarket"}}, {"type": "node", "id": 4393925492, "lat": 41.3918921, "lon": 2.1909106, "tags": {"amenity": "restaurant", "name": "Urretxu", "name:es": "Urretxu", "opening_hours:covid19": "off"}}, {"type": "node", "id": 4393971982, "lat": 41.4249531, "lon": 2.2298325, "tags": {"amenity": "pub", "name": "Bar 72", "smoking": "outside"}}, {"type": "node", "id": 4393971983, "lat": 41.4250738, "lon": 2.2296367, "tags": {"amenity": "pub", "name": "Frankfurt el faro", "smoking": "outside"}}, {"type": "node", "id": 4396244190, "lat": 41.3891657, "lon": 2.1969678, "tags": {"addr:housenumber": "31-35", "addr:street": "Carrer de Salvador Espriu", "amenity": "restaurant", "name": "Fresc Co", "name:es": "Fresc Co", "outdoor_seating": "yes", "phone": "+34 932219038", "takeaway": "yes", "website": "http://www.frescco.com"}}, {"type": "node", "id": 4399538501, "lat": 41.4213856, "lon": 2.1993078, "tags": {"addr:housenumber": "52", "addr:street": "Carrer de Cant\u00e0bria", "amenity": "bar", "cuisine": "burger;sandwich;pizza;italian_pizza;tapas", "internet_access": "wlan", "name": "Champanillo el Menorca", "name:es": "Champanillo el Menorca", "phone": "+34 931241748", "wheelchair": "limited"}}, {"type": "node", "id": 4401234193, "lat": 41.3812305, "lon": 2.1854573, "tags": {"addr:city": "Barcelona", "addr:housenumber": "1", "addr:postcode": "08039", "addr:street": "Pla\u00e7a de Pau Vila", "amenity": "pub", "cuisine": "asian;american", "email": "hola@blacklab.es", "name": "BlackLab Brewhouse & Kitchen", "opening_hours": "Mo,Tu 16:00-00:00; We,Th 12:30-00:00; Fr,Sa 12:30-01:00; Su 10:30-23:00", "phone": "+34 633 691 906", "real_ale": "yes", "start_date": "2014", "website": "https://blacklab.es"}}, {"type": "node", "id": 4403213750, "lat": 41.4299071, "lon": 2.2194499, "tags": {"addr:city": "Sant Adri\u00e0 de Bes\u00f2s", "addr:housenumber": "9", "addr:postcode": "08930", "addr:street": "Carrer de Maragall", "amenity": "restaurant", "contact:phone": "+34 933 81 07 21", "cuisine": "galician", "name": "Pulpero de Lugo", "smoking": "outside"}}, {"type": "node", "id": 4407259289, "lat": 41.3812277, "lon": 2.1902148, "tags": {"addr:street": "carrer de la maquinista", "amenity": "restaurant", "cuisine": "pizza;italian_pizza", "internet_access": "wlan", "name": "Buon Appetito", "name:es": "Buon Appetito", "phone": "+34 932684016"}}, {"type": "node", "id": 4433349226, "lat": 41.3968843, "lon": 2.2102392}, {"type": "node", "id": 4433349227, "lat": 41.3968446, "lon": 2.210323}, {"type": "node", "id": 4433349228, "lat": 41.3965873, "lon": 2.2101359}, {"type": "node", "id": 4433349229, "lat": 41.3966203, "lon": 2.2100553}, {"type": "node", "id": 4433349230, "lat": 41.3966216, "lon": 2.2101603}, {"type": "node", "id": 4434404216, "lat": 41.4214112, "lon": 2.2042005, "tags": {"name": "Sorli discau", "shop": "supermarket"}}, {"type": "node", "id": 4434449200, "lat": 41.4206827, "lon": 2.2032339, "tags": {"addr:housenumber": "122", "addr:postcode": "08020", "addr:street": "Rambla de Guip\u00fascoa", "brand": "Condis", "brand:wikidata": "Q57417581", "name": "Condis", "shop": "supermarket", "wheelchair": "yes"}}, {"type": "node", "id": 4440352791, "lat": 41.3807532, "lon": 2.1853211, "tags": {"amenity": "restaurant", "name": "La Gavina", "wheelchair": "yes"}}, {"type": "node", "id": 4441805790, "lat": 41.4125412, "lon": 2.1902351, "tags": {"addr:postcode": "08027", "addr:street": "Carrer de Las Navas de Tolosa", "amenity": "bar", "cuisine": "sandwich;local;coffee_shop", "name": "Montferry", "name:ca": "Montferry"}}, {"type": "node", "id": 4457189290, "lat": 41.3803594, "lon": 2.1878722, "tags": {"addr:housenumber": "29", "addr:postcode": "08003", "addr:street": "Carrer del Mar", "amenity": "restaurant", "name": "Bodega La Peninsular", "name:ca": "Bodega La Peninsular", "name:en": "Bodega La Peninsular", "name:es": "Bodega La Peninsular", "name:ro": "Bodega La Peninsular", "phone": "+34 932 21 40 89", "website": "http://www.tabernaycafetin.es"}}, {"type": "node", "id": 4475764535, "lat": 41.4300461, "lon": 2.2272446}, {"type": "node", "id": 4475764538, "lat": 41.4302086, "lon": 2.2277155}, {"type": "node", "id": 4475764539, "lat": 41.4302715, "lon": 2.2270171}, {"type": "node", "id": 4475764543, "lat": 41.4305583, "lon": 2.2273685}, {"type": "node", "id": 4510066192, "lat": 41.4071483, "lon": 2.2032044, "tags": {"addr:housenumber": "109", "addr:postcode": "08005", "addr:street": "Avinguda Diagonal", "amenity": "restaurant", "cuisine": "spanish;argentinian;grill", "name": "Can Oliva", "name:ca": "Can Oliva", "name:en": "Can Oliva", "name:es": "Can Oliva", "phone": "+34 932 66 08 95"}}, {"type": "node", "id": 4510147389, "lat": 41.4158356, "lon": 2.1976975, "tags": {"addr:housenumber": "10", "addr:postcode": "08020", "addr:street": "Carrer de Julian Besteiro", "name": "Pastisseria Sanz", "name:es": "Pasteler\u00eda Sanz", "opening_hours": "Mo-Sa 08:00-20:30; Su 08:00-14:30", "phone": "+34 93 308 08 98", "shop": "pastry"}}, {"type": "node", "id": 4518693470, "lat": 41.4023358, "lon": 2.201295, "tags": {"addr:housenumber": "187", "addr:street": "Pujades", "amenity": "restaurant", "name": "Minyam"}}, {"type": "node", "id": 4524478735, "lat": 41.4217975, "lon": 2.1976146, "tags": {"addr:housenumber": "7-9", "addr:street": "Carrer del Pont del Treball Digne", "name:en": "Panaderia i pastisseria Joan", "phone": "+34 933131069", "shop": "bakery", "wheelchair": "no"}}, {"type": "node", "id": 4524578805, "lat": 41.4207818, "lon": 2.1988116, "tags": {"addr:housenumber": "80-82", "addr:postcode": "08020", "addr:street": "Carrer de Menorca", "amenity": "pub", "cuisine": "breakfast;burger;friture;spanish;tapas", "name:en": "Lam\u00e1ro", "phone": "+34 931861246"}}, {"type": "node", "id": 4524595407, "lat": 41.4215259, "lon": 2.1981328, "tags": {"amenity": "bar", "name:en": "Bar Miguel"}}, {"type": "node", "id": 4524595611, "lat": 41.4208116, "lon": 2.1981964, "tags": {"amenity": "bar", "name:en": "La Misi\u00f3n"}}, {"type": "node", "id": 4533888598, "lat": 41.4017771, "lon": 2.2059149, "tags": {"amenity": "restaurant", "name": "Piazza grande"}}, {"type": "node", "id": 4533901401, "lat": 41.4017834, "lon": 2.2059153, "tags": {"addr:housenumber": "10", "addr:street": "Pla\u00e7a de Julio Gonz\u00e1lez", "amenity": "restaurant", "description": "Italian Restaurant", "name": "Restaurant Piazza Grande"}}, {"type": "node", "id": 4534907393, "lat": 41.4058059, "lon": 2.1905307, "tags": {"addr:housenumber": "866-872", "addr:street": "Gran Via de les Corts Catalanes"}}, {"type": "node", "id": 4534954334, "lat": 41.4047773, "lon": 2.1918877}, {"type": "node", "id": 4551468592, "lat": 41.399754, "lon": 2.2118845, "tags": {"amenity": "bar", "name": "Bamb\u00fa Beach Bar"}}, {"type": "node", "id": 4552992689, "lat": 41.400387, "lon": 2.2023554, "tags": {"addr:housenumber": "56", "addr:street": "Rambla del Poblenou", "amenity": "restaurant", "cuisine": "spanish", "name": "Colom", "name:en": "Colom", "name:es": "Colom"}}, {"type": "node", "id": 4553695195, "lat": 41.4023142, "lon": 2.2014938, "tags": {"addr:housenumber": "187", "addr:street": "Carrer de Pujades", "amenity": "restaurant", "name": "Minyam", "name:es": "Minyam"}}, {"type": "node", "id": 4554552290, "lat": 41.4115684, "lon": 2.1955013, "tags": {"amenity": "bar"}}, {"type": "node", "id": 4555825534, "lat": 41.400747, "lon": 2.2135026, "tags": {"amenity": "pub", "name": "Bar Q"}},