{"version": 0.6, "generator": "Overpass API 0.7.58.5 b0c4acbb", "osm3s": {"timestamp_osm_base": "2022-09-03T10:29:18Z", "copyright": "The data included in this document is from www.openstreetmap.org. The data is made available under ODbL."}, "elements": [{"type": "node", "id": 6164139387, "lat": 41.405663, "lon": 2.1910001, "tags": {"addr:city": "Barcelona", "addr:country": "ES", "addr:housenumber": "208", "addr:postcode": "08018", "addr:street": "Avinguda Diagonal", "branch": "Centro Comercial Glories", "contact:phone": "+34 687611817", "name": "Sephora", "opening_hours": "Mo-Sa 09:00-21:00", "shop": "cosmetics", "survey:date": "2022-01-19"}}, {"type": "node", "id": 6501527867, "lat": 41.4050046, "lon": 2.1908037, "tags": {"name": "Kiehl's", "shop": "cosmetics", "survey:date": "2022-01-19"}}, {"type": "node", "id": 6501527978, "lat": 41.4051338, "lon": 2.1905857, "tags": {"name": "H&M", "shop": "clothes"}}, {"type": "node", "id": 6588176185, "lat": 41.40478, "lon": 2.1900261, "tags": {"name": "C&A", "opening_hours": "Mo-Sa 09:00-21:00", "shop": "clothes"}}, {"type": "node", "id": 7555814340, "lat": 41.4069286, "lon": 2.1932817, "tags": {"name": "Euro100 Sant Mart\u00ed", "shop": "variety_store"}}, {"type": "node", "id": 7559103785, "lat": 41.4072762, "lon": 2.1947953, "tags": {"shop": "hairdresser"}}, {"type": "node", "id": 7559103986, "lat": 41.4074493, "lon": 2.1935732, "tags": {"shop": "hairdresser"}}, {"type": "node", "id": 7559103987, "lat": 41.4074197, "lon": 2.1935329, "tags": {"name": "AcuMedic", "shop": "beauty"}}, {"type": "node", "id": 7559103988, "lat": 41.4073289, "lon": 2.1934071, "tags": {"name": "Slawa", "shop": "hairdresser"}}, {"type": "node", "id": 7559166784, "lat": 41.4076412, "lon": 2.1934115, "tags": {"shop": "hairdresser"}}, {"type": "node", "id": 7778052585, "lat": 41.4052837, "lon": 2.1907956, "tags": {"name": "Hollister", "name:en": "Hollister", "shop": "clothes"}}, {"type": "node", "id": 8049731609, "lat": 41.4071197, "lon": 2.1947997, "tags": {"name": "Backstage", "shop": "hairdresser"}}, {"type": "node", "id": 8090404618, "lat": 41.4062367, "lon": 2.1902063, "tags": {"name": "Moda Amiga. Fundaci\u00f2 Engrunes", "shop": "charity"}}, {"type": "node", "id": 8489754260, "lat": 41.404883, "lon": 2.1902253, "tags": {"name": "Primor", "shop": "clothes", "survey:date": "2022-01-19"}}, {"type": "node", "id": 8489754261, "lat": 41.4048848, "lon": 2.190645, "tags": {"name": "Pandora", "shop": "jewelry"}}, {"type": "node", "id": 8489754262, "lat": 41.4045882, "lon": 2.1903262, "tags": {"name": "Massimo Dutti", "shop": "clothes"}}, {"type": "node", "id": 8489754263, "lat": 41.40499, "lon": 2.1912247, "tags": {"name": "Uniqlo", "shop": "clothes", "survey:date": "2022-01-19"}}, {"type": "node", "id": 8489792523, "lat": 41.4047703, "lon": 2.1904961, "tags": {"brand": "Zara", "brand:wikidata": "Q147662", "brand:wikipedia": "en:Zara (retailer)", "name": "Zara", "shop": "clothes"}}, {"type": "node", "id": 8489792524, "lat": 41.4049742, "lon": 2.1903403, "tags": {"brand": "Oysho", "brand:wikidata": "Q3327046", "brand:wikipedia": "en:Oysho", "name": "Oysho", "shop": "clothes", "survey:date": "2022-01-19"}}, {"type": "node", "id": 9431243718, "lat": 41.4051129, "lon": 2.1909634, "tags": {"brand": "L'Occitane", "brand:wikidata": "Q1880676", "brand:wikipedia": "en:L'Occitane en Provence", "name": "L'Occitane", "shop": "cosmetics", "survey:date": "2022-01-19"}}, {"type": "node", "id": 9431243719, "lat": 41.4050659, "lon": 2.1911432, "tags": {"name": "Nyx", "shop": "beauty", "survey:date": "2022-01-19"}}, {"type": "node", "id": 9431243720, "lat": 41.4051665, "lon": 2.1907309, "tags": {"level": "-1", "name": "Sfera", "shop": "clothes", "survey:date": "2022-01-19"}}, {"type": "node", "id": 9431243721, "lat": 41.4050609, "lon": 2.1905941, "tags": {"level": "-1", "name": "Scalpers", "shop": "clothes", "survey:date": "2022-01-19"}}, {"type": "node", "id": 9431243722, "lat": 41.4045861, "lon": 2.1904229, "tags": {"level": "-1", "name": "u-casas", "shop": "shoes", "survey:date": "2022-01-19"}}, {"type": "node", "id": 9431243723, "lat": 41.4052249, "lon": 2.1910089, "tags": {"level": "-1", "name": "Rituals...", "shop": "cosmetics", "survey:date": "2022-01-19"}}, {"type": "node", "id": 9431243818, "lat": 41.40506, "lon": 2.1908903, "tags": {"brand": "Bimba y Lola", "brand:wikidata": "Q54869493", "brand:wikipedia": "es:Bimba y Lola", "name": "Bimba y Lola", "shop": "clothes", "survey:date": "2022-01-19"}}, {"type": "node", "id": 9431243819, "lat": 41.405372, "lon": 2.1907099, "tags": {"name": "Tous", "shop": "bag", "survey:date": "2022-01-19"}}, {"type": "node", "id": 9431243820, "lat": 41.4052543, "lon": 2.1908356, "tags": {"brand": "Pull & Bear", "brand:wikidata": "Q691029", "brand:wikipedia": "en:Pull&Bear", "level": "-1", "name": "Pull & Bear", "shop": "clothes", "survey:date": "2022-01-19"}}, {"type": "node", "id": 9431243822, "lat": 41.4048712, "lon": 2.1900556, "tags": {"brand": "Jack & Jones", "brand:wikidata": "Q6077665", "brand:wikipedia": "en:Jack & Jones", "level": "-1", "name": "Jack & Jones", "shop": "clothes", "survey:date": "2022-01-19"}}, {"type": "node", "id": 9431243823, "lat": 41.4048482, "lon": 2.1904892, "tags": {"clothes": "underwear", "level": "-1", "name": "Women'secret", "shop": "clothes", "survey:date": "2022-01-19"}}, {"type": "node", "id": 9431243825, "lat": 41.4050659, "lon": 2.1907954, "tags": {"brand": "Celio", "brand:wikidata": "Q2672003", "brand:wikipedia": "en:Celio (retailer)", "level": "-1", "name": "Celio", "shop": "clothes", "survey:date": "2022-01-19"}}, {"type": "node", "id": 9431243917, "lat": 41.4051214, "lon": 2.1910556, "tags": {"name": "Munich", "shop": "shoes", "survey:date": "2022-01-19"}}, {"type": "node", "id": 9431243918, "lat": 41.4051255, "lon": 2.1908753, "tags": {"clothes": "underwear", "level": "-1", "name": "intimissi uomo", "shop": "clothes", "survey:date": "2022-01-19"}}, {"type": "node", "id": 9431243919, "lat": 41.4051727, "lon": 2.1909422, "tags": {"clothes": "underwear", "level": "-1", "name": "intimissi italian lingerie", "shop": "clothes", "survey:date": "2022-01-19"}}, {"type": "node", "id": 9431244118, "lat": 41.4049413, "lon": 2.1904467, "tags": {"level": "-1", "name": "JD", "shop": "clothes", "survey:date": "2022-01-19"}}, {"type": "node", "id": 9431244317, "lat": 41.4049061, "lon": 2.1901654, "tags": {"level": "-1", "name": "lefties", "shop": "clothes", "survey:date": "2022-01-19"}}, {"type": "node", "id": 9431244318, "lat": 41.4046463, "lon": 2.1904869, "tags": {"level": "-1", "name": "Cortefiel", "shop": "clothes", "survey:date": "2022-01-19"}}, {"type": "node", "id": 9431244319, "lat": 41.404933, "lon": 2.1906289, "tags": {"brand": "United Colors of Benetton", "brand:wikidata": "Q817139", "brand:wikipedia": "en:Benetton Group", "level": "-1", "name": "United Colors of Benetton", "shop": "clothes", "short_name": "Benetton", "survey:date": "2022-01-19"}}]}