{"version": 0.6, "generator": "Overpass API 0.7.58.5 b0c4acbb", "osm3s": {"timestamp_osm_base": "2022-09-12T20:17:08Z", "copyright": "The data included in this document is from www.openstreetmap.org. The data is made available under ODbL."}, "elements": [{"type": "node", "id": 765060806, "lat": 41.4049208, "lon": 2.1575918, "tags": {"amenity": "cafe", "name": "Virreina Bar", "wheelchair": "limited"}}, {"type": "node", "id": 765796519, "lat": 41.4049767, "lon": 2.1575215, "tags": {"addr:street": "2 Pla\u00e7a de la Virreina", "amenity": "cafe", "name": "La Cafetera", "outdoor_seating": "terrace", "survey:date": "2022-01-21", "wheelchair": "limited"}}, {"type": "node", "id": 765895092, "lat": 41.404891, "lon": 2.1569592, "tags": {"addr:street": "Pla\u00e7a Virreina 5", "amenity": "cafe", "name": "Terra Bar"}}, {"type": "node", "id": 956345141, "lat": 41.4031186, "lon": 2.1540125, "tags": {"addr:city": "Barcelona", "addr:housenumber": "22", "addr:street": "Carrer d'Ast\u00faries", "amenity": "fast_food", "cuisine": "asian", "drink:club-mate": "retail", "name": "Woki Market"}}, {"type": "node", "id": 1008166706, "lat": 41.4073333, "lon": 2.1583965, "tags": {"addr:housenumber": "1", "addr:street": "Pla\u00e7a de Rovira i Trias", "amenity": "cafe", "cuisine": "tapas", "name": "Cafe Flanders", "opening_hours": "Su-Th 08:45-23:45; Fr-Sa 08:45-00:45", "wheelchair": "limited"}}, {"type": "node", "id": 1050141036, "lat": 41.4037112, "lon": 2.1620046, "tags": {"addr:city": "Barcelona", "addr:housenumber": "244", "addr:postcode": "08037", "addr:street": "Carrer de Bailen", "amenity": "bar", "cuisine": "tapas", "email": "pinneos1935@telefonica.net", "name": "Pirineus 1935 Bar & Cuina", "opening_hours": "Mo-Su 07:00-02:30", "source": "survey"}}, {"type": "node", "id": 1050141054, "lat": 41.402144, "lon": 2.1579689, "tags": {"addr:city": "Barcelona", "addr:housenumber": "12", "addr:street": "Carrer de Ramon i Cajal", "amenity": "bar", "name": "La llavor dels origens"}}, {"type": "node", "id": 1177498341, "lat": 41.4074238, "lon": 2.1585521, "tags": {"addr:city": "Barcelona", "addr:housenumber": "2", "addr:postcode": "08024", "addr:street": "Pla\u00e7a de Rovira i Trias", "amenity": "restaurant", "cuisine": "tapas;Tapes", "name": "Casa Vall", "name:ca": "Casa Vall", "outdoor_seating": "yes", "wheelchair": "yes"}}, {"type": "node", "id": 1314941021, "lat": 41.4027848, "lon": 2.1564269, "tags": {"addr:housenumber": "121", "addr:postcode": "08012", "addr:street": "Torent de l'Olla", "amenity": "bar", "drink:club-mate": "served", "name": "la Clotxa"}}, {"type": "node", "id": 1340330348, "lat": 41.4057379, "lon": 2.1623365, "tags": {"shop": "convenience"}}, {"type": "node", "id": 1340330367, "lat": 41.4052393, "lon": 2.1630302, "tags": {"name": "Quiosc Albert Collado", "shop": "kiosk"}}, {"type": "node", "id": 1340330374, "lat": 41.4057927, "lon": 2.1624391, "tags": {"addr:housenumber": "69", "addr:postcode": "08024", "addr:street": "Carrer de Bruniquer", "amenity": "restaurant", "branch": "Pla\u00e7a Joanic", "name": "Ugarit", "phone": "+34932856706", "website": "ugarit.es", "wheelchair": "yes"}}, {"type": "node", "id": 1345276626, "lat": 41.4043002, "lon": 2.1546721, "tags": {"addr:housenumber": "155", "addr:street": "Carrer de Torrent de l'Olla", "amenity": "fast_food", "cuisine": "pizza", "name": "Pizza Rapid"}}, {"type": "node", "id": 1357211189, "lat": 41.4053041, "lon": 2.1599362, "tags": {"addr:city": "Barcelona", "addr:housenumber": "37", "addr:postcode": "08012", "addr:street": "Carrer de Sant Llu\u00eds", "amenity": "restaurant", "contact:phone": "+34932102953", "cuisine": "italian", "name": "Il Giardinetto di Gracia", "operator": "Hosteco Restauraci\u00f3 S.L.", "ref:vatin": "ESB08823353"}}, {"type": "node", "id": 1357211191, "lat": 41.4049058, "lon": 2.159524, "tags": {"addr:housenumber": "24", "addr:street": "Carrer de Sant Llu\u00eds", "amenity": "restaurant", "cuisine": "regional", "name": "Restaurant El Glop", "opening_hours": "Mo-Su 13:00-01:00"}}, {"type": "node", "id": 1357211197, "lat": 41.4040442, "lon": 2.1580138, "tags": {"addr:country": "ES", "name": "Forn de la Virreina", "shop": "bakery", "wheelchair": "limited"}}, {"type": "node", "id": 1357211198, "lat": 41.4036871, "lon": 2.1577264, "tags": {"amenity": "bar", "name": "Ikastola", "toilets:wheelchair": "no", "wheelchair": "limited"}}, {"type": "node", "id": 1357211202, "lat": 41.4030244, "lon": 2.1538482, "tags": {"addr:city": "Barcelona", "addr:country": "ES", "addr:housenumber": "20", "addr:street": "Carrer d'Ast\u00faries", "name": "Micaela", "opening_hours": "Mo-Su 09:00-24:00; Sa 10:00-24:00, Su 12:00-24:00", "shop": "bakery", "wheelchair": "yes"}}, {"type": "node", "id": 1368518012, "lat": 41.4049736, "lon": 2.1594408, "tags": {"name": "Alimentaci\u00f3 Bach", "opening_hours:signed": "no", "shop": "convenience"}}, {"type": "node", "id": 1368518046, "lat": 41.4043193, "lon": 2.1602354, "tags": {"amenity": "bar", "name": "L'Oficina II", "wheelchair": "limited"}}, {"type": "node", "id": 1368518058, "lat": 41.4034377, "lon": 2.1612836, "tags": {"addr:country": "ES", "diet:vegan": "yes", "name": "Santa Clara", "shop": "bakery"}}, {"type": "node", "id": 1368518960, "lat": 41.4014685, "lon": 2.1578742, "tags": {"amenity": "bar", "name": "El Otro Bar", "wheelchair": "no"}}, {"type": "node", "id": 1368518971, "lat": 41.4016993, "lon": 2.1575736, "tags": {"amenity": "pub", "name": "DeDues"}}, {"type": "node", "id": 1368519092, "lat": 41.4010659, "lon": 2.1546092, "tags": {"amenity": "restaurant", "name": "Somod\u00f3 Restaurant"}}, {"type": "node", "id": 1375988894, "lat": 41.4039284, "lon": 2.155133, "tags": {"name": "Pastisseria Forn de Sant Joan", "shop": "confectionery"}}, {"type": "node", "id": 1377225831, "lat": 41.403107, "lon": 2.1540234, "tags": {"addr:city": "Barcelona", "addr:housenumber": "22", "addr:street": "Carrer d'Ast\u00faries", "name": "Woki Market", "organic": "only", "shop": "supermarket", "wheelchair": "yes"}}, {"type": "node", "id": 1377225843, "lat": 41.4019519, "lon": 2.15467, "tags": {"addr:housenumber": "17", "addr:street": "carrer del Montseny", "shop": "alcohol"}}, {"type": "node", "id": 1377225847, "lat": 41.4047765, "lon": 2.1609566, "tags": {"addr:country": "ES", "name": "Pasta Fresca Spada", "shop": "bakery", "wheelchair": "limited"}}, {"type": "node", "id": 1377225859, "lat": 41.4018638, "lon": 2.1544783, "tags": {"amenity": "bar", "name": "La Pausa"}}, {"type": "node", "id": 1377225928, "lat": 41.4055038, "lon": 2.160265, "tags": {"addr:housenumber": "47", "addr:street": "Carrer de Sant Llu\u00eds", "amenity": "bar", "contact:facebook": "https://m.facebook.com/GatoNegro.BCN/?locale2=es_LA", "name": "Gato Negro / Gat Negre"}}, {"type": "node", "id": 1377259231, "lat": 41.4024637, "lon": 2.1582859, "tags": {"name": "Quiosc Revoluci\u00f3", "shop": "kiosk"}}, {"type": "node", "id": 1420760619, "lat": 41.4032976, "lon": 2.1533482, "tags": {"addr:city": "Barcelona", "addr:housenumber": "14", "addr:street": "Carrer de Santa Rosa", "amenity": "bar", "name": "\u00cdtaca"}}, {"type": "node", "id": 1420760630, "lat": 41.4042328, "lon": 2.1555704, "tags": {"addr:city": "Barcelona", "addr:housenumber": "67", "addr:street": "Carrer d'Ast\u00faries", "amenity": "bar", "name": "Diamant"}}, {"type": "node", "id": 1420760631, "lat": 41.4040105, "lon": 2.1552111, "tags": {"addr:city": "Barcelona", "addr:housenumber": "57", "addr:street": "Carrer d'Ast\u00faries", "amenity": "ice_cream", "cuisine": "horchata", "name": "Orxateria Asturies", "takeaway": "yes", "wheelchair": "yes"}}, {"type": "node", "id": 1420760632, "lat": 41.4034714, "lon": 2.1543577, "tags": {"addr:city": "Barcelona", "addr:country": "ES", "addr:housenumber": "35", "addr:street": "Carrer d'Ast\u00faries", "name": "Mistral", "shop": "bakery"}}, {"type": "node", "id": 1429900104, "lat": 41.4028189, "lon": 2.1563883, "tags": {"addr:city": "Barcelona", "addr:housenumber": "123", "addr:postcode": "08012", "addr:street": "Carrer del Torrent de l'Olla", "amenity": "restaurant", "cuisine": "greek", "email": "latabernagriega.97@hotmail.com", "name": "La Taberna Griega", "phone": "+34 932187226", "website": "https://www.latabernagriega.com"}}, {"type": "node", "id": 1471967102, "lat": 41.4020873, "lon": 2.1569124, "tags": {"amenity": "bar", "name": "Entresol"}}, {"type": "node", "id": 1483279483, "lat": 41.4077875, "lon": 2.1578191, "tags": {"addr:city": "Barcelona", "addr:housenumber": "37", "addr:postcode": "08024", "addr:street": "Carrer de Rabassa", "amenity": "restaurant", "cuisine": "spanish", "name": "La Panxolina", "smoking": "no", "wheelchair": "limited"}}, {"type": "node", "id": 1483279773, "lat": 41.4097288, "lon": 2.1552549, "tags": {"shop": "kiosk"}}, {"type": "node", "id": 1483280564, "lat": 41.4080772, "lon": 2.1567221, "tags": {"name": "Sorli Discau", "shop": "supermarket", "wheelchair": "yes"}}, {"type": "node", "id": 1513611046, "lat": 41.4036039, "lon": 2.1580358, "tags": {"amenity": "restaurant", "email": "info@bambulounge.es", "internet_access": "wlan", "internet_access:fee": "no", "name": "Bamb\u00fa Lounge", "opening_hours": "Su-Th 20:00-2:30, Fr-Sa 20:00-3:00", "phone": "+34933686883", "website": "http://www.bambulounge.es"}}, {"type": "node", "id": 1513614853, "lat": 41.4015756, "lon": 2.1563406, "tags": {"addr:housenumber": "21", "addr:street": "Pla\u00e7a del Sol", "amenity": "restaurant", "diet:vegetarian": "only", "internet_access": "wlan", "internet_access:fee": "no", "name": "Sol soler", "toilets:wheelchair": "no", "wheelchair": "yes"}}, {"type": "node", "id": 1575905711, "lat": 41.403376, "lon": 2.159999, "tags": {"amenity": "cafe", "name": "Granja Bar"}}, {"type": "node", "id": 1755467726, "lat": 41.405565, "lon": 2.1532652, "tags": {"addr:housenumber": "187", "addr:street": "Carrer del Torrent de l'Olla", "brand": "Dia", "brand:wikidata": "Q925132", "brand:wikipedia": "es:DIA (supermercados)", "name": "Dia", "operator": "Distribuidora Internacional de Alimentaci\u00f3n, S.A.", "shop": "supermarket", "website": "https://www.dia.es"}}, {"type": "node", "id": 1799615346, "lat": 41.4064023, "lon": 2.1619676, "tags": {"addr:housenumber": "15", "addr:street": "Carrer de l'Escorial", "amenity": "restaurant", "internet_access": "wlan", "name": "LaLola", "name:ca": "Lalola", "wheelchair": "limited"}}, {"type": "node", "id": 2027054364, "lat": 41.4066496, "lon": 2.1508207, "tags": {"name": "Supermercat", "shop": "convenience", "source": "survey"}}, {"type": "node", "id": 2034780552, "lat": 41.4067026, "lon": 2.1516985, "tags": {"name": "Supermercat", "shop": "supermarket", "source": "survey"}}, {"type": "node", "id": 2034780569, "lat": 41.4067629, "lon": 2.1516314, "tags": {"amenity": "cafe", "name": "L'Brasseria", "source": "survey"}}, {"type": "node", "id": 2102755754, "lat": 41.404753, "lon": 2.1559974, "tags": {"addr:housenumber": "58", "addr:postcode": "08012", "addr:street": "Carrer de Verdi", "amenity": "fast_food", "name": "Pasticceria di Gracia", "name:ca": "La Pasticceria di Gracia", "website": "http://www.acasaportuguesa.com", "wheelchair": "no"}}, {"type": "node", "id": 2102760803, "lat": 41.4061411, "lon": 2.1601816, "tags": {"addr:housenumber": "55", "addr:postcode": "08024", "addr:street": "Carrer del Torrent de les Flors", "amenity": "restaurant", "contact:facebook": "https://m.facebook.com/restaurantabissinia/?locale2=es_ES", "cuisine": "ethiopian", "name": "Abiss\u00ednia"}}, {"type": "node", "id": 2294941038, "lat": 41.4038918, "lon": 2.1551821, "tags": {"name": "VINUS & BRINDIS Gr\u00e0cia", "shop": "alcohol"}}, {"type": "node", "id": 2380397582, "lat": 41.405558, "lon": 2.1507903, "tags": {"addr:city": "Barcelona", "addr:housenumber": "260", "addr:postcode": "08012", "addr:street": "Carrer Gran de Gracia", "amenity": "cafe", "name": "Anta", "phone": "+34932173084"}}, {"type": "node", "id": 2381203179, "lat": 41.4060937, "lon": 2.1602245, "tags": {"addr:city": "Barcelona", "addr:housenumber": "53", "addr:street": "Carrer del Torrent de les Flors", "amenity": "restaurant", "cuisine": "tapas", "email": "restaurantornassol@hotmail.com", "name": "Lata-Bern@", "name:ca": "Lata-Bern@", "opening_hours": "Mo-Su 13:00-16:00, 21:00-24:00", "phone": "+34932131018", "ref:vatin": "ESG64123748", "website": "https://m.restaurantes.com/restaurante-lata-bern"}}, {"type": "node", "id": 2392618390, "lat": 41.4053824, "lon": 2.1553228, "tags": {"addr:city": "Barcelona", "addr:housenumber": "82", "addr:postcode": "08012", "addr:street": "Carrer de Verdi", "amenity": "restaurant", "cuisine": "regional", "email": "info@verdi82.com", "name": "La Porchetta", "phone": "+34 934150101", "ref:vatin": "ESB63776405", "smoking": "no", "website": "http://www.verdi82.com"}}, {"type": "node", "id": 2432073329, "lat": 41.4037055, "lon": 2.1598503, "tags": {"addr:city": "Barcelona", "addr:housenumber": "22", "addr:street": "Carrer del Torrent d'en Vidalet", "amenity": "restaurant", "cuisine": "regional", "name": "El Rabipelao"}}, {"type": "node", "id": 2486105464, "lat": 41.4027435, "lon": 2.1560143, "tags": {"addr:city": "Barcelona", "addr:housenumber": "47", "addr:street": "Carrer del Montseny", "amenity": "restaurant", "contact:phone": "+34932371243", "contact:website": "http://www.teatrelliure.com", "cuisine": "regional", "name": "Bar el Lliure", "opening_hours": "Su-Tu 18:00-24:00; Fr-Sa 18:00-03:00", "ref:vatin": "ESJ65351504"}}, {"type": "node", "id": 2618644505, "lat": 41.4045977, "lon": 2.1607237, "tags": {"addr:city": "Barcelona", "addr:housenumber": "26", "addr:postcode": "08012", "addr:street": "Carrer de Bruniquer", "amenity": "restaurant", "cuisine": "indian", "diet:vegan": "yes", "diet:vegetarian": "only", "name": "Veg World India", "opening_hours": "Mo off; Tu-Su 13:00-16:00,20:00-23:00", "phone": "+34 932 10 70 56", "wheelchair": "yes"}}, {"type": "node", "id": 2661217161, "lat": 41.4048777, "lon": 2.1558337, "tags": {"addr:city": "Barcelona", "addr:housenumber": "64", "addr:postcode": "08035", "addr:street": "carrer de Verdi", "amenity": "restaurant", "cuisine": "japanese", "email": "rrhh@kibuka.com", "internet_access": "no", "name": "Kibuka", "operator": "Kabuki Verdi S.L.", "phone": "+34932378994", "smoking": "no", "website": "http://kibuka.com", "wheelchair": "no"}}, {"type": "node", "id": 2848240944, "lat": 41.4038617, "lon": 2.1569498, "tags": {"addr:city": "Barcelona", "addr:housenumber": "28", "addr:postcode": "08012", "addr:street": "Carrer de Verdi", "amenity": "restaurant", "cuisine": "palestine", "name": "Askadinya", "opening_hours": "Mo-Su 12:00-01:00", "phone": "+34 933 685 077", "website": "http://askadinya.com/", "wheelchair": "no"}}, {"type": "node", "id": 2866726544, "lat": 41.4032503, "lon": 2.1590018, "tags": {"addr:city": "Barcelona", "addr:housenumber": "26", "addr:postcode": "08012", "addr:street": "Carrer de Torrijos", "amenity": "cafe", "cuisine": "international", "name": "Mama's Cafe", "opening_hours": "Mo-We 09:00-21:00, Th-Su 10:00-00:00", "phone": "+34 932 100 050", "website": "http://www.mamascafebcn.com/"}}, {"type": "node", "id": 2866796909, "lat": 41.404478, "lon": 2.1562288, "tags": {"addr:city": "Barcelona", "addr:housenumber": "50", "addr:postcode": "08012", "addr:street": "Carrer de Verdi", "amenity": "restaurant", "cuisine": "international", "name": "Sol i Lluna", "opening_hours": "Mo-Fr 19:30-12:30; Sa,Su 13:00-01:00", "phone": "+34 932 37 1052"}}, {"type": "node", "id": 2967369894, "lat": 41.4048947, "lon": 2.1608982, "tags": {"name": "Roza Fresco", "shop": "greengrocer", "wheelchair": "limited"}}, {"type": "node", "id": 2967370350, "lat": 41.4047337, "lon": 2.1608594, "tags": {"addr:housenumber": "17", "addr:street": "Carrer de Joan Blanques", "amenity": "bar", "contact:facebook": "https://m.facebook.com/VermuteriaTano/", "name": "La Vermuteria del Tano", "name:ca": "Vermuteria del Tano", "wheelchair": "no"}}, {"type": "node", "id": 2967370354, "lat": 41.4041485, "lon": 2.161252, "tags": {"name": "Pastisseria Dismon", "shop": "bakery"}}, {"type": "node", "id": 2967989789, "lat": 41.4054118, "lon": 2.1603436, "tags": {"name": "Gracia Frutes Verdures", "shop": "greengrocer"}}, {"type": "node", "id": 2968119440, "lat": 41.4028999, "lon": 2.1537483, "tags": {"amenity": "restaurant", "name": "Can Tres\u00f3", "wheelchair": "no"}}, {"type": "node", "id": 2968119441, "lat": 41.4033729, "lon": 2.1542093, "tags": {"amenity": "restaurant", "name": "SMS Delicies"}}, {"type": "node", "id": 2968119445, "lat": 41.4041586, "lon": 2.156645, "tags": {"addr:housenumber": "40", "addr:street": "Carrer de Verdi", "amenity": "cafe", "cuisine": "coffee_shop", "name": "Vivari", "opening_hours": "Mo-Su 06:00-22:00", "wheelchair": "limited"}}, {"type": "node", "id": 2968119446, "lat": 41.4044112, "lon": 2.1567655, "tags": {"amenity": "restaurant", "food": "indonesian", "name": "Gado Gado"}}, {"type": "node", "id": 2968119447, "lat": 41.4043625, "lon": 2.156667, "tags": {"amenity": "restaurant", "name": "2hundredburger"}}, {"type": "node", "id": 2968119449, "lat": 41.4043226, "lon": 2.1577383, "tags": {"amenity": "restaurant", "name": "Cantina Machito", "opening_hours": "Mo-Su 11:00-13:00"}}, {"type": "node", "id": 2968119450, "lat": 41.4040697, "lon": 2.1582935, "tags": {"amenity": "bar", "name": "Ch\u00e2telet"}}, {"type": "node", "id": 2968119451, "lat": 41.4043787, "lon": 2.158555, "tags": {"addr:housenumber": "9", "addr:postcode": "08012", "addr:street": "Carrer de Sant Llu\u00eds", "amenity": "restaurant", "contact:facebook": "https://m.facebook.com/PolleriaFontana/", "cuisine": "tapas", "name": "Polleria Fontana", "phone": "+34 932 17 39 04"}}, {"type": "node", "id": 2968119452, "lat": 41.4052085, "lon": 2.1597921, "tags": {"amenity": "restaurant", "contact:facebook": "https://m.facebook.com/Les-Tres-a-la-Cuina-251223524925140/", "internet_access": "wlan", "name": "Les Tres a la Cuina"}}, {"type": "node", "id": 2968532750, "lat": 41.4023891, "lon": 2.1581663, "tags": {"amenity": "restaurant", "cuisine": "regional", "name": "Pepa Tomate"}}, {"type": "node", "id": 2968921885, "lat": 41.4049728, "lon": 2.1625967, "tags": {"amenity": "restaurant", "name": "La Pizzeria de Gr\u00e0cia"}}, {"type": "node", "id": 2968921886, "lat": 41.4051994, "lon": 2.1629782, "tags": {"addr:city": "Barcelona", "addr:street": "Carrer de Ram\u00f3n y Cajal", "amenity": "fast_food", "cuisine": "regional", "name": "El viejo almac\u00e9n", "takeaway": "only"}}, {"type": "node", "id": 2968921892, "lat": 41.4057451, "lon": 2.163227, "tags": {"amenity": "restaurant", "internet_access": "wlan", "name": "Tapas en Gracia", "name:ca": "Hamburgueseria el Metro"}}, {"type": "node", "id": 2968921906, "lat": 41.4040048, "lon": 2.1595218, "tags": {"brand": "Condis", "name": "Condis", "shop": "supermarket"}}, {"type": "node", "id": 2969274365, "lat": 41.4039273, "lon": 2.160916, "tags": {"amenity": "restaurant", "name": "Tapiceria Vilella"}}, {"type": "node", "id": 2969276732, "lat": 41.4043262, "lon": 2.1623941, "tags": {"name": "Alimentaci\u00f3", "shop": "convenience"}}, {"type": "node", "id": 2969277633, "lat": 41.4040084, "lon": 2.1622868, "tags": {"brand": "Dia Market", "brand:wikidata": "Q925132", "brand:wikipedia": "es:Supermercados DIA", "name": "Dia Market", "shop": "supermarket"}}, {"type": "node", "id": 2970750104, "lat": 41.4022509, "lon": 2.152876, "tags": {"amenity": "restaurant", "name": "El Picoteo", "wheelchair": "limited"}}, {"type": "node", "id": 2970751837, "lat": 41.401784, "lon": 2.1565238, "tags": {"amenity": "restaurant", "diet:vegetarian": "yes", "name": "Caf\u00e9 del Sol", "opening_hours": "Su-Th 11:00-02:30+, Fr,Sa 11:00-03:00+", "toilets:wheelchair": "no", "wheelchair": "limited"}}, {"type": "node", "id": 2970751838, "lat": 41.4018585, "lon": 2.1566257, "tags": {"amenity": "restaurant", "name": "C\u00e8ntric Caf\u00e8", "toilets:wheelchair": "yes", "wheelchair": "yes"}}, {"type": "node", "id": 2970751839, "lat": 41.4015538, "lon": 2.1563707, "tags": {"amenity": "restaurant", "diet:vegetarian": "yes", "name": "La Piadina", "opening_hours:signed": "no", "wheelchair": "yes"}}, {"type": "node", "id": 2970751840, "lat": 41.4012944, "lon": 2.1566674, "tags": {"addr:street": "Carrer dels Xiquets de Valls", "name": "Sol de Gr\u00e0cia", "opening_hours": "Apr-Oct PH,Mo-Su 10:00-23:00; Nov-Mar PH,Mo-Su 11:00-23:00", "shop": "convenience", "wheelchair": "yes"}}, {"type": "node", "id": 2970751843, "lat": 41.4018251, "lon": 2.1546703, "tags": {"brand": "Condis", "brand:wikidata": "Q57417581", "name": "Condis Expr\u00e9s", "shop": "supermarket"}}, {"type": "node", "id": 2970751844, "lat": 41.4017728, "lon": 2.1545227, "tags": {"amenity": "bar", "name": "Taverna El Disbarat"}}, {"type": "node", "id": 2970751845, "lat": 41.4016603, "lon": 2.1543456, "tags": {"amenity": "restaurant", "name": "Braseria Piras"}}, {"type": "node", "id": 3006518090, "lat": 41.4069631, "lon": 2.1586352, "tags": {"addr:housenumber": "5", "addr:street": "Carrer de Rabassa", "name": "Rabassa", "name:ca": "Rabassa", "shop": "bakery"}}, {"type": "node", "id": 3006578129, "lat": 41.4070824, "lon": 2.1592501, "tags": {"shop": "greengrocer"}}, {"type": "node", "id": 3006691966, "lat": 41.4071542, "lon": 2.1592468, "tags": {"amenity": "cafe", "cuisine": "sandwich;breakfast;coffee_shop", "name": "Zeus", "name:ca": "Zeus"}}, {"type": "node", "id": 3006694271, "lat": 41.4072779, "lon": 2.1615746, "tags": {"name": "Rikka", "shop": "greengrocer", "wheelchair": "limited"}}, {"type": "node", "id": 3006695990, "lat": 41.4070483, "lon": 2.1591889, "tags": {"addr:city": "Barcelona", "addr:housenumber": "50", "addr:postcode": "08024", "addr:street": "Carrer de les Tres Senyores", "name": "Barcelona Vinos", "shop": "wine"}}, {"type": "node", "id": 3006698724, "lat": 41.4078221, "lon": 2.1586634, "tags": {"addr:city": "Barcelona", "addr:housenumber": "69", "addr:postcode": "08024", "addr:street": "Carrer de la Provid\u00e8ncia", "name": "Cal Fruit\u00f3s", "shop": "greengrocer"}}, {"type": "node", "id": 3006704560, "lat": 41.4070939, "lon": 2.1577018, "tags": {"addr:street": "Carrer de la Provid\u00e8ncia", "name": "Sa2Pe", "shop": "greengrocer", "wheelchair": "yes"}}, {"type": "node", "id": 3006711667, "lat": 41.4078582, "lon": 2.1587696, "tags": {"name": "Pasteler\u00eda", "shop": "confectionery"}}, {"type": "node", "id": 3006722813, "lat": 41.4061363, "lon": 2.1595418, "tags": {"addr:city": "Barcelona", "addr:housenumber": "56", "addr:postcode": "08024", "addr:street": "Carrer de Joan Blanques", "name": "La Chitarra", "shop": "convenience"}}, {"type": "node", "id": 3007426644, "lat": 41.4071603, "lon": 2.1576482, "tags": {"addr:housenumber": "59", "addr:street": "Carrer de la Provid\u00e8ncia", "name": "Forn de pa Provid\u00e8ncia", "name:ca": "Forn de pa Provid\u00e8ncia", "shop": "bakery", "website": "http://forndepaprovidencia.com/", "wheelchair": "yes"}}, {"type": "node", "id": 3007755352, "lat": 41.4071883, "lon": 2.1557816, "tags": {"addr:city": "Barcelona", "addr:housenumber": "44", "addr:postcode": "08024", "addr:street": "Carrer de l'Alzina", "amenity": "cafe", "cuisine": "sandwich", "internet_access": "wlan", "name": "La Pausa", "toilets:wheelchair": "no", "wheelchair": "yes"}}, {"type": "node", "id": 3011189884, "lat": 41.4049613, "lon": 2.1557575, "tags": {"addr:city": "Barcelona", "addr:housenumber": "66", "addr:postcode": "08012", "addr:street": "Carrer de Verdi", "name": "Forn de Sant Tirs", "phone": "+34 932 37 18 29", "shop": "bakery", "wheelchair": "no"}}, {"type": "node", "id": 3013741447, "lat": 41.4050824, "lon": 2.1624559, "tags": {"name": "Verema i Collita", "shop": "alcohol"}}, {"type": "node", "id": 3158724560, "lat": 41.4021966, "lon": 2.1529815, "tags": {"addr:city": "Barcelona", "addr:housenumber": "160", "addr:postcode": "08012", "addr:street": "Carrer Gran de Gr\u00e0cia", "amenity": "restaurant", "cuisine": "kebab", "name": "Luna de Istanbul"}}, {"type": "node", "id": 3268666773, "lat": 41.4056851, "lon": 2.1506742, "tags": {"amenity": "cafe", "name": "Farga"}}, {"type": "node", "id": 3271490897, "lat": 41.4058696, "lon": 2.1532153, "tags": {"addr:city": "Barcelona", "addr:housenumber": "5", "addr:postcode": "08012", "addr:street": "Carrer de Bellver", "name": "caprabo", "operator": "eroski", "shop": "supermarket"}}, {"type": "node", "id": 3271524730, "lat": 41.4063688, "lon": 2.1525491, "tags": {"addr:city": "Barcelona", "addr:housenumber": "220", "addr:postcode": "08012", "addr:street": "Carrer del Torrent de l'Olla", "brand": "Condis", "brand:wikidata": "Q57417581", "name": "Condis", "opening_hours": "Mo-Sa 09:00-21:00", "operator": "Condis", "payment:cash": "yes", "payment:maestro": "yes", "payment:mastercard": "yes", "payment:telephone_cards": "yes", "payment:visa": "yes", "payment:visa_debit": "yes", "shop": "supermarket", "wheelchair": "yes"}}, {"type": "node", "id": 3271554311, "lat": 41.4035661, "lon": 2.1554863, "tags": {"addr:city": "Barcelona", "addr:housenumber": "143", "addr:postcode": "08012", "addr:street": "Carrer del Torrent de l'Olla", "air_conditioning": "yes", "amenity": "restaurant", "capacity": "20", "cuisine": "arab;moroccan", "name": "Al Sult\u00e1n", "opening_hours": "Tu-Su 13:00-17:00,20:00-01:30", "outdoor_seating": "no", "phone": "+34 654 689 805", "smoking": "no", "source": "http://www.alsultancomidamarroqui.com/"}}, {"type": "node", "id": 3474851394, "lat": 41.402014, "lon": 2.1572605, "tags": {"addr:housenumber": "99", "addr:street": "Carrer del Torrent de l'Olla", "amenity": "restaurant", "cuisine": "burger", "delivery": "yes", "name": "La Vespa Burguer Bar", "phone": "+34651090795", "website": "http://vespahamburgueseria.blogspot.com.es/"}}, {"type": "node", "id": 3513069498, "lat": 41.4026573, "lon": 2.1588747, "tags": {"addr:city": "Barcelona", "addr:housenumber": "36", "addr:postcode": "08012", "addr:street": "Carrer de Ram\u00f3n y Cajal", "amenity": "restaurant", "cuisine": "regional", "diet:vegetarian": "yes", "name": "Chocolater\u00eda La Nena", "opening_hours": "Mo 08:30-14:00,16:00-22:30; Tu-Fr 08:30-22:30; Sa 09:00-22:30; Su 09:30-22:30", "opening_hours:url": "http://www.chocolaterialanena.com/", "phone": "+34 932 85 14 76", "website": "http://www.chocolaterialanena.com/"}}, {"type": "node", "id": 3513086689, "lat": 41.402611, "lon": 2.15798, "tags": {"addr:city": "Barcelona", "addr:housenumber": "1868", "addr:postcode": "08012", "addr:street": "Pla\u00e7a de la Revoluci\u00f3 de Setembre de 1868", "amenity": "restaurant", "cuisine": "thai", "name": "Banna", "opening_hours": "Mo-Su 13:00-16:00,20:00-24:00,Mo off", "phone": "+34 932 13 30 44", "website": "http://bannagracia.es/", "wheelchair": "no"}}, {"type": "node", "id": 3513087623, "lat": 41.4025564, "lon": 2.1580569, "tags": {"addr:city": "Barcelona", "addr:housenumber": "1868", "addr:postcode": "08012", "addr:street": "Pla\u00e7a de la Revoluci\u00f3 de Setembre de 1868", "amenity": "fast_food", "cuisine": "italian", "name": "Cosca", "opening_hours": "Mo-Su 13:00-16:00,19:00-23:00,Tu off", "phone": "+34 935 14 60 29", "takeaway": "yes"}}, {"type": "node", "id": 3517276245, "lat": 41.4029997, "lon": 2.1579171, "tags": {"addr:city": "Barcelona", "addr:housenumber": "2", "addr:postcode": "08012", "addr:street": "Carrer de Verdi", "amenity": "bar", "name": "Bar Canig\u00f3", "opening_hours": "Mo-Th 10:00-02:00, Fr 10:00-03:00, Sa 20:00-03:00", "phone": "+34 93 213 30 49", "website": "http://www.barcanigo.com/"}}, {"type": "node", "id": 3517278624, "lat": 41.403044, "lon": 2.1578635, "tags": {"addr:housenumber": "2", "addr:street": "Carrer de Verdi", "amenity": "restaurant", "cuisine": "curry;indian", "name": "Bollywood", "name:ca": "Bollywood", "opening_hours": "Mo-Su 12:00-16:00,19:00-00:00", "phone": "+34 932 85 48 91", "website": "http://www.restaurantbollywood.com/", "wheelchair": "yes"}}, {"type": "node", "id": 3519834212, "lat": 41.4026506, "lon": 2.1523098, "tags": {"amenity": "restaurant", "name": "Lo&Lo"}}, {"type": "node", "id": 3535782316, "lat": 41.4025224, "lon": 2.1596153, "tags": {"addr:city": "Barcelona", "addr:housenumber": "193", "addr:postcode": "08012", "addr:street": "Travessera de Gr\u00e0cia", "amenity": "restaurant", "cuisine": "regional", "diet:vegetarian": "yes", "name": "Comado Gr\u00e0cia", "phone": "+34 931 12 93 26", "takeaway": "yes", "website": "http://colmadogracia.com/"}}, {"type": "node", "id": 3537765757, "lat": 41.4040266, "lon": 2.156774, "tags": {"brand": "Spar", "brand:wikidata": "Q610492", "brand:wikipedia": "es:SPAR", "name": "Spar", "shop": "supermarket", "wheelchair": "yes"}}, {"type": "node", "id": 3768774035, "lat": 41.4027103, "lon": 2.1566077, "tags": {"amenity": "bar", "name": "134"}}, {"type": "node", "id": 3959112905, "lat": 41.4035337, "lon": 2.1600425, "tags": {"addr:housenumber": "53", "addr:street": "Ramon y Cajal", "amenity": "restaurant", "name": "Snack-Bar Cap Verd", "opening_hours": "Tu-Fr 08:30-00:00; Sa 11:30-00:00; Su 11:30-17:00", "phone": "+34 931732434", "website": "capverd.cat"}}, {"type": "node", "id": 3959114240, "lat": 41.4035629, "lon": 2.1603403, "tags": {"addr:housenumber": "80", "addr:street": "Ram\u00f3n y Cajal", "amenity": "bar", "name": "Heliog\u00e0bal", "sexual_antiharassment_policy": "yes", "sexual_antiharassment_policy:name": "NoCallem", "website": "www.heliogabal.com"}}, {"type": "node", "id": 3959116664, "lat": 41.4044837, "lon": 2.161786, "tags": {"addr:housenumber": "120", "addr:street": "Ram\u00f3n y Cajal", "name": "Forn Ideal", "shop": "bakery"}}, {"type": "node", "id": 4091094689, "lat": 41.4051481, "lon": 2.1589868, "tags": {"addr:housenumber": "49", "addr:street": "Carrer de Montmany", "amenity": "restaurant", "name": "El Traguinyol", "website": "http://elglop.com/el-traguinyol/"}}, {"type": "node", "id": 4145978596, "lat": 41.4054024, "lon": 2.1632557, "tags": {"name": "Forn Joanic", "shop": "bakery"}}, {"type": "node", "id": 4200467389, "lat": 41.4024443, "lon": 2.1573002, "tags": {"addr:housenumber": "6", "addr:street": "Carrer de Terol", "amenity": "restaurant", "name": "La Llesca", "opening_hours": "Mo-Su 13:30-15:30, 20:30-00:00", "phone": "+34 932 85 02 46", "website": "http://www.tavernalallesca.com/"}}, {"type": "node", "id": 4234162089, "lat": 41.4050914, "lon": 2.1613303, "tags": {"addr:housenumber": "37", "addr:postcode": "08024", "addr:street": "Carrer de Bruniquer", "amenity": "restaurant", "branch": "Bruniquer", "cuisine": "arab;kebab", "name": "Ugarit", "opening_hours": "Mo-Su 13:00-01:30", "phone": "+34932841214", "website": "restaurantesirio.es"}}, {"type": "node", "id": 4254996890, "lat": 41.4030496, "lon": 2.1536696, "tags": {"addr:housenumber": "17", "addr:postcode": "08012", "addr:street": "Carrer d'Ast\u00faries", "amenity": "restaurant", "check_date:opening_hours": "2022-06-20", "cuisine": "pasta;italian", "internet_access": "wlan", "name": "La Macchina", "name:it": "Macchina", "opening_hours": "Mo-Su 12:30-24:00", "website": "http://macchinapastabar.com/", "wheelchair": "no"}}, {"type": "node", "id": 4255639198, "lat": 41.4091892, "lon": 2.1558181, "tags": {"addr:housenumber": "70", "addr:postcode": "08024", "addr:street": "Carrer de Massens", "amenity": "restaurant", "name": "Bar Casi", "opening_hours": "Mo-Su 07:30-17:00", "wheelchair": "no"}}, {"type": "node", "id": 4257561195, "lat": 41.4057282, "lon": 2.1553163, "tags": {"addr:street": "Carrer de la Provid\u00e8ncia", "amenity": "restaurant", "name": "La Gracienca", "opening_hours": "Mo-Sa 12:00-16:00, Mo-Th 19:00-24:00, Fr,Sa 19:00-01:00", "phone": "+34640783509", "website": "https://www.lagracienca.cat/"}}, {"type": "node", "id": 4317331605, "lat": 41.4013759, "lon": 2.1534955, "tags": {"addr:housenumber": "113", "addr:postcode": "08012", "addr:street": "Carrer Gran de Gr\u00e0cia", "amenity": "fast_food", "branch": "Gran de Gr\u00e0cia", "brand": "McDonald's", "brand:wikidata": "Q38076", "brand:wikipedia": "es:McDonald's", "cuisine": "burger", "internet_access": "wlan", "internet_access:fee": "no", "name": "McDonald's", "opening_hours": "Mo-Th, Su 08:00-01:00; Fr, Sa 08:00-02:00", "phone": "+34932178432", "takeaway": "yes", "toilets": "yes", "website": "https://mcdonalds.es", "wheelchair": "yes"}}, {"type": "node", "id": 4321234591, "lat": 41.4078921, "lon": 2.157663, "tags": {"addr:housenumber": "37", "addr:postcode": "08024", "addr:street": "Carrer de Rabassa", "amenity": "restaurant", "contact:facebook": "https://m.facebook.com/pages/Gata-Mala/110002805737820", "cuisine": "tapas", "name": "Gata Mala", "opening_hours": "Tu-Sa 18:30-00:00", "phone": "+34 636 39 36 10"}}, {"type": "node", "id": 4364717908, "lat": 41.4095146, "lon": 2.1571374, "tags": {"addr:housenumber": "158", "addr:street": "Carrer del Torrent de les Flors", "amenity": "restaurant", "contact:facebook": "https://m.facebook.com/pages/La-Panxa-del-Bisbe/180537855306190", "name": "La Panxa del Bisbe", "name:ca": "La Panxa del Bisbe", "name:ko": "\ub77c\ud310\uc0ac", "opening_hours": "Tu-Sa 13:30-15:30, 20:30-23:30"}}, {"type": "node", "id": 4367138089, "lat": 41.4048033, "lon": 2.1541552, "tags": {"addr:housenumber": "169", "addr:postcode": "08012", "addr:street": "Torrent de L'Olla", "name": "Lukumas Doughnut Shop", "shop": "bakery"}}, {"type": "node", "id": 4388751893, "lat": 41.4050305, "lon": 2.1541082, "tags": {"addr:street": "Carrer del Torrent de l'Olla", "amenity": "restaurant", "cuisine": "burger;beer;street_food", "name": "Chivuo's Gracia", "phone": "+34 932 185 134"}}, {"type": "node", "id": 4456874789, "lat": 41.4044763, "lon": 2.1568671, "tags": {"addr:housenumber": "19", "addr:street": "Carrer de l'Or", "amenity": "bar", "name": "Gracia Latina", "name:en": "Gracia Latina", "name:es": "Gracia Latina", "opening_hours": "PH,Fr,Sa 19:00-03:00, Su-Th 19:00-02:30"}}, {"type": "node", "id": 4479580405, "lat": 41.405956, "lon": 2.1611993, "tags": {"addr:city": "Barcelona", "addr:housenumber": "58", "addr:postcode": "08024", "addr:street": "Carrer de Sant Llu\u00eds", "amenity": "restaurant", "cuisine": "international", "delivery": "yes", "name": "Panela de Barro", "takeaway": "yes"}}, {"type": "node", "id": 4516600994, "lat": 41.4045216, "lon": 2.1577228, "tags": {"addr:housenumber": "51", "addr:street": "Carrer de Torrijos", "amenity": "restaurant", "name": "Salamb\u00f3", "name:ca": "Salamb\u00f3", "name:es": "Salamb\u00f3", "toilets:wheelchair": "yes", "wheelchair": "yes"}}, {"type": "node", "id": 4580509208, "lat": 41.4028357, "lon": 2.1582499, "tags": {"amenity": "restaurant", "cuisine": "burger;spanish", "email": "info@lacerverseria.com", "internet_access": "wlan", "name": "La Ceverseria", "name:es": "La Ceverseria", "website": "http://www.lacerverseria.com"}}, {"type": "node", "id": 4631918790, "lat": 41.4047572, "lon": 2.1551301, "tags": {"amenity": "bar", "name": "Casa L\u00f3pez", "name:es": "Casa L\u00f3pez"}}, {"type": "node", "id": 4640461748, "lat": 41.4032528, "lon": 2.1586029, "tags": {"amenity": "bar", "name": "Bar l'Escenari"}}, {"type": "node", "id": 4683839323, "lat": 41.4010323, "lon": 2.15726, "tags": {"addr:city": "Barcelona", "addr:street": "Travessera de Gr\u00e0cia", "amenity": "restaurant", "cuisine": "turkish", "name": "Zurna", "smoking": "no", "takeaway": "yes"}}, {"type": "node", "id": 4754484329, "lat": 41.4075247, "lon": 2.1580583, "tags": {"addr:housenumber": "23", "addr:street": "Carrer de Rabassa", "amenity": "pub", "contact:facebook": "http://m.facebook.com/larovirabcn", "name": "La Rovira", "opening_hours": "Mo-We,Su 09:00-00:00; Th 09:00-01:00; Fr,Sa 09:00-02:00", "phone": "+34 934 63 87 88", "real_ale": "yes"}}, {"type": "node", "id": 4771775494, "lat": 41.4026891, "lon": 2.1579126, "tags": {"brand": "Condis", "brand:wikidata": "Q57417581", "brand:wikipedia": "ca:Condis", "name": "Condis", "shop": "supermarket", "wheelchair": "yes"}}, {"type": "node", "id": 4776357924, "lat": 41.4019021, "lon": 2.1589065, "tags": {"name": "Brotzeit", "name:ca": "La fleca de tots", "shop": "bakery"}}, {"type": "node", "id": 4776357926, "lat": 41.4029059, "lon": 2.1592402, "tags": {"amenity": "bar", "name": "Bar l'Amistat", "name:ca": "Bar l'Amistat"}}, {"type": "node", "id": 4776357928, "lat": 41.4050941, "lon": 2.1635703, "tags": {"name": "La Botiga", "name:ca": "La Botiga", "shop": "bakery", "wheelchair": "yes"}}, {"type": "node", "id": 4776358123, "lat": 41.4041763, "lon": 2.1621164, "tags": {"name": "Artip\u00e0", "name:ca": "Artip\u00e0", "shop": "bakery"}}, {"type": "node", "id": 4776361622, "lat": 41.4031706, "lon": 2.1608947, "tags": {"name": "Punto Fresco", "opening_hours": "Mo-Sa 09:00-21:00; Su 10:00-14:00", "shop": "supermarket"}}, {"type": "node", "id": 4776361623, "lat": 41.4025961, "lon": 2.159745, "tags": {"amenity": "bar", "name": "Bar Pietro", "name:es": "Bar Pietro"}}, {"type": "node", "id": 4776361625, "lat": 41.4048953, "lon": 2.1632463, "tags": {"name": "Castell de Sant Medir", "name:ca": "Castell de Sant Medir", "shop": "bakery"}}, {"type": "node", "id": 4776361626, "lat": 41.4049049, "lon": 2.1637078, "tags": {"amenity": "bar", "name": "O Barqui\u00f1o", "name:es": "O Barqui\u00f1o"}}, {"type": "node", "id": 4788760625, "lat": 41.4028066, "lon": 2.1531978, "tags": {"name": "Xarcuteria Germans Gr\u00e0cia", "name:ca": "Xarcuteria Germans Gr\u00e0cia", "opening_hours": "Mo-Fr 09:00-14:00,17:00-20:30; Sa 09:00-14:00", "shop": "butcher"}}, {"type": "node", "id": 4788768221, "lat": 41.402892, "lon": 2.153361, "tags": {"name": "Forn de Sant Tirs", "name:ca": "Forn de Sant Tirs", "opening_hours": "Mo-Fr 07:30-21:00; Sa 08:00-21:00", "shop": "bakery"}}, {"type": "node", "id": 4790457869, "lat": 41.4071223, "lon": 2.1552868, "tags": {"addr:city": "Barcelona", "addr:housenumber": "11", "name": "Organic Market", "organic": "only", "shop": "supermarket"}}, {"type": "node", "id": 4812206521, "lat": 41.4026887, "lon": 2.1583797, "tags": {"addr:housenumber": "2", "addr:postcode": "08012", "addr:street": "Pla\u00e7a de la Revoluci\u00f3 de Setembre de 1868", "amenity": "cafe", "cuisine": "italian", "name": "Gelateria Italiana Deliziosa", "name:es": "Gelateria Italiana Deliziosa", "phone": "+34932102339"}}, {"type": "node", "id": 4812237224, "lat": 41.4004038, "lon": 2.1546391, "tags": {"addr:housenumber": "81", "addr:postcode": "08012", "addr:street": "Carrer Gran de Gr\u00e0cia", "amenity": "restaurant", "cuisine": "seafood", "name": "Botafumeiro", "name:es": "Botafumeiro", "phone": "+34 932 18 42 30", "website": "http://www.botafumerio.es"}}, {"type": "node", "id": 4876427521, "lat": 41.4078116, "lon": 2.1606804, "tags": {"addr:housenumber": "41", "addr:street": "Carrer de l'Escorial", "name": "Fleca Artesana", "name:es": "Fleca Artesana", "shop": "bakery"}}, {"type": "node", "id": 4893341221, "lat": 41.4039017, "lon": 2.1582338, "tags": {"addr:city": "Barcelona", "addr:housenumber": "37", "addr:postcode": "08012", "addr:street": "Carrer de Torrijos", "diet:gluten_free": "yes", "diet:vegan": "only", "email": "daniela@labesneta.com", "name": "La Besn\u00e9ta", "name:en": "La Besn\u00e9ta Vegan Bakery", "opening_hours": "Tu-Su 10:30-21:00", "phone": "+34 934 15 38 39", "shop": "bakery", "website": "http://labesneta.com/"}}, {"type": "node", "id": 4898281369, "lat": 41.4059753, "lon": 2.1623912, "tags": {"addr:housenumber": "3", "addr:street": "Carrer de l'Escorial", "amenity": "restaurant", "description": "Tapas Bar", "name": "Vermuteria Lou", "opening_hours": "Mo-Sa 08:00-24:00", "phone": "+34932855421", "wheelchair": "no"}}, {"type": "node", "id": 4909215821, "lat": 41.4052593, "lon": 2.1572861, "tags": {"addr:city": "Barcelona", "addr:housenumber": "93", "addr:postcode": "08024", "addr:street": "Carrer d'Ast\u00faries", "diet:vegan": "yes", "email": "hola@chokbarcelona.com", "name": "Ch\u00f6k", "opening_hours": "Mo-Su 09:00-22:00", "payment:cash": "yes", "payment:maestro": "yes", "payment:mastercard": "yes", "payment:visa": "yes", "payment:visa_debit": "yes", "phone": "+34 933 487 616", "shop": "pastry", "website": "http://www.chokbarcelona.com/"}}, {"type": "node", "id": 4937772721, "lat": 41.4058905, "lon": 2.1571129, "tags": {"addr:housenumber": "13", "addr:street": "Carrer de l'Alzina", "amenity": "bar", "name": "TR3SSS", "name:es": "The Hideout", "wheelchair": "no"}}, {"type": "node", "id": 5023896225, "lat": 41.4027372, "lon": 2.159553, "tags": {"addr:housenumber": "16", "addr:street": "Carrer de Torrijos", "amenity": "bar", "name": "La Bodegueta"}}, {"type": "node", "id": 5023905423, "lat": 41.4038883, "lon": 2.1551166, "tags": {"addr:street": "Carrer d'Ast\u00faries", "amenity": "restaurant", "cuisine": "lebanese", "name": "Petra", "wheelchair": "limited"}}, {"type": "node", "id": 5031306421, "lat": 41.4014477, "lon": 2.1568813, "tags": {"amenity": "bar", "name": "Kamona", "name:es": "Kamona"}}, {"type": "node", "id": 5047415321, "lat": 41.4041405, "lon": 2.1550038, "tags": {"shop": "bakery"}}, {"type": "node", "id": 5048596126, "lat": 41.4081602, "lon": 2.1574261, "tags": {"addr:city": "Barcelona", "addr:housenumber": "39", "addr:street": "Carrer de Rabassa", "amenity": "bar", "contact:facebook": "https://m.facebook.com/barelrusc/", "name": "El Rusc", "name:ca": "El Rusc", "opening_hours": "Mo-Sa 19:00-02:00; Su 19:00-01:00"}}, {"type": "node", "id": 5048596129, "lat": 41.407925, "lon": 2.1605745, "tags": {"addr:housenumber": "43", "addr:street": "Carrer de l'Escorial", "amenity": "cafe", "name": "Don Teo", "name:ca": "Don Teo"}}, {"type": "node", "id": 5048596130, "lat": 41.4077391, "lon": 2.1613246, "tags": {"addr:housenumber": "50", "addr:street": "Carrer de l'Escorial", "amenity": "restaurant", "name": "El Singlot", "name:ca": "El Singlot", "toilets:wheelchair": "no", "wheelchair": "limited"}}, {"type": "node", "id": 5048596131, "lat": 41.4071086, "lon": 2.1613342, "tags": {"addr:housenumber": "27", "addr:street": "Carrer de l'Escorial", "amenity": "restaurant", "name": "L'Escorial", "name:ca": "L'Escorial", "wheelchair": "no"}}, {"type": "node", "id": 5048599422, "lat": 41.4065175, "lon": 2.1598237, "tags": {"addr:housenumber": "65", "addr:street": "Carrer del Torrent de les Flors", "amenity": "restaurant", "name": "La Barbacoa de Gr\u00e0cia", "name:ca": "La Barbacoa de Gr\u00e0cia"}}, {"type": "node", "id": 5048599423, "lat": 41.4055983, "lon": 2.1608907, "tags": {"addr:housenumber": "36", "addr:street": "Carrer del Torrent de les Flors", "amenity": "bar", "name": "Cara B", "name:ca": "Cara B", "opening_hours": "Tu-Th 18:00-02:30; Fr-Sa 18:00-03:30"}}, {"type": "node", "id": 5048599424, "lat": 41.4083516, "lon": 2.1604811, "tags": {"addr:housenumber": "100", "addr:street": "Carrer de l'Escorial", "amenity": "ice_cream", "name": "Geladeria orxateria turroneria Sirvent", "name:ca": "Geladeria orxateria turroneria Sirvent", "website": "http://www.turroneria.com/"}}, {"type": "node", "id": 5048599922, "lat": 41.4059084, "lon": 2.1604518, "tags": {"addr:housenumber": "43", "addr:street": "Carrer del Torrent de les Flors", "amenity": "bar", "cuisine": "hotdog;tapas", "name": "Speed 58", "name:ca": "Speed 58"}}, {"type": "node", "id": 5048599923, "lat": 41.4087182, "lon": 2.1601497, "tags": {"addr:housenumber": "106", "addr:street": "de l'Escorial", "amenity": "restaurant", "name": "Bar restaurant Am\u00e8rica", "name:ca": "Bar restaurant Am\u00e8rica", "wheelchair": "limited"}}, {"type": "node", "id": 5048599924, "lat": 41.4103156, "lon": 2.1586187, "tags": {"addr:housenumber": "164", "addr:street": "Carrer de l'Escorial", "amenity": "restaurant", "name": "Bar restaurant la Iaia", "name:ca": "Bar restaurant la Iaia", "wheelchair": "no"}}, {"type": "node", "id": 5048599925, "lat": 41.4091273, "lon": 2.1594261, "tags": {"addr:housenumber": "129", "addr:street": "Carrer de l'Escorial", "amenity": "restaurant", "name": "Restaurant pizzeria cent vint-i-nou", "name:ca": "Restaurant pizzeria cent vint-i-nou"}}, {"type": "node", "id": 5048602522, "lat": 41.4080783, "lon": 2.1582624, "tags": {"addr:housenumber": "101", "addr:street": "Carrer del Torrent de les Flors", "amenity": "bar", "contact:facebook": "https://m.facebook.com/pages/Bodega-Manolo/111461055578897", "name": "Bodega Manolo", "name:ca": "Bodega Manolo"}}, {"type": "node", "id": 5048602523, "lat": 41.4067138, "lon": 2.1596113, "tags": {"addr:housenumber": "71", "addr:street": "Carrer del Torrent de les Flors", "amenity": "restaurant", "cuisine": "seafood", "name": "Marisqueria Lloritu", "name:ca": "Marisqueria Lloritu", "website": "http://www.lluritu.com/"}}, {"type": "node", "id": 5048602524, "lat": 41.4059162, "lon": 2.1606083, "tags": {"addr:housenumber": "46", "addr:street": "Carrer del Torrent de les Flors", "amenity": "bar", "name": "El Col\u00b7leccionista", "name:ca": "El Col\u00b7leccionista", "opening_hours": "Th-Sa 21:00-03:00"}}, {"type": "node", "id": 5048602525, "lat": 41.4043091, "lon": 2.1612896, "tags": {"amenity": "bar", "cuisine": "tapas", "name": "Blau Cel", "name:ca": "Blau Cel"}}, {"type": "node", "id": 5048602526, "lat": 41.4069018, "lon": 2.1588171, "tags": {"addr:housenumber": "31", "addr:street": "Carrer de les Tres Senyores", "name": "Polleria Marin", "name:ca": "Polleria Marin", "note": "Pollastres a l'ast", "phone": "+34 932 84 19 24", "shop": "butcher"}}, {"type": "node", "id": 5048602528, "lat": 41.4101134, "lon": 2.1589228, "tags": {"addr:housenumber": "158", "addr:street": "Carrer de l'Escorial", "amenity": "restaurant", "name": "La Torreta de l'Escorial", "name:ca": "La Torreta de l'Escorial", "website": "http://www.latorretadelescorial.com/"}}, {"type": "node", "id": 5048602529, "lat": 41.4103514, "lon": 2.1582552, "tags": {"addr:housenumber": "167", "addr:street": "Carrer de l'Escorial", "amenity": "cafe", "name": "Del Roc Bomboneria", "name:ca": "Del Roc Bomboneria", "toilets:wheelchair": "no", "wheelchair": "limited"}}, {"type": "node", "id": 5048602530, "lat": 41.4099275, "lon": 2.1589953, "tags": {"addr:housenumber": "152", "addr:street": "Carrer de l'Escorial", "amenity": "cafe", "name": "Bar Cafeteria la Maduixa", "name:ca": "Bar Cafeteria la Maduixa", "wheelchair": "no"}}, {"type": "node", "id": 5048602532, "lat": 41.4083753, "lon": 2.1601301, "tags": {"addr:housenumber": "117", "addr:street": "Carrer de l'Escorial", "amenity": "bar", "name": "Inch", "name:ca": "Inch", "wheelchair": "limited"}}, {"type": "node", "id": 5048602533, "lat": 41.4080004, "lon": 2.1604993, "tags": {"addr:housenumber": "47", "addr:street": "Carrer de l'Escorial", "amenity": "bar", "name": "Dumbito", "name:ca": "Dumbito", "wheelchair": "no"}}, {"type": "node", "id": 5048602534, "lat": 41.4061628, "lon": 2.1622541, "tags": {"addr:housenumber": "11-13", "addr:street": "Carrer de l'Escorial", "amenity": "bar", "name": "Navia 2", "name:ca": "Navia 2", "wheelchair": "no"}}, {"type": "node", "id": 5048604522, "lat": 41.4091307, "lon": 2.1572098, "tags": {"name": "Pa d'\u00c0ngel", "name:ca": "Pa d'\u00c0ngel", "shop": "bakery"}}, {"type": "node", "id": 5048604523, "lat": 41.4060769, "lon": 2.1596086, "tags": {"addr:housenumber": "51", "addr:street": "Carrer de Joan Blanques", "amenity": "restaurant", "name": "Mantura", "name:ca": "Mantura"}}, {"type": "node", "id": 5048661022, "lat": 41.406319, "lon": 2.1621288, "tags": {"addr:street": "Carrer de l'Escorial", "name": "Shahid", "name:ca": "Shahid", "shop": "bakery", "wheelchair": "limited"}}, {"type": "node", "id": 5048661023, "lat": 41.4063189, "lon": 2.1623886, "tags": {"addr:housenumber": "20", "addr:street": "Carrer de l'Escorial", "name": "Farina & Sons", "name:ca": "Farina & Sons", "shop": "bakery", "wheelchair": "yes"}}, {"type": "node", "id": 5048661024, "lat": 41.4057278, "lon": 2.1606077, "tags": {"amenity": "restaurant", "cuisine": "lebanese", "name": "Khan Kaffrun", "name:ca": "Khan Kaffrun"}}, {"type": "node", "id": 5048682623, "lat": 41.4065596, "lon": 2.1618272, "tags": {"addr:street": "Carrer de l'Escorial", "name": "Macxipan", "name:ca": "Macxipan", "shop": "bakery", "wheelchair": "yes"}}, {"type": "node", "id": 5052302921, "lat": 41.4074138, "lon": 2.1563841, "tags": {"addr:housenumber": "21", "addr:street": "Carrer de Vilafranca", "amenity": "restaurant", "name": "Ateneu del Rino", "name:ca": "Ateneu del Rino"}}, {"type": "node", "id": 5052302922, "lat": 41.4082071, "lon": 2.1557593, "tags": {"addr:housenumber": "80", "addr:street": "Carrer de Sant Salvador", "amenity": "restaurant", "lunch": "menu", "name": "Cliper", "name:ca": "Cliper", "wheelchair": "no"}}, {"type": "node", "id": 5052305822, "lat": 41.4077693, "lon": 2.1552242, "tags": {"addr:housenumber": "58", "addr:street": "Carrer de l'Alzina", "amenity": "bar", "name": "Bodega Costa Brava", "name:ca": "Bodega Costa Brava"}}, {"type": "node", "id": 5052314721, "lat": 41.407315, "lon": 2.1556575, "tags": {"addr:city": "Barcelona", "addr:housenumber": "46", "addr:street": "Carrer de l'Alzina", "amenity": "bar", "contact:facebook": "https://www.facebook.com/pages/Bar-ILLUMINATI/193369804029235", "name": "Illuminati", "name:ca": "Illuminati", "outdoor_seating": "yes", "wheelchair": "no"}}, {"type": "node", "id": 5052322621, "lat": 41.4072801, "lon": 2.1555409, "tags": {"addr:housenumber": "7-10", "addr:street": "Pla\u00e7a del Nord", "amenity": "cafe", "name": "Perdem el Nord", "name:ca": "Perdem el Nord"}}, {"type": "node", "id": 5052323721, "lat": 41.4062859, "lon": 2.1564884, "tags": {"addr:housenumber": "30-32", "addr:street": "Carrer de la Provid\u00e8ncia", "amenity": "bar", "name": "Continental", "name:ca": "Continental"}}, {"type": "node", "id": 5052323722, "lat": 41.4073699, "lon": 2.1534425, "tags": {"addr:housenumber": "138", "addr:street": "Carrer de Verdi", "amenity": "bar", "name": "Bertso Taberna", "name:ca": "Bertso Taberna"}}, {"type": "node", "id": 5052331221, "lat": 41.404712, "lon": 2.1558821, "tags": {"addr:housenumber": "65", "addr:street": "Carrer de Verdi", "amenity": "restaurant", "name": "La Bicicleta", "name:ca": "La Bicicleta", "wheelchair": "yes"}}, {"type": "node", "id": 5052331223, "lat": 41.4035458, "lon": 2.1572597, "tags": {"addr:housenumber": "18", "addr:postcode": "08012", "addr:street": "Carrer de Verdi", "amenity": "restaurant", "cuisine": "arab", "name": "Amrit", "phone": "+34932176550", "website": "restaurantesirio.es", "wheelchair": "no"}}, {"type": "node", "id": 5052335221, "lat": 41.4040511, "lon": 2.1567248, "tags": {"addr:housenumber": "36", "addr:street": "Carrer de Verdi", "amenity": "restaurant", "name": "D. O Vins i Platllos", "name:ca": "D. O Vins i Platllos", "wheelchair": "no"}}, {"type": "node", "id": 5052924921, "lat": 41.4040952, "lon": 2.1565512, "tags": {"addr:housenumber": "39", "addr:street": "Carrer de Verdi", "amenity": "restaurant", "cuisine": "tapas", "name": "Gasterea", "name:ca": "Gasterea"}}, {"type": "node", "id": 5052924923, "lat": 41.4038389, "lon": 2.156834, "tags": {"addr:housenumber": "31", "addr:street": "Carrer de Verdi", "amenity": "restaurant", "cuisine": "tapas", "name": "Vita Gastrobar", "name:ca": "Vita Gastrobar", "wheelchair": "no"}}, {"type": "node", "id": 5052926323, "lat": 41.4039793, "lon": 2.1566669, "tags": {"addr:housenumber": "35", "addr:street": "Carrer de Verdi", "amenity": "restaurant", "cuisine": "pizza", "name": "Casa de pizzas", "name:ca": "Casa de pizzas", "wheelchair": "limited"}}, {"type": "node", "id": 5052927622, "lat": 41.4034829, "lon": 2.1573059, "tags": {"addr:housenumber": "16", "addr:street": "Carrer de Verdi", "amenity": "restaurant", "cuisine": "lebanese", "name": "Al Waha", "name:ca": "Al Waha", "website": "https://alwaha.dudaone.com/", "wheelchair": "no"}}, {"type": "node", "id": 5052929922, "lat": 41.4034933, "lon": 2.1571953, "tags": {"addr:housenumber": "17", "addr:street": "Carrer de Verdi", "amenity": "fast_food", "cuisine": "crepe", "name": "Creps Barcelona", "name:ca": "Creps Barcelona", "takeaway": "only", "website": "http://www.crepsbarcelona.com/", "wheelchair": "no"}}, {"type": "node", "id": 5052948824, "lat": 41.4032699, "lon": 2.1573857, "tags": {"addr:housenumber": "11", "addr:postcode": "08012", "addr:street": "Carrer de Verdi", "amenity": "restaurant", "branch": "Verdi", "cuisine": "kebab;lebanese", "name": "Ugarit", "phone": "+34932178622", "website": "http://ugarit.es"}}, {"type": "node", "id": 5052957721, "lat": 41.4033818, "lon": 2.1573018, "tags": {"addr:housenumber": "15", "addr:street": "Carrer de Verdi", "amenity": "restaurant", "cuisine": "crepe", "name": "Creps Barcelona", "name:ca": "Creps Barcelona", "website": "http://www.crepsbarcelona.com/#rte", "wheelchair": "no"}}, {"type": "node", "id": 5052975422, "lat": 41.4034341, "lon": 2.157368, "tags": {"addr:housenumber": "14", "addr:street": "Carrer de Verdi", "amenity": "restaurant", "cuisine": "hot_dog", "name": "Frankfurt Verdi", "name:ca": "Frankfurt Verdi", "wheelchair": "no"}}, {"type": "node", "id": 5053620423, "lat": 41.4033461, "lon": 2.1557881, "tags": {"addr:street": "Carrer del Torrent de l'Olla", "amenity": "restaurant", "cuisine": "sushi", "name": "Ramon-II", "name:ca": "Ramon-II"}}, {"type": "node", "id": 5053620424, "lat": 41.4027436, "lon": 2.1565881, "tags": {"addr:street": "Carrer del Torrent de l'Olla", "amenity": "restaurant", "cuisine": "mediterranean", "name": "Karakala", "name:ca": "Karakala", "wheelchair": "no"}}, {"type": "node", "id": 5053620425, "lat": 41.4023753, "lon": 2.156805, "tags": {"addr:city": "Barcelona", "addr:housenumber": "111", "addr:postcode": "08012", "addr:street": "Carrer del Torrent de l'Olla", "amenity": "restaurant", "cuisine": "burger", "description": "@lagolosa_vegan_vurger on Instagram", "diet:vegan": "vegan", "name": "La Golosa Vegan Vurger"}}, {"type": "node", "id": 5053620427, "lat": 41.4032469, "lon": 2.1568198, "tags": {"name": "Pastisseria Pr\u00edncipe", "name:ca": "Pastisseria Pr\u00edncipe", "shop": "confectionery"}}, {"type": "node", "id": 5053620428, "lat": 41.4038828, "lon": 2.1560208, "tags": {"name": "A Casa Portuguesa", "name:ca": "A Casa Portuguesa", "shop": "bakery"}}, {"type": "node", "id": 5053620429, "lat": 41.4042204, "lon": 2.1560248, "tags": {"addr:street": "Pla\u00e7a del Diamant", "amenity": "ice_cream", "name": "K\u00f6nos", "name:ca": "K\u00f6nos"}}, {"type": "node", "id": 5053640222, "lat": 41.4038153, "lon": 2.1559258, "tags": {"amenity": "fast_food", "cuisine": "hot_dog", "name": "The Dog is Hot", "name:ca": "The Dog is Hot"}}, {"type": "node", "id": 5053640922, "lat": 41.4043903, "lon": 2.154674, "tags": {"addr:street": "Carrer del Torrent de l'Olla", "amenity": "bar", "name": "Avenue", "name:ca": "Avenue"}}, {"type": "node", "id": 5053669722, "lat": 41.4034089, "lon": 2.1557069, "tags": {"addr:street": "Carrer del Torrent de l'Olla", "amenity": "restaurant", "cuisine": "pizza", "name": "Ramon", "name:ca": "Ramon"}}, {"type": "node", "id": 5053669724, "lat": 41.4023295, "lon": 2.1586126, "tags": {"addr:street": "Carrer de la Mare de D\u00e9u dels Desamparats", "amenity": "restaurant", "cuisine": "tapas", "name": "La Xula Taperia", "name:ca": "La Xula Taperia"}}, {"type": "node", "id": 5053669725, "lat": 41.4042952, "lon": 2.1559307, "tags": {"addr:street": "Pla\u00e7a del Diamant", "amenity": "fast_food", "name": "\u00c0sia amb Gr\u00e0cia", "name:ca": "\u00c0sia amb Gr\u00e0cia"}}, {"type": "node", "id": 5075055321, "lat": 41.4093432, "lon": 2.1549658, "tags": {"addr:housenumber": "52", "addr:street": "Travessera de Dalt", "amenity": "cafe", "cuisine": "sandwich;breakfast;tapas;coffee_shop", "name": "El Rac\u00f3 de Dalt", "name:ca": "El Rac\u00f3 de Dalt", "opening_hours": "Mo-Fr 07:00-20:30; Sa 08:00-15:30"}}, {"type": "node", "id": 5075055323, "lat": 41.4085855, "lon": 2.1529197, "tags": {"addr:housenumber": "24", "addr:street": "Travessera de Dalt", "amenity": "restaurant", "cuisine": "tapas", "name": "Bar restaurant Nit", "name:ca": "Bar restaurant Nit"}}, {"type": "node", "id": 5075066021, "lat": 41.4090375, "lon": 2.1542011, "tags": {"addr:housenumber": "42", "addr:street": "Travessera de Dalt", "amenity": "fast_food", "cuisine": "japanese", "name": "vullSUSHI", "name:ca": "vullSUSHI", "website": "http://www.vullsushi.com/mobile/"}}, {"type": "node", "id": 5075075724, "lat": 41.410729, "lon": 2.1578581, "tags": {"addr:housenumber": "75", "addr:street": "Carrer de l'Escorial", "name": "Sol Pa", "name:ca": "Sol Pa", "shop": "bakery"}}, {"type": "node", "id": 5075699721, "lat": 41.406363, "lon": 2.1601701, "tags": {"addr:housenumber": "44", "addr:street": "Carrer de l'Encarnaci\u00f3", "amenity": "restaurant", "cuisine": "lebanese", "name": "Sannin", "name:ca": "Sannin", "opening_hours": "Mo-Sa 13:30-00:00; Su 13:30-23:30", "website": "http://restaurantelibanessannin.com/"}}, {"type": "node", "id": 5082155121, "lat": 41.407121, "lon": 2.1617047, "tags": {"addr:street": "Carrer de l'Escorial", "amenity": "cafe", "cuisine": "sandwich;coffee_shop", "name": "Cal KETO", "name:ca": "Cal KETO"}}, {"type": "node", "id": 5082288923, "lat": 41.4038545, "lon": 2.1605533, "tags": {"amenity": "fast_food", "cuisine": "japanese", "name": "DIP Dumpling", "name:ca": "DIP Dumpling"}}, {"type": "node", "id": 5088945622, "lat": 41.4070202, "lon": 2.1575787, "tags": {"addr:street": "Carrer de la Provid\u00e8ncia", "name": "Vin BCN", "name:ca": "Vin BCN", "shop": "wine"}}, {"type": "node", "id": 5088945623, "lat": 41.4079968, "lon": 2.1593468, "tags": {"addr:housenumber": "88", "addr:street": "Carrer de la Provid\u00e8ncia", "amenity": "restaurant", "cuisine": "mexican", "name": "La Catrina", "name:ca": "La Catrina"}}, {"type": "node", "id": 5088945624, "lat": 41.4064416, "lon": 2.1586102, "tags": {"addr:housenumber": "29", "addr:street": "Carrer del Congost", "amenity": "restaurant", "name": "Laila", "name:ca": "Laila"}}, {"type": "node", "id": 5088945722, "lat": 41.4066765, "lon": 2.1569377, "tags": {"addr:housenumber": "41", "addr:street": "Carrer de la Provid\u00e8ncia", "amenity": "restaurant", "cuisine": "traditional", "delivery": "no", "name": "La Juanola", "outdoor_seating": "yes", "smoking": "outside", "takeaway": "no"}}, {"type": "node", "id": 5088945723, "lat": 41.4068568, "lon": 2.157354, "tags": {"addr:street": "Carrer de la Provid\u00e8ncia", "brand": "Suma", "brand:wikidata": "Q58012362", "name": "Suma", "shop": "supermarket", "wheelchair": "yes"}}, {"type": "node", "id": 5088998921, "lat": 41.406674, "lon": 2.1570864, "tags": {"addr:street": "Carrer de la Provid\u00e8ncia", "name": "Love Fruit", "name:ca": "Love Fruit", "shop": "greengrocer"}}, {"type": "node", "id": 5089020421, "lat": 41.4047833, "lon": 2.1584509, "tags": {"addr:housenumber": "37", "addr:street": "Carrer del Torrent d'en Vidalet", "amenity": "bar", "cocktails": "yes", "name": "Elephanta", "name:ca": "Elephanta", "website": "http://elephanta.cat/"}}, {"type": "node", "id": 5089333721, "lat": 41.4039304, "lon": 2.1596083, "tags": {"name": "Antic Celler de Gr\u00e0cia", "name:ca": "Antic Celler de Gr\u00e0cia", "shop": "wine"}}, {"type": "node", "id": 5089333722, "lat": 41.4045731, "lon": 2.1575966, "tags": {"addr:housenumber": "53", "addr:street": "Carrer de Torrijos", "amenity": "fast_food", "cuisine": "pizza", "name": "La Bottega di Lapio", "name:ca": "La Bottega di Lapio", "takeaway": "yes", "wheelchair": "limited"}}, {"type": "node", "id": 5089333723, "lat": 41.4052466, "lon": 2.1565749, "tags": {"addr:street": "Carrer de la Santa Creu", "amenity": "cafe", "name": "Copa Caf\u00e9", "name:ca": "Copa Caf\u00e9", "note": "Entrepans i amanides"}}, {"type": "node", "id": 5089333724, "lat": 41.4051544, "lon": 2.1566734, "tags": {"addr:street": "Carrer de la Santa Creu", "amenity": "fast_food", "cuisine": "piadina", "name": "La Piadina", "name:ca": "La Piadina"}}, {"type": "node", "id": 5089333821, "lat": 41.4038606, "lon": 2.158426, "tags": {"addr:housenumber": "50", "addr:street": "Carrer de Torrijos", "amenity": "fast_food", "cuisine": "mexican", "name": "Teicawey", "name:ca": "Teicawey", "takeaway": "only"}}, {"type": "node", "id": 5089333922, "lat": 41.4040247, "lon": 2.1581401, "tags": {"amenity": "cafe", "name": "El Caf\u00e9 del Teatre", "name:ca": "El Caf\u00e9 del Teatre", "opening_hours": "Mo-Th 09:00-02:30, Fr 09:00-03:00, Sa 11:00-03:00, Su 18:00-02:00"}}, {"type": "node", "id": 5089333923, "lat": 41.4046748, "lon": 2.1575648, "tags": {"addr:street": "Carrer de Torrijos", "amenity": "restaurant", "name": "El Bandarra", "name:ca": "El Bandarra", "wheelchair": "no"}}, {"type": "node", "id": 5089333924, "lat": 41.4084378, "lon": 2.1562229, "tags": {"addr:street": "Carrer de Sant Salvador", "amenity": "bar", "name": "El Got", "name:ca": "El Got", "wheelchair": "yes"}}, {"type": "node", "id": 5089333925, "lat": 41.4080887, "lon": 2.1574704, "tags": {"shop": "bakery"}}, {"type": "node", "id": 5090543271, "lat": 41.4032943, "lon": 2.1589741, "tags": {"addr:city": "Barcelona", "addr:housenumber": "30", "addr:street": "Carrer de Torrijos", "amenity": "restaurant", "cuisine": "mexican", "name": "Chido One"}}, {"type": "node", "id": 5090559942, "lat": 41.4038352, "lon": 2.1596912, "tags": {"addr:housenumber": "26", "addr:street": "Carrer del Torrent d'en Vidalet", "amenity": "restaurant", "name": "Arrosseria X\u00e0tiva", "website": "http://www.grupxativa.com/"}}, {"type": "node", "id": 5103626924, "lat": 41.4051906, "lon": 2.1553839, "tags": {"addr:housenumber": "79", "addr:street": "Carrer de Verdi", "amenity": "cafe", "name": "Camelia", "name:ca": "Camelia", "name:en": "Camelia Vegan Cafe", "wheelchair": "limited"}}, {"type": "node", "id": 5103643523, "lat": 41.4062568, "lon": 2.1564886, "tags": {"addr:housenumber": "30-32", "addr:street": "Carrer de la Provid\u00e8ncia", "amenity": "bar", "name": "Continental Bar", "name:ca": "Continental Bar"}}, {"type": "node", "id": 5103643526, "lat": 41.4068358, "lon": 2.1537705, "tags": {"addr:housenumber": "141", "addr:street": "Carrer de Verdi", "amenity": "bar", "name": "Bodega Cal Pep", "name:ca": "Bodega Cal Pep"}}, {"type": "node", "id": 5103659928, "lat": 41.4036906, "lon": 2.1569828, "tags": {"addr:housenumber": "21-23", "addr:street": "Carrer de Verdi", "amenity": "restaurant", "cuisine": "kebab;lebanese", "name": "Equinox", "name:ca": "Equinox", "wheelchair": "limited"}}, {"type": "node", "id": 5103660022, "lat": 41.4046678, "lon": 2.156036, "tags": {"addr:housenumber": "56", "addr:street": "Carrer de Verdi", "amenity": "restaurant", "cuisine": "chinese", "name": "L'Os Panda", "name:ca": "L'Os Panda", "wheelchair": "no"}}, {"type": "node", "id": 5103674822, "lat": 41.4036017, "lon": 2.1570713, "tags": {"addr:housenumber": "19", "addr:street": "Carrer de Verdi", "amenity": "restaurant", "name": "Braseria la Vila", "name:ca": "Braseria la Vila", "website": "http://braserialavila.com/"}}, {"type": "node", "id": 5103680023, "lat": 41.4038895, "lon": 2.1569036, "tags": {"addr:housenumber": "30", "addr:street": "Carrer de Verdi", "amenity": "restaurant", "cuisine": "tapas", "name": "La Trini", "name:ca": "La Trini", "wheelchair": "no"}}, {"type": "node", "id": 5103702421, "lat": 41.4035902, "lon": 2.1572028, "tags": {"addr:housenumber": "20 Bis", "addr:postcode": "08012", "addr:street": "Carrer de Verdi", "amenity": "fast_food", "cuisine": "chinese", "name": "Wok Verdi", "name:ca": "Wok Verdi", "opening_hours": "We-Mo 12:00-23:00", "phone": "+34 932 17 06 24", "takeaway": "yes", "wheelchair": "no"}}, {"type": "node", "id": 5105012621, "lat": 41.403599, "lon": 2.1524498, "tags": {"amenity": "restaurant", "name": "El Rebost de la Plana", "name:ca": "El Rebost de la Plana"}}, {"type": "node", "id": 5105012622, "lat": 41.40375, "lon": 2.1527201, "tags": {"addr:street": "Carrer de Santa Magdalena", "amenity": "cafe", "name": "Bar Paica", "name:ca": "Bar Paica"}}, {"type": "node", "id": 5105012623, "lat": 41.4057494, "lon": 2.1549308, "tags": {"addr:street": "Carrer de Verdi", "amenity": "ice_cream", "cuisine": "crepe;piadina;frozen_yogurt", "name": "Affogato", "name:ca": "Affogato"}}, {"type": "node", "id": 5105012624, "lat": 41.4047797, "lon": 2.1558159, "tags": {"addr:street": "Carrer de Verdi", "name": "La Festival, the place to vi", "name:ca": "La Festival, the place to vi", "shop": "wine"}}, {"type": "node", "id": 5105012625, "lat": 41.4046305, "lon": 2.1559768, "tags": {"addr:street": "Carrer de Verdi", "name": "Bodegas Mallorqu\u00ed", "name:ca": "Bodegas Mallorqu\u00ed", "shop": "wine"}}, {"type": "node", "id": 5105012626, "lat": 41.40456, "lon": 2.156185, "tags": {"addr:street": "Carrer d'Ast\u00faries", "name": "Pastisseria Verdi", "name:ca": "Pastisseria Verdi", "shop": "bakery"}}, {"type": "node", "id": 5105012628, "lat": 41.4031185, "lon": 2.1578012, "tags": {"addr:housenumber": "6", "addr:street": "Carrer de Verdi", "amenity": "bar", "name": "Entre Hores", "name:ca": "Entre Hores", "wheelchair": "no"}}, {"type": "node", "id": 5105012629, "lat": 41.4029634, "lon": 2.1581087, "tags": {"amenity": "ice_cream", "name": "Dino, gelateria italiana", "name:ca": "Dino, gelateria italiana", "opening_hours": "PH,Mo-Su 12:00-01:00"}}, {"type": "node", "id": 5105012631, "lat": 41.402733, "lon": 2.1599817, "tags": {"addr:housenumber": "203", "addr:street": "Travessera de Gr\u00e0cia", "amenity": "restaurant", "contact:facebook": "quinoa.barvegetaria", "contact:phone": "+34931129326", "diet:vegan": "yes", "diet:vegetarian": "only", "name": "Quinoa Bar Vegetari\u00e0", "opening_hours": "Mo-Th 11:00-23:00; Fr-Sa 11:00-23:30"}}, {"type": "node", "id": 5105012721, "lat": 41.4055221, "lon": 2.1551571, "tags": {"name": "La Dulce Fresa", "name:ca": "La Dulce Fresa", "shop": "greengrocer", "wheelchair": "limited"}}, {"type": "node", "id": 5105012821, "lat": 41.4037516, "lon": 2.1569275, "tags": {"addr:housenumber": "29", "addr:street": "Carrer de Verdi", "amenity": "fast_food", "contact:website": "https://lasmuns.com/", "cuisine": "pasty;argentinian", "diet:vegan": "yes", "name": "Las Muns", "name:ca": "Las Muns", "opening_hours": "Tu-Fr 12:30-23:30; Sa 12:30-00:00", "takeaway": "yes"}}, {"type": "node", "id": 5105012921, "lat": 41.4030828, "lon": 2.1578258, "tags": {"addr:housenumber": "4", "addr:street": "Carrer de Verdi", "check_date:opening_hours": "2022-06-22", "name": "Macxipa", "name:ca": "Macxipa", "opening_hours:signed": "no", "shop": "bakery", "wheelchair": "yes"}}, {"type": "node", "id": 5105013121, "lat": 41.4026255, "lon": 2.1600706, "tags": {"addr:street": "Travessera de Gr\u00e0cia", "name": "Macxipa", "name:ca": "Macxipa", "shop": "bakery"}}, {"type": "node", "id": 5105040322, "lat": 41.4028433, "lon": 2.1600141, "tags": {"addr:housenumber": "3", "addr:street": "Carrer de Ciudad Real", "amenity": "restaurant", "name": "Xasomo", "name:ca": "Xasomo"}}, {"type": "node", "id": 5105084051, "lat": 41.4084753, "lon": 2.1578626, "tags": {"addr:housenumber": "113", "addr:street": "Carrer del Torrent de les Flors", "amenity": "restaurant", "cuisine": "tapas", "name": "La Taberna del Torrent", "name:ca": "La Taberna del Torrent"}}, {"type": "node", "id": 5109943024, "lat": 41.4045513, "lon": 2.1545123, "tags": {"addr:street": "Carrer del Torrent de l'Olla", "amenity": "restaurant", "cuisine": "tapas", "name": "Avenue", "name:ca": "Avenue"}}, {"type": "node", "id": 5109943025, "lat": 41.4027512, "lon": 2.1565766, "tags": {"addr:street": "Carrer del Torrent de l'Olla", "amenity": "restaurant", "cuisine": "lebanese", "name": "Karakala", "name:ca": "Karakala"}}, {"type": "node", "id": 5109943026, "lat": 41.4026504, "lon": 2.1565427, "tags": {"addr:street": "Carrer del Torrent de l'Olla", "name": "Le Regioni d'It\u00e0lia", "name:ca": "Le Regioni d'It\u00e0lia", "shop": "supermarket", "wheelchair": "limited"}}, {"type": "node", "id": 5109943027, "lat": 41.4025843, "lon": 2.1566018, "tags": {"addr:street": "Carrer del Torrent de l'Olla", "name": "Bon", "name:ca": "Bon", "shop": "supermarket", "wheelchair": "no"}}, {"type": "node", "id": 5109943029, "lat": 41.4022679, "lon": 2.1562771, "tags": {"addr:street": "Carrer de la Virtut", "amenity": "restaurant", "name": "Amaloca", "name:ca": "Amaloca"}}, {"type": "node", "id": 5109943321, "lat": 41.4063411, "lon": 2.1523784, "tags": {"amenity": "fast_food", "name": "Toma ya", "name:ca": "Toma ya"}}, {"type": "node", "id": 5109943322, "lat": 41.4042981, "lon": 2.1548855, "tags": {"addr:street": "Carrer del Torrent de l'Olla", "amenity": "restaurant", "cuisine": "tapas", "name": "Intr\u00e8pid", "name:ca": "Intr\u00e8pid"}}, {"type": "node", "id": 5109943323, "lat": 41.403208, "lon": 2.1560757, "tags": {"addr:street": "Carrer del Torrent de l'Olla", "amenity": "bar", "cuisine": "tea;ramen", "name": "Jiu snack & lounge", "name:ca": "Jiu snack & lounge"}}, {"type": "node", "id": 5109943324, "lat": 41.4031301, "lon": 2.1561415, "tags": {"name": "Manjares", "name:ca": "Manjares", "shop": "supermarket"}}, {"type": "node", "id": 5109943325, "lat": 41.4024468, "lon": 2.1567396, "tags": {"addr:city": "Barcelona", "addr:housenumber": "111", "addr:postcode": "08012", "addr:street": "Carrer del Torrent de l'Olla", "amenity": "restaurant", "cuisine": "crepe;tapas", "name": "St Germain", "name:ca": "St Germain", "wheelchair": "limited"}}, {"type": "node", "id": 5109943326, "lat": 41.4023818, "lon": 2.1569872, "tags": {"addr:housenumber": "126", "addr:postcode": "08012", "addr:street": "Carrer del Torrent de l'Olla", "name": "Amazonas", "name:ca": "Amazonas", "shop": "greengrocer", "wheelchair": "limited"}}, {"type": "node", "id": 5109943327, "lat": 41.4022355, "lon": 2.1569234, "tags": {"addr:street": "Carrer del Torrent de l'Olla", "amenity": "ice_cream", "name": "La lletera de Girona", "name:ca": "La lletera de Girona", "toilets:wheelchair": "no", "wheelchair": "yes"}}, {"type": "node", "id": 5109943328, "lat": 41.4016224, "lon": 2.1576678, "tags": {"addr:street": "Carrer del Torrent de l'Olla", "amenity": "restaurant", "cuisine": "pizza", "name": "Made in Sicily", "name:ca": "Made in Sicily"}}, {"type": "node", "id": 5109943329, "lat": 41.4017822, "lon": 2.1569752, "tags": {"addr:street": "Pla\u00e7a del Sol", "amenity": "bar", "name": "Woody", "name:ca": "Woody", "wheelchair": "limited"}}, {"type": "node", "id": 5109943330, "lat": 41.4017503, "lon": 2.1570283, "tags": {"addr:street": "Pla\u00e7a del Sol", "amenity": "cafe", "name": "Joali", "name:ca": "Joali", "wheelchair": "no"}}, {"type": "node", "id": 5109943331, "lat": 41.4018346, "lon": 2.1569169, "tags": {"addr:street": "Pla\u00e7a del Sol", "amenity": "cafe", "diet:vegetarian": "only", "name": "Sol de Nit", "name:ca": "Sol de Nit", "opening_hours": "Su-Th 12:00-02:30, Fr,Sa 12:00-03:00", "wheelchair": "no"}}, {"type": "node", "id": 5109943332, "lat": 41.4018894, "lon": 2.156703, "tags": {"addr:street": "Pla\u00e7a del Sol", "amenity": "restaurant", "name": "Envalira", "name:ca": "Envalira", "wheelchair": "no"}}, {"type": "node", "id": 5109943334, "lat": 41.4050307, "lon": 2.1549408, "tags": {"addr:street": "Carrer de Topazi", "amenity": "restaurant", "name": "Le Standard", "name:ca": "Le Standard"}}, {"type": "node", "id": 5109943421, "lat": 41.4058136, "lon": 2.1529585, "tags": {"name": "Mercat Fresh", "name:ca": "Mercat Fresh", "shop": "greengrocer"}}, {"type": "node", "id": 5109943422, "lat": 41.4052752, "lon": 2.1538051, "tags": {"addr:housenumber": "200", "addr:street": "Carrer del Torrent de l'Olla", "name": "Veritas", "name:ca": "Veritas", "shop": "supermarket"}}, {"type": "node", "id": 5109943423, "lat": 41.4045232, "lon": 2.1546547, "tags": {"addr:housenumber": "180", "addr:street": "Carrer del Torrent de l'Olla", "brand": "Condis", "brand:wikidata": "Q57417581", "name": "Condis", "operator": "Condis", "shop": "supermarket"}}, {"type": "node", "id": 5109943424, "lat": 41.4011104, "lon": 2.157588, "tags": {"addr:street": "Travessera de Gr\u00e0cia", "amenity": "restaurant", "name": "Barbarela", "name:ca": "Barbarela"}}, {"type": "node", "id": 5109943425, "lat": 41.4048898, "lon": 2.1550603, "tags": {"addr:street": "Carrer de Topazi", "amenity": "bar", "name": "\u00cdndex Gr\u00e0cia", "name:ca": "\u00cdndex Gr\u00e0cia"}}, {"type": "node", "id": 5109943428, "lat": 41.4051381, "lon": 2.1548128, "tags": {"addr:street": "Carrer de Topazi", "amenity": "restaurant", "cuisine": "pizza", "name": ".IT", "name:ca": ".IT", "opening_hours": "Mo-Sa 09:15-23:30"}}, {"type": "node", "id": 5109943429, "lat": 41.4056347, "lon": 2.1552548, "tags": {"addr:housenumber": "1", "addr:street": "Carrer de la Provid\u00e8ncia", "amenity": "restaurant", "name": "The Hip Fish - Poke Bowls & Sushi Burritos", "name:ca": "The Hip Fish - Poke Bowls & Sushi Burritos", "website": "http://www.thehipfish.com/"}}, {"type": "node", "id": 5109943721, "lat": 41.4038659, "lon": 2.1553363, "tags": {"addr:street": "Carrer del Torrent de l'Olla", "name": "Frucat", "name:ca": "Frucat", "shop": "greengrocer"}}, {"type": "node", "id": 5109943921, "lat": 41.4018078, "lon": 2.1569455, "tags": {"addr:street": "Pla\u00e7a del Sol", "amenity": "fast_food", "name": "16 La Sedici", "name:ca": "16 La Sedici", "wheelchair": "yes"}}, {"type": "node", "id": 5110032621, "lat": 41.4065742, "lon": 2.1590318, "tags": {"brand": "Condis", "brand:wikidata": "Q57417581", "name": "Condis", "operator": "Condis", "shop": "supermarket"}}, {"type": "node", "id": 5110884421, "lat": 41.4025986, "lon": 2.152589, "tags": {"addr:city": "Barcelona", "addr:street": "Carrer Gran de Gr\u00e0cia", "amenity": "cafe", "name": "Aran", "name:ca": "Aran"}}, {"type": "node", "id": 5110885923, "lat": 41.4040422, "lon": 2.151722, "tags": {"addr:street": "Carrer Gran de Gr\u00e0cia", "amenity": "fast_food", "name": "Nostrum", "name:ca": "Nostrum"}}, {"type": "node", "id": 5111894222, "lat": 41.4050743, "lon": 2.1612642, "tags": {"addr:housenumber": "33", "addr:street": "Carrer de Bruniquer", "amenity": "restaurant", "cuisine": "mexican", "name": "Panchito", "name:ca": "Panchito"}}, {"type": "node", "id": 5125419921, "lat": 41.4034823, "lon": 2.1573273, "tags": {"amenity": "restaurant", "cuisine": "arab", "name": "Al Waha", "name:es": "Al Waha", "wheelchair": "no"}}, {"type": "node", "id": 5131775321, "lat": 41.4038445, "lon": 2.1583051, "tags": {"addr:housenumber": "37", "addr:street": "Carrer de Torrijos", "name": "La Besn\u00e9ta", "shop": "confectionery"}}, {"type": "node", "id": 5140939522, "lat": 41.4074729, "lon": 2.1512854, "tags": {"amenity": "restaurant", "name": "Spoonik"}}, {"type": "node", "id": 5152356104, "lat": 41.403517, "lon": 2.1555507, "tags": {"addr:city": "Barcelona", "addr:housenumber": "141", "addr:street": "Carrer del Torrent de l'Olla", "amenity": "bar", "diet:vegan": "yes", "name": "Casa Figari", "opening_hours": "Mo-Su 10:00-21:00; Fr-Sa 10:00-23:00", "organic": "yes", "phone": "+34 935 147 528", "takeaway": "yes", "website": "https://www.uaybalam.com/"}}, {"type": "node", "id": 5182261024, "lat": 41.4030198, "lon": 2.1570878, "tags": {"addr:street": "Carrer de les Guilleries", "amenity": "bar", "name": "Soda Ac\u00fastic", "name:ca": "La Pr\u00f2rroga"}}, {"type": "node", "id": 5182261025, "lat": 41.4029857, "lon": 2.1569234, "tags": {"addr:street": "Carrer de les Guilleries", "amenity": "restaurant", "name": "Vi Negre", "name:ca": "Vi Negre"}}, {"type": "node", "id": 5198201040, "lat": 41.4026951, "lon": 2.1564992, "tags": {"addr:street": "Carrer del Torrent de l'Olla", "amenity": "restaurant", "name": "La Caleta de Gr\u00e0cia", "name:ca": "La Caleta de Gr\u00e0cia"}}, {"type": "node", "id": 5198201041, "lat": 41.403475, "lon": 2.1556509, "tags": {"addr:street": "Carrer del Torrent de l'Olla", "name": "Uay Balam", "name:ca": "Uay Balam", "shop": "confectionery"}}, {"type": "node", "id": 5198201042, "lat": 41.4049046, "lon": 2.154089, "tags": {"addr:street": "Carrer del Torrent de l'Olla", "amenity": "cafe", "name": "El Molinet", "name:ca": "El Molinet"}}, {"type": "node", "id": 5198201043, "lat": 41.4058264, "lon": 2.1547128, "tags": {"addr:housenumber": "103", "addr:street": "Carrer de Verdi", "brand": "Bonpreu", "brand:wikidata": "Q11924747", "brand:wikipedia": "ca:Grup Bon Preu", "name": "Bonpreu", "shop": "supermarket", "wheelchair": "yes"}}, {"type": "node", "id": 5198201044, "lat": 41.4069979, "lon": 2.1575791, "tags": {"addr:street": "Carrer de la Provid\u00e8ncia", "name": "Vins BCN", "name:ca": "Vins BCN", "shop": "wine"}}, {"type": "node", "id": 5198201130, "lat": 41.4013868, "lon": 2.1580231, "tags": {"name": "Pastisseria Montserrat", "name:ca": "Pastisseria Montserrat", "shop": "confectionery", "wheelchair": "no"}}, {"type": "node", "id": 5198201523, "lat": 41.401299, "lon": 2.158147, "tags": {"addr:street": "Carrer del Torrent de l'Olla", "amenity": "restaurant", "name": "Can Tosca", "name:ca": "Can Tosca"}}, {"type": "node", "id": 5198633022, "lat": 41.4031163, "lon": 2.1581262, "tags": {"addr:street": "Carrer de Terol", "amenity": "cafe", "internet_access": "wlan", "name": "Espai de gats", "name:ca": "Espai de gats", "opening_hours": "We-Fr 17:00-21:00; Su 16:00-21:00", "wheelchair": "yes"}}, {"type": "node", "id": 5198633023, "lat": 41.4033258, "lon": 2.158487, "tags": {"addr:street": "Carrer de Terol", "amenity": "restaurant", "cuisine": "argentinian", "name": "R\u00fastico", "name:ca": "R\u00fastico"}}, {"type": "node", "id": 5198633024, "lat": 41.4039247, "lon": 2.1595905, "tags": {"name": "Antic Celler", "name:ca": "Antic Celler", "opening_hours:signed": "no", "shop": "wine"}}, {"type": "node", "id": 5198633025, "lat": 41.4068477, "lon": 2.1619196, "tags": {"addr:street": "Carrer de l'Escorial", "name": "Pr\u00f2xim", "name:ca": "Pr\u00f2xim", "shop": "supermarket", "wheelchair": "yes"}}, {"type": "node", "id": 5198633026, "lat": 41.407866, "lon": 2.1606277, "tags": {"addr:housenumber": "43", "addr:street": "Carrer de l'Escorial", "name": "Qaidre", "name:ca": "Qaidre", "shop": "supermarket", "wheelchair": "yes"}}, {"type": "node", "id": 5198633424, "lat": 41.4015017, "lon": 2.1553907, "tags": {"addr:street": "Carrer de Ros de Olano", "amenity": "restaurant", "cuisine": "pizza", "name": "La Gavina", "name:ca": "La Gavina"}}, {"type": "node", "id": 5198633425, "lat": 41.4052831, "lon": 2.1615829, "tags": {"addr:street": "Carrer de Bruniquer", "name": "Alimentaci\u00f3", "name:ca": "Alimentaci\u00f3", "shop": "supermarket"}}, {"type": "node", "id": 5198633426, "lat": 41.4054675, "lon": 2.161904, "tags": {"addr:street": "Carrer de Bruniquer", "amenity": "bar", "name": "Baloo", "name:ca": "Baloo", "wheelchair": "limited"}}, {"type": "node", "id": 5198633522, "lat": 41.4033939, "lon": 2.1587822, "tags": {"addr:city": "Barcelona", "addr:housenumber": "21", "addr:postcode": "08012", "addr:street": "Carrer de Torrijos", "amenity": "ice_cream", "diet:vegan": "yes", "name": "Bodevici", "opening_hours": "Mo-Th 16:30-21:00; Fr 16:30-23:45; Sa 12:30-23:45; Su 12:30-23:30; PH off", "outdoor_seating": "no", "takeaway": "only", "website": "https://bodevici.com/", "wheelchair": "limited"}}, {"type": "node", "id": 5198633523, "lat": 41.4045723, "lon": 2.1605914, "tags": {"addr:street": "Carrer de Bruniquer", "amenity": "restaurant", "name": "La Ta\u00edna", "name:ca": "La Ta\u00edna"}}, {"type": "node", "id": 5198645321, "lat": 41.4057577, "lon": 2.1623966, "tags": {"addr:street": "Carrer de Bruniquer", "amenity": "bar", "name": "De Copas", "name:es": "De Copas", "wheelchair": "no"}}, {"type": "node", "id": 5198645322, "lat": 41.4063576, "lon": 2.1620608, "tags": {"addr:street": "Carrer de l'Escorial", "name": "Shahid", "name:ca": "Shahid", "shop": "bakery"}}, {"type": "node", "id": 5198645522, "lat": 41.4065562, "lon": 2.1618631, "tags": {"addr:street": "Carrer de l'Escorial", "name": "MacxiPa", "name:ca": "MacxiPa", "shop": "bakery", "wheelchair": "yes"}}, {"type": "node", "id": 5205006025, "lat": 41.4024008, "lon": 2.157213, "tags": {"addr:housenumber": "6", "addr:street": "Carrer de Terol", "amenity": "restaurant", "contact:website": "http://www.samsarabcn.com/", "cuisine": "tapas", "diet:vegetarian": "yes", "name": "Samsara", "opening_hours": "Mo-Th 20:30-01:00; Fr 19:30-01:00; Sa-Su 13:00-16:00, 19:30-01:00"}}, {"type": "node", "id": 5207451825, "lat": 41.400527, "lon": 2.154037, "tags": {"addr:street": "Carrer del Cigne", "amenity": "restaurant", "cuisine": "japanese", "name": "Chiyoda", "name:ca": "Chiyoda"}}, {"type": "node", "id": 5207451826, "lat": 41.4011871, "lon": 2.1537743, "tags": {"addr:street": "Carrer Gran de Gr\u00e0cia", "amenity": "restaurant", "name": "Gr\u00e0cia Qualitat", "name:ca": "Gr\u00e0cia Qualitat"}}, {"type": "node", "id": 5207460023, "lat": 41.4022154, "lon": 2.152698, "tags": {"addr:street": "Carrer Gran de Gr\u00e0cia", "name": "Ametller Origen", "name:ca": "Ametller Origen", "shop": "convenience"}}, {"type": "node", "id": 5207460123, "lat": 41.4022366, "lon": 2.1529513, "tags": {"addr:street": "Carrer Gran de Gr\u00e0cia", "name": "Cal Molin\u00e9", "name:ca": "Cal Molin\u00e9", "opening_hours": "Mo-Fr 07:00-21:00; Sa 07:00-14:00; Su 08:00-14:30", "shop": "bakery"}}, {"type": "node", "id": 5207463721, "lat": 41.4016898, "lon": 2.1532348, "tags": {"addr:street": "Carrer Gran de Gr\u00e0cia", "amenity": "fast_food", "name": "Pizzeria Nico", "name:ca": "Pizzeria Nico", "wheelchair": "no"}}, {"type": "node", "id": 5209300521, "lat": 41.4040796, "lon": 2.1624313, "tags": {"amenity": "bar", "name": "The Butcher", "name:ca": "The Butcher"}}, {"type": "node", "id": 5218011021, "lat": 41.4007304, "lon": 2.1541542, "tags": {"addr:street": "Carrer del Cigne", "amenity": "cafe", "name": "Xarcuteria Ayl\u00f3", "name:ca": "Xarcuteria Ayl\u00f3"}}, {"type": "node", "id": 5218011022, "lat": 41.4026929, "lon": 2.1524337, "tags": {"addr:city": "Barcelona", "name": "Le Fournil", "name:ca": "Le Fournil", "shop": "bakery"}}, {"type": "node", "id": 5247173925, "lat": 41.4104479, "lon": 2.1584852, "tags": {"addr:housenumber": "168", "addr:street": "Carrer de l'Escorial", "amenity": "ice_cream", "name": "Barcelona", "name:ca": "Barcelona"}}, {"type": "node", "id": 5294029723, "lat": 41.4041699, "lon": 2.155526, "tags": {"addr:housenumber": "67", "addr:street": "Carrer d'Ast\u00faries", "amenity": "fast_food", "cuisine": "greek", "name": "The Quick Greek", "phone": "+34 993073978", "website": "https://thequickgreek.com/"}}, {"type": "node", "id": 5318367314, "lat": 41.4106116, "lon": 2.1562905, "tags": {"amenity": "fast_food", "brand": "Subway", "brand:wikidata": "Q244457", "brand:wikipedia": "en:Subway (restaurant)", "cuisine": "sandwich", "name": "Subway", "takeaway": "yes", "toilets:wheelchair": "no", "wheelchair": "yes"}}, {"type": "node", "id": 5318367320, "lat": 41.4104172, "lon": 2.1560269, "tags": {"amenity": "cafe", "cuisine": "regional", "name": "Bar dakmar", "toilets": "yes", "toilets:access": "customers"}}, {"type": "node", "id": 5318369223, "lat": 41.4103144, "lon": 2.1565212, "tags": {"shop": "supermarket", "wheelchair": "yes"}}, {"type": "node", "id": 5318369227, "lat": 41.4082686, "lon": 2.1520528, "tags": {"amenity": "restaurant"}}, {"type": "node", "id": 5368567157, "lat": 41.4038498, "lon": 2.1568046, "tags": {"addr:housenumber": "31", "addr:postcode": "08012", "addr:street": "Carrer de Verdi", "amenity": "restaurant", "internet_access": "wlan", "name": "Vita Gastrobar", "phone": "+34932696471", "wheelchair": "no"}}, {"type": "node", "id": 5409711109, "lat": 41.4028258, "lon": 2.1564806, "tags": {"addr:city": "Barcelona", "addr:housenumber": "138", "addr:postcode": "08012", "addr:street": "Carrer del Torrent de l'Olla", "amenity": "fast_food", "name": "Good Shit, Vegan Kebabs", "website": "https://goodshitvegan.com/"}}, {"type": "node", "id": 5415444571, "lat": 41.4035721, "lon": 2.1547339, "tags": {"description": "Ethical shop: clothes, books, yoga equipment and other sustainable products. There is a garden inside the shop.", "name": "Olokuti", "shop": "convenience"}}, {"type": "node", "id": 5567745722, "lat": 41.4006247, "lon": 2.1567125, "tags": {"shop": "bakery"}}, {"type": "node", "id": 5576598322, "lat": 41.4004742, "lon": 2.1545976, "tags": {"amenity": "restaurant", "cuisine": "spanish;regional;tapas;local", "name": "La Taverna de Cura"}}, {"type": "node", "id": 5810042153, "lat": 41.4039886, "lon": 2.1578815, "tags": {"addr:housenumber": "37", "addr:street": "Carrer de la Perla", "amenity": "restaurant", "name": "Mil Miralls", "wheelchair": "no"}}, {"type": "node", "id": 5896455488, "lat": 41.4071816, "lon": 2.1616247, "tags": {"name": "Miralles", "shop": "bakery", "wheelchair": "yes"}}, {"type": "node", "id": 5906254287, "lat": 41.4064585, "lon": 2.1494638, "tags": {"addr:street": "Pla\u00e7a de Lesseps", "amenity": "restaurant", "internet_access": "wlan", "name": "El Canari"}}, {"type": "node", "id": 5914745786, "lat": 41.408634, "lon": 2.1579129, "tags": {"brand": "Dia", "brand:wikidata": "Q925132", "brand:wikipedia": "es:DIA (supermercados)", "name": "Dia", "operator": "Distribuidora Internacional de Alimentaci\u00f3n, S.A.", "shop": "supermarket", "website": "https://www.dia.es"}}, {"type": "node", "id": 5916936388, "lat": 41.4083681, "lon": 2.1597307, "tags": {"addr:housenumber": "91", "addr:street": "Carrer de la Provid\u00e8ncia", "amenity": "bar", "name": "Bodega Casas"}}, {"type": "node", "id": 5930228986, "lat": 41.4002793, "lon": 2.1550423, "tags": {"addr:housenumber": "84", "addr:street": "Carrer Gran de Gr\u00e0cia", "amenity": "restaurant", "name": "Frankfurt Casa Vall\u00e8s"}}, {"type": "node", "id": 5930228987, "lat": 41.4012994, "lon": 2.15524, "tags": {"addr:street": "Carrer de Pere Seraf\u00ed", "amenity": "cafe", "name": "no es lo mismo"}}, {"type": "node", "id": 5930229085, "lat": 41.4007176, "lon": 2.1558176, "tags": {"access:covid19": "yes", "addr:street": "Carrer de Pere Seraf\u00ed", "description:covid19": "Abans confinament portaven comandes a domicili. A 20/04/20 no ho s\u00e9.", "name": "Sorli", "opening_hours": "Mo-Sa 09:00-21:00", "opening_hours:covid19": "open", "shop": "supermarket", "takeaway:covid19": "yes"}}, {"type": "node", "id": 5933850085, "lat": 41.4024389, "lon": 2.1545219, "tags": {"addr:street": "Travessia de Sant Antoni", "amenity": "bar", "name": "El bar del CAT"}}, {"type": "node", "id": 5980982690, "lat": 41.4059969, "lon": 2.1503966, "tags": {"addr:housenumber": "264", "addr:street": "Carrer Gran de Gr\u00e0cia", "name": "Farina & sons", "shop": "bakery"}}, {"type": "node", "id": 5980982691, "lat": 41.4064299, "lon": 2.1495521, "tags": {"addr:housenumber": "31", "addr:street": "Pla\u00e7a de Lesseps", "amenity": "cafe", "name": "El Dorn del Barri"}}, {"type": "node", "id": 6027971389, "lat": 41.4049439, "lon": 2.1637801, "tags": {"addr:street": "Travessera de Gr\u00e0cia", "amenity": "restaurant", "name": "Carlo's Bar"}}, {"type": "node", "id": 6034475485, "lat": 41.4053708, "lon": 2.1508787, "tags": {"addr:housenumber": "256", "addr:street": "Carrer Gran de Gr\u00e0cia", "amenity": "restaurant", "cuisine": "japanese", "name": "Take Ya"}}, {"type": "node", "id": 6037762686, "lat": 41.4011723, "lon": 2.156299, "tags": {"addr:housenumber": "7", "addr:street": "Carrer de Maspons", "amenity": "bar", "cuisine": "american;caribbean", "name": "Ya tu sabes"}}, {"type": "node", "id": 6041506085, "lat": 41.4059916, "lon": 2.1498213, "tags": {"addr:housenumber": "32", "addr:street": "Pla\u00e7a de Lesseps", "amenity": "bar", "name": "El Canari"}}, {"type": "node", "id": 6045090756, "lat": 41.4004787, "lon": 2.1564315, "tags": {"addr:housenumber": "137", "addr:street": "Travessera de Gr\u00e0cia", "description": "Bulk food shop", "name": "Graneria sala", "shop": "supermarket", "website": "http://www.bcngourmet.com/barcelona.asp?tienda=graneria-sala"}}, {"type": "node", "id": 6126216586, "lat": 41.4081939, "lon": 2.1518598, "tags": {"brand": "Condis", "brand:wikidata": "Q57417581", "name": "Condis", "shop": "supermarket"}}, {"type": "node", "id": 6164071079, "lat": 41.403957, "lon": 2.1517858, "tags": {"addr:city": "Barcelona", "addr:housenumber": "193", "addr:postcode": "08012", "addr:street": "Carrer Gran de Gr\u00e0cia", "amenity": "cafe", "name": "Plantaciones de Origen"}}, {"type": "node", "id": 6180468277, "lat": 41.407569, "lon": 2.1580274, "tags": {"addr:housenumber": "25", "addr:postcode": "08024", "addr:street": "Carrer de Rabassa", "entrance": "yes", "name": "Forn de la Rovira", "name:ca": "Forn de la Rovira", "shop": "bakery"}}, {"type": "node", "id": 6200571548, "lat": 41.4061025, "lon": 2.1515184, "tags": {"addr:city": "Barcelona", "addr:housenumber": "30", "addr:street": "Carrer de P\u00e9rez Gald\u00f3s", "amenity": "restaurant", "cuisine": "italian;pizza;italian_pizza", "delivery": "no", "name": "La Svolta", "outdoor_seating": "no", "takeaway": "yes", "website": "http://pizzerialasvolta.com/"}}, {"type": "node", "id": 6235929685, "lat": 41.4009743, "lon": 2.1546891, "tags": {"addr:housenumber": "4", "addr:street": "Carrer de Ros de Olano", "amenity": "restaurant", "cuisine": "chinese", "name": "Ray ko", "name:ca": "Ray ko. El sabor de Taiw\u00e1n"}}, {"type": "node", "id": 6374571513, "lat": 41.4094094, "lon": 2.1550737, "tags": {"brand": "Dia", "brand:wikidata": "Q925132", "brand:wikipedia": "es:DIA (supermercados)", "name": "Dia", "operator": "Distribuidora Internacional de Alimentaci\u00f3n, S.A.", "shop": "supermarket", "website": "https://www.dia.es", "wheelchair": "yes"}}, {"type": "node", "id": 6374571514, "lat": 41.4098881, "lon": 2.1558918, "tags": {"shop": "supermarket"}}, {"type": "node", "id": 6378883938, "lat": 41.4028224, "lon": 2.1571601, "tags": {"addr:housenumber": "10", "addr:postcode": "08012", "addr:street": "Carrer Vallfogona", "amenity": "pub", "name": "Velcro"}}, {"type": "node", "id": 6388689287, "lat": 41.4108184, "lon": 2.1580397, "tags": {"addr:street": "Carrer de l'Escorial", "amenity": "restaurant", "name": "El Bravo", "wheelchair": "no"}}, {"type": "node", "id": 6389455162, "lat": 41.4030573, "lon": 2.1522126, "tags": {"addr:city": "Barcelona", "addr:housenumber": "167", "addr:postcode": "08012", "addr:street": "Carrer Gran de Gr\u00e0cia", "name": "Sorli Discau", "shop": "supermarket", "website": "https://www.sorli.com"}}, {"type": "node", "id": 6389455163, "lat": 41.4030218, "lon": 2.1522341, "tags": {"addr:city": "Barcelona", "addr:housenumber": "167", "addr:postcode": "08012", "addr:street": "Carrer Gran de Gr\u00e0cia", "amenity": "restaurant", "cuisine": "tex-mex", "name": "Hola Manito", "website": "http://holamanito.es"}}, {"type": "node", "id": 6393899056, "lat": 41.4056088, "lon": 2.1621684, "tags": {"name": "Bruniquer", "shop": "supermarket", "wheelchair": "yes"}}, {"type": "node", "id": 6393899326, "lat": 41.4053905, "lon": 2.1621433, "tags": {"amenity": "restaurant", "name": "Navia", "website": "http://www.restaurantnavia.es"}}, {"type": "node", "id": 6533605250, "lat": 41.4036828, "lon": 2.1613674, "tags": {"addr:city": "Barcelona", "addr:housenumber": "227", "addr:postcode": "08012", "addr:street": "Travessera de Gr\u00e0cia", "bulk_purchase": "yes", "email": "gracia@granel.cat", "name": "Granel", "opening_hours": "Mo-Sa 10:30-14:30, 17:00-21:00", "phone": "+34 931195353", "shop": "convenience", "website": "https://granel.cat/ca/shop/granel-gracia/"}}, {"type": "node", "id": 6568369186, "lat": 41.4026072, "lon": 2.1531549, "tags": {"addr:housenumber": "6", "addr:street": "Carrer d'Ast\u00faries", "brand": "Caprabo", "brand:wikidata": "Q1980781", "brand:wikipedia": "en:Caprabo", "check_date:opening_hours": "2022-01-27", "name": "Caprabo", "opening_hours": "Mo-Su 08:00-23:00", "shop": "supermarket"}}, {"type": "node", "id": 6586522385, "lat": 41.4067093, "lon": 2.1505965, "tags": {"addr:housenumber": "10", "addr:street": "Pla\u00e7a de Lesseps", "amenity": "restaurant", "name": "Bart - ful"}}, {"type": "node", "id": 6594268985, "lat": 41.4087389, "lon": 2.1523731, "tags": {"addr:housenumber": "25-27", "addr:street": "Travessera de Dalt", "amenity": "restaurant", "internet_access": "wlan", "name": "Store Caf\u00e9 / El Arte"}}, {"type": "node", "id": 6594268986, "lat": 41.4087957, "lon": 2.1525398, "tags": {"addr:housenumber": "29", "addr:street": "Travessera de Dalt", "amenity": "restaurant", "internet_access": "wlan", "name": "Mylka"}}, {"type": "node", "id": 6594528986, "lat": 41.4083501, "lon": 2.1523369, "tags": {"addr:housenumber": "16m", "addr:street": "Travessera de Dalt", "name": "Pannus", "shop": "bakery"}}, {"type": "node", "id": 6594528987, "lat": 41.4080585, "lon": 2.151611, "tags": {"addr:housenumber": "8", "addr:street": "Travessera de Dalt", "name": "MacxiPa", "shop": "bakery"}}, {"type": "node", "id": 6594528988, "lat": 41.4061595, "lon": 2.1502247, "tags": {"amenity": "fast_food", "brand": "Burger King", "brand:wikidata": "Q177054", "brand:wikipedia": "es:Burger King", "cuisine": "burger", "name": "Burger King"}}, {"type": "node", "id": 6594550586, "lat": 41.4086725, "lon": 2.1532304, "tags": {"addr:housenumber": "30", "addr:street": "Travessera de Dalt", "name": "Santa Gloria", "shop": "bakery"}}, {"type": "node", "id": 6597321586, "lat": 41.4066359, "lon": 2.1510846, "tags": {"addr:housenumber": "40", "addr:street": "Carrer de P\u00e9rez Gald\u00f3s", "amenity": "fast_food", "name": "In\u00e8dit - menjar per emportar"}}, {"type": "node", "id": 6597321587, "lat": 41.4065151, "lon": 2.1509474, "tags": {"addr:housenumber": "45", "addr:street": "Carrer de P\u00e9rez Gald\u00f3s", "amenity": "restaurant", "name": "Welcome"}}, {"type": "node", "id": 6680297085, "lat": 41.4033002, "lon": 2.1570778, "tags": {"amenity": "restaurant", "name": "La ceba"}}, {"type": "node", "id": 6680396487, "lat": 41.4032976, "lon": 2.1567512, "tags": {"amenity": "bar", "indoor_seating": "yes", "name": "La prorroga", "outdoor_seating": "no"}}, {"type": "node", "id": 6681709948, "lat": 41.4018317, "lon": 2.1544539, "tags": {"addr:city": "Barcelona", "addr:housenumber": "13", "addr:postcode": "08012", "addr:street": "Carrer del Montseny", "amenity": "restaurant", "contact:facebook": "https://www.facebook.com/pages/category/Restaurant/Kiltro-RestoBar-612672442512184/", "contact:instagram": "https://www.instagram.com/kiltro_bcn", "cuisine": "latin_american", "email": "kiltrobcnrestobar@gmail.com", "name": "Kiltro", "opening_hours": "Tu-Th 18:00-01:30, Fr-Sa 18:00-02:00, Su 18:00-01:30", "phone": "+34931920763", "website": "http://www.kiltrobcn.com/"}}, {"type": "node", "id": 6757307686, "lat": 41.4017918, "lon": 2.1543486, "tags": {"addr:housenumber": "11", "addr:street": "carrer del Montseny", "amenity": "restaurant", "cuisine": "japanese", "indoor_seating": "yes", "name": "Kitsu", "outdoor_seating": "no"}}, {"type": "node", "id": 6757314385, "lat": 41.4018337, "lon": 2.1544437, "tags": {"addr:housenumber": "13", "addr:street": "carrer del Montseny", "amenity": "restaurant", "cuisine": "american;peruvian", "internet_access": "wlan", "name": "Kiltro"}}, {"type": "node", "id": 6793569688, "lat": 41.4050753, "lon": 2.1611977, "tags": {"amenity": "cafe", "internet_access": "wlan", "name": "SandwiChez"}}, {"type": "node", "id": 6793569986, "lat": 41.4045705, "lon": 2.1606703, "tags": {"addr:housenumber": "24", "addr:street": "Carrer de Bruniquer", "amenity": "restaurant", "cuisine": "indian", "internet_access": "wlan", "name": "Veg World India"}}, {"type": "node", "id": 6802897685, "lat": 41.4016324, "lon": 2.1584627, "tags": {"addr:housenumber": "176,178", "addr:street": "Travessera de Gr\u00e0cia", "brand": "La Sirena", "brand:wikidata": "Q21034458", "brand:wikipedia": "ca:La Sirena", "name": "La Sirena", "opening_hours": "Mo-Sa 09:00-21:00", "shop": "supermarket", "website": "https://www.lasirena.es/", "wheelchair": "limited"}}, {"type": "node", "id": 6972110985, "lat": 41.4064063, "lon": 2.1623185, "tags": {"name": "Fruites i verdures", "shop": "greengrocer"}}, {"type": "node", "id": 6974821361, "lat": 41.4034492, "lon": 2.155673, "tags": {"addr:housenumber": "137", "addr:street": "Carrer del Torrent de l'Olla", "amenity": "cafe", "name": "Bermont Coffee"}}, {"type": "node", "id": 7550814385, "lat": 41.4074955, "lon": 2.1587506, "tags": {"name": "Condis", "shop": "supermarket"}}, {"type": "node", "id": 7805831786, "lat": 41.4036581, "lon": 2.1549309, "tags": {"name": "La Comunal, fruiteria.ecol\u00f2gica", "shop": "greengrocer"}}, {"type": "node", "id": 7805831787, "lat": 41.4045622, "lon": 2.1561511, "tags": {"name": "Forn Sant Tirs", "shop": "bakery"}}, {"type": "node", "id": 7805847585, "lat": 41.4026164, "lon": 2.1584993, "tags": {"name": "The Forner", "opening_hours": "Mo-Sa 08:00-21:00; Su 09:00-21:00", "shop": "bakery"}}, {"type": "node", "id": 7879673385, "lat": 41.4024914, "lon": 2.1566597, "tags": {"addr:housenumber": "115", "addr:street": "Carrer del Torrent de l'Olla", "amenity": "fast_food", "cuisine": "pizza", "name": "Empanada club"}}, {"type": "node", "id": 7879673485, "lat": 41.4035201, "lon": 2.1555614, "tags": {"addr:housenumber": "141", "addr:street": "Carrer del Torrent de l'Olla", "amenity": "bar", "name": "Casa Figari"}}, {"type": "node", "id": 7879673685, "lat": 41.4049693, "lon": 2.154313, "tags": {"addr:housenumber": "1", "addr:street": "Carrer de Biada", "amenity": "cafe", "cuisine": "japanese", "name": "Omu"}}, {"type": "node", "id": 8255499155, "lat": 41.4013545, "lon": 2.1567461, "tags": {"addr:housenumber": "1", "addr:street": "Pla\u00e7a del Sol", "amenity": "fast_food", "changing_table": "no", "cuisine": "argentinian;italian;pizza", "level": "0", "name": "Mucci's", "outdoor_seating": "yes", "smoking": "outside", "toilets": "yes"}}, {"type": "node", "id": 8287320385, "lat": 41.404309, "lon": 2.1559221, "tags": {"diet:halal": "no", "level": "0", "name": "Plataforma C\u00e0rnica", "shop": "butcher"}}, {"type": "node", "id": 8450233837, "lat": 41.4018152, "lon": 2.1590359, "tags": {"addr:housenumber": "17", "name": "Carnisseria Gasch", "shop": "butcher"}}, {"type": "node", "id": 8450265256, "lat": 41.4014201, "lon": 2.1582472, "tags": {"name": "Kcho", "shop": "greengrocer"}}, {"type": "node", "id": 8497961034, "lat": 41.403829, "lon": 2.1619984, "tags": {"addr:housenumber": "216", "addr:street": "Travessera de Gr\u00e0cia", "name": "Granier", "shop": "bakery"}}, {"type": "node", "id": 8497996717, "lat": 41.4028732, "lon": 2.16052, "tags": {"addr:housenumber": "88", "addr:street": "Carrer de Mil\u00e0 i Fontanals", "amenity": "bar", "name": "La Graciosa"}}, {"type": "node", "id": 8497996718, "lat": 41.4039086, "lon": 2.1621366, "tags": {"name": "Caprabo", "shop": "supermarket"}}, {"type": "node", "id": 8511925333, "lat": 41.4047738, "lon": 2.1557696, "tags": {"addr:housenumber": "67", "addr:postcode": "08012", "addr:street": "Carrer de Verdi", "name": "Wine Palace", "opening_hours": "Mo-Sa 10:00-20:30; Su 10:00-14:00", "phone": "+34930232281", "shop": "wine", "website": "http://winepalace.es"}}, {"type": "node", "id": 8545069619, "lat": 41.4038996, "lon": 2.1561266, "tags": {"addr:housenumber": "10", "addr:street": "Carrer de l'Or", "name": "Diamant", "shop": "supermarket"}}, {"type": "node", "id": 8545107517, "lat": 41.4050697, "lon": 2.1574561, "tags": {"addr:housenumber": "3", "addr:street": "Pla\u00e7a de la Virreina", "amenity": "ice_cream", "name": "Amma"}}, {"type": "node", "id": 8545107518, "lat": 41.4014096, "lon": 2.156826, "tags": {"addr:city": "Barcelona", "addr:housenumber": "2", "addr:postcode": "08012", "addr:street": "Pla\u00e7a del Sol", "email": "hola@bodegadelsol.es", "name": "La Bodega del Sol", "opening_hours": "Mo 16:00-22:00; Tu,We 11:00-22:00; Th-Sa 11:00-23:00; Su 12:00-21:00", "phone": "+34 932 18 51 21", "real_ale": "yes", "shop": "alcohol", "website": "https://bodegadelsol.es/"}}, {"type": "node", "id": 8545107617, "lat": 41.4051465, "lon": 2.1573676, "tags": {"addr:housenumber": "4", "addr:street": "Pla\u00e7a de la Virreina", "name": "Supermercat", "shop": "supermarket"}},