{"version": 0.6, "generator": "Overpass API 0.7.58.5 b0c4acbb", "osm3s": {"timestamp_osm_base": "2022-09-04T18:00:09Z", "copyright": "The data included in this document is from www.openstreetmap.org. The data is made available under ODbL."}, "elements": [{"type": "node", "id": 6178499217, "lat": 41.4084509, "lon": 2.1849515, "tags": {"amenity": "bicycle_parking"}}, {"type": "node", "id": 6933487009, "lat": 41.4076, "lon": 2.18529, "tags": {"address": "C Arag\u00f3 573", "amenity": "bicycle_parking", "operator": "http://ajuntament.barcelona.cat/bicicleta/ca", "website": "http://ajuntament.barcelona.cat/bicicleta/ca"}}, {"type": "node", "id": 6933502361, "lat": 41.40841, "lon": 2.18474, "tags": {"address": "C Enamorats 147", "amenity": "bicycle_parking", "operator": "http://ajuntament.barcelona.cat/bicicleta/ca", "website": "http://ajuntament.barcelona.cat/bicicleta/ca"}}, {"type": "node", "id": 6933505562, "lat": 41.40794, "lon": 2.18378, "tags": {"address": "C Val\u00e8ncia 574", "amenity": "bicycle_parking", "operator": "http://ajuntament.barcelona.cat/bicicleta/ca", "website": "http://ajuntament.barcelona.cat/bicicleta/ca"}}, {"type": "node", "id": 6973988993, "lat": 41.40794, "lon": 2.18568, "tags": {"address": "C Arag\u00f3 585", "amenity": "taxi", "website": "www.taxibarcelona.cat"}}, {"type": "node", "id": 7107421794, "lat": 41.4081738, "lon": 2.1854005, "tags": {"access": "private", "amenity": "parking_entrance", "motor_vehicle": "designated"}}, {"type": "node", "id": 7107421795, "lat": 41.4082894, "lon": 2.1852475, "tags": {"access": "private", "amenity": "parking_entrance", "motor_vehicle": "designated"}}]}