{"version": 0.6, "generator": "Overpass API 0.7.58.5 b0c4acbb", "osm3s": {"timestamp_osm_base": "2022-08-31T09:24:08Z", "copyright": "The data included in this document is from www.openstreetmap.org. The data is made available under ODbL."}, "elements": [{"type": "node", "id": 660100527, "lat": 41.4046882, "lon": 2.1967694, "tags": {"amenity": "cafe", "cuisine": "spanish", "name": "Rambla Poblenou", "shop": "optician"}}, {"type": "node", "id": 660100529, "lat": 41.404858, "lon": 2.1941868, "tags": {"amenity": "cafe", "name": "El Fornet d'en Rosend"}}, {"type": "node", "id": 660771772, "lat": 41.4035018, "lon": 2.1977649, "tags": {"amenity": "restaurant", "name": "Anormalfood"}}, {"type": "node", "id": 660778318, "lat": 41.403467, "lon": 2.1978397, "tags": {"name": "granel", "shop": "convenience"}}, {"type": "node", "id": 660778771, "lat": 41.402858, "lon": 2.1987158, "tags": {"addr:housenumber": "105", "amenity": "restaurant", "cuisine": "spanish", "name": "braseria xorus"}}, {"type": "node", "id": 660779414, "lat": 41.402675, "lon": 2.1989594, "tags": {"addr:housenumber": "99", "addr:street": "Ramble de Poblenou", "amenity": "bar", "name": "Bar Burgales"}}, {"type": "node", "id": 660784487, "lat": 41.4027269, "lon": 2.1989008, "tags": {"amenity": "restaurant", "name": "La broqueta"}}, {"type": "node", "id": 660784488, "lat": 41.4027071, "lon": 2.1989239, "tags": {"addr:housenumber": "101", "amenity": "restaurant", "cuisine": "indian", "name": "Sitar"}}, {"type": "node", "id": 660784489, "lat": 41.4023418, "lon": 2.1991561, "tags": {"brand": "Mercadona", "brand:wikidata": "Q377705", "brand:wikipedia": "es:Mercadona", "name": "Mercadona", "opening_hours:covid19": "open", "operator": "Mercadona", "shop": "supermarket", "website": "https://www.mercadona.es"}}, {"type": "node", "id": 830462039, "lat": 41.4043015, "lon": 2.1949428, "tags": {"amenity": "cafe", "name": "Cafe Tampa", "smoking": "outside"}}, {"type": "node", "id": 1159727140, "lat": 41.4048148, "lon": 2.19663, "tags": {"opening_hours:covid19": "open", "shop": "greengrocer", "takeaway:covid19": "yes"}}, {"type": "node", "id": 1357828862, "lat": 41.4037433, "lon": 2.1938343, "tags": {"amenity": "cafe", "name": "Cafeter\u00eda universitaria", "opening_hours": "Mo-Fr 09:00-19:00"}}, {"type": "node", "id": 2075453725, "lat": 41.4012569, "lon": 2.1966826, "tags": {"addr:housenumber": "92", "addr:street": "Carrer Roc Boronat", "amenity": "restaurant", "cuisine": "spanish", "name": "La Mossegada del Poblenou", "smoking": "outside"}}, {"type": "node", "id": 2085656651, "lat": 41.4027075, "lon": 2.1977649, "tags": {"addr:city": "Barcelona", "addr:housenumber": "178", "addr:postcode": "08005", "addr:street": "Carrer de Pere IV", "amenity": "restaurant", "cuisine": "japanese", "name": "Arce", "phone": "+34 93 309 86 75"}}, {"type": "node", "id": 2187210264, "lat": 41.4023416, "lon": 2.1952788, "tags": {"addr:city": "Barcelona", "addr:housenumber": "114", "addr:postcode": "08018", "addr:street": "Carrer de Roc Boronat", "amenity": "restaurant", "cuisine": "mediterranean", "diet:vegan": "no", "diet:vegetarian": "only", "name": "Sopa", "organic": "only", "phone": "+34 933 09 56 76", "smoking": "outside", "takeaway": "yes", "website": "http://www.sopa.vg/"}}, {"type": "node", "id": 2187257123, "lat": 41.4047259, "lon": 2.1943414, "tags": {"amenity": "bar", "name": "24 mm"}}, {"type": "node", "id": 2187259019, "lat": 41.404967, "lon": 2.1945963, "tags": {"addr:city": "Barcelona", "addr:housenumber": "173", "addr:street": "Avinguda Diagonal", "amenity": "restaurant", "cuisine": "japanese", "name": "Nanaya", "phone": "+34 933008401", "smoking": "no", "source": "http://nanaya.es/", "website": "http://nanaya.es/"}}, {"type": "node", "id": 2187282137, "lat": 41.4017897, "lon": 2.196068, "tags": {"addr:city": "Barcelona", "addr:housenumber": "211", "addr:postcode": "08018", "addr:street": "Carrer dels Almog\u00e0vers", "amenity": "restaurant", "cuisine": "spanish", "name": "El Catacroquet", "phone": "+34932809059", "website": "http://catacroquet.es/"}}, {"type": "node", "id": 2192226738, "lat": 41.4034935, "lon": 2.1960697, "tags": {"amenity": "restaurant", "cuisine": "pizza", "name": "L'Aldil\u00e0"}}, {"type": "node", "id": 2193095318, "lat": 41.4043344, "lon": 2.1967134, "tags": {"amenity": "restaurant", "name": "Can Pizza"}}, {"type": "node", "id": 2193095338, "lat": 41.40326, "lon": 2.1985353, "tags": {"addr:housenumber": "118", "addr:street": "Rambla de Poblenou", "amenity": "bar", "name": "Saint Pol"}}, {"type": "node", "id": 2193095377, "lat": 41.4049762, "lon": 2.1976093, "tags": {"amenity": "cafe", "cuisine": "coffee_shop", "name": "Sant Mart\u00ed"}}, {"type": "node", "id": 2193095391, "lat": 41.4036263, "lon": 2.1981913, "tags": {"amenity": "restaurant", "cuisine": "sandwich", "name": "Espress a T\u00e9"}}, {"type": "node", "id": 2193095406, "lat": 41.4042962, "lon": 2.1981726, "tags": {"amenity": "cafe", "cuisine": "spanish", "name": "Hmm que rico"}}, {"type": "node", "id": 2193095414, "lat": 41.402733, "lon": 2.1969736, "tags": {"addr:city": "Barcelona", "addr:street": "Carrer de la Llacuna", "amenity": "restaurant", "cuisine": "spanish", "name": "Braseria Julian"}}, {"type": "node", "id": 2193095435, "lat": 41.4026626, "lon": 2.1971936, "tags": {"addr:city": "Barcelona", "amenity": "restaurant", "cuisine": "spanish", "name": "Llacuna"}}, {"type": "node", "id": 2193095440, "lat": 41.4027631, "lon": 2.1988499, "tags": {"addr:housenumber": "103", "addr:street": "Ramble de Poblenou", "amenity": "restaurant", "cuisine": "turkish", "name": "Hitit"}}, {"type": "node", "id": 2193389549, "lat": 41.4021933, "lon": 2.1993724, "tags": {"amenity": "restaurant", "name": "L'altre Romero"}}, {"type": "node", "id": 2193391405, "lat": 41.4045879, "lon": 2.1958203, "tags": {"amenity": "restaurant", "cuisine": "sushi", "name": "3E sushi"}}, {"type": "node", "id": 2193415475, "lat": 41.4035357, "lon": 2.1962709, "tags": {"amenity": "restaurant", "cuisine": "spanish"}}, {"type": "node", "id": 2400689820, "lat": 41.4006365, "lon": 2.1961225, "tags": {"addr:city": "Barcelona", "addr:housenumber": "132", "addr:postcode": "08005", "addr:street": "Carrer de Pere IV", "amenity": "restaurant", "cuisine": "international", "name": "L\u00facuma", "phone": "+34 933569310", "smoking": "outside", "takeaway": "yes"}}, {"type": "node", "id": 2408482659, "lat": 41.402164, "lon": 2.193314, "tags": {"addr:city": "Barcelona", "addr:street": "Carrer Ciutat de Granada", "amenity": "restaurant", "cuisine": "spanish", "name": "Quinabarra", "opening_hours": "Mo-Fr 08:00-17:00", "smoking": "no"}}, {"type": "node", "id": 2528521163, "lat": 41.4003612, "lon": 2.1959358, "tags": {"name": "Alimentacion", "shop": "convenience"}}, {"type": "node", "id": 2966341089, "lat": 41.4023159, "lon": 2.1998443, "tags": {"addr:housenumber": "100", "addr:street": "Rambla del Poblenou", "name": "rico", "shop": "supermarket"}}, {"type": "node", "id": 3048076838, "lat": 41.4045744, "lon": 2.199062, "tags": {"name:signed": "no", "opening_hours": "Mo-Fr 07:00-15:00; PH,Sa,Su 08:00-15:00", "shop": "kiosk"}}, {"type": "node", "id": 3048079634, "lat": 41.4024271, "lon": 2.199798, "tags": {"amenity": "restaurant", "name": "Recasens", "smoking": "no"}}, {"type": "node", "id": 4042474702, "lat": 41.4034227, "lon": 2.19997, "tags": {"amenity": "restaurant", "name": "El Timbal"}}, {"type": "node", "id": 4252690721, "lat": 41.403496, "lon": 2.1984562, "tags": {"shop": "convenience"}}, {"type": "node", "id": 4787974651, "lat": 41.4045885, "lon": 2.1993428, "tags": {"amenity": "bar", "name": "El Menjador de la Beckett"}}, {"type": "node", "id": 4878130692, "lat": 41.4034739, "lon": 2.1887038, "tags": {"shop": "kiosk"}}, {"type": "node", "id": 4965677492, "lat": 41.4032881, "lon": 2.2001895, "tags": {"amenity": "bar", "name": "La tasqueta de Can Felipa"}}, {"type": "node", "id": 5028979721, "lat": 41.3987513, "lon": 2.1950702, "tags": {"addr:housenumber": "95", "addr:street": "Carrer de Badajoz", "amenity": "cafe", "contact:facebook": "https://www.facebook.com/espaijoliu/", "name": "Espai Joliu", "opening_hours": "Mo-Fr 09:00-19:00; Sa 10:00-15:00", "website": "http://espaijoliu.tumblr.com/"}}, {"type": "node", "id": 5103623221, "lat": 41.4058102, "lon": 2.197889, "tags": {"addr:housenumber": "145", "addr:street": "Avinguda Diagonal", "amenity": "restaurant", "cuisine": "chinese", "name": "Chang Feng", "name:es": "Chang Feng", "opening_hours": "Mo-Su 12:00-16:00, 20:00-00:00", "phone": "+34 932664857"}}, {"type": "node", "id": 5522265621, "lat": 41.3990264, "lon": 2.194494}, {"type": "node", "id": 5881622778, "lat": 41.4013423, "lon": 2.1977952, "tags": {"name": "El Fornet", "shop": "bakery"}}, {"type": "node", "id": 6138906566, "lat": 41.3990235, "lon": 2.1944916, "tags": {"man_made": "surveillance", "surveillance:type": "camera"}}, {"type": "node", "id": 6138906835, "lat": 41.3989804, "lon": 2.1943079}, {"type": "node", "id": 6138906836, "lat": 41.3990757, "lon": 2.1943864}, {"type": "node", "id": 6138906883, "lat": 41.3989288, "lon": 2.1944148}, {"type": "node", "id": 6138906896, "lat": 41.3989667, "lon": 2.1944456, "tags": {"addr:housenumber": "101", "addr:postcode": "08018", "addr:street": "Carrer de Pere IV", "entrance": "yes"}}, {"type": "node", "id": 6164182991, "lat": 41.4050315, "lon": 2.1963811, "tags": {"addr:city": "Barcelona", "addr:country": "ES", "addr:housenumber": "142", "addr:postcode": "08018", "addr:street": "Rambla del Poblenou", "amenity": "restaurant", "contact:phone": "+34 931925976", "contact:website": "https://rest-atrium.negocio.site/", "cuisine": "mediterranean", "name": "Atrium", "opening_hours": "Mo-Su 07:00-00:00"}}, {"type": "node", "id": 6164236104, "lat": 41.4047343, "lon": 2.1968042, "tags": {"addr:city": "Barcelona", "addr:country": "ES", "addr:housenumber": "134", "addr:postcode": "08018", "addr:street": "Rambla del Poblenou", "amenity": "restaurant", "contact:facebook": "https://es-es.facebook.com/barpaloverde", "contact:phone": "+34 936398409", "cuisine": "spanish;mediterranean", "name": "Palo Verde", "outdoor_seating": "yes"}}, {"type": "node", "id": 6263376152, "lat": 41.401928, "lon": 2.1945021, "tags": {"addr:street": "Carrer de Sancho d'Avila", "amenity": "restaurant", "name": "MyKasa"}}, {"type": "node", "id": 6503344192, "lat": 41.403636, "lon": 2.1986181, "tags": {"addr:housenumber": "208", "addr:postcode": "08005", "addr:street": "Carrer de Pere IV", "amenity": "restaurant", "cuisine": "italian_pizza", "name": "Roma Bella", "opening_hours": "Mo-Su 13:00-23:00", "phone": "+34 938 287 895"}}, {"type": "node", "id": 6532214486, "lat": 41.4041071, "lon": 2.2020953, "tags": {"amenity": "restaurant", "name": "Panepizza"}}, {"type": "node", "id": 6532214487, "lat": 41.4039113, "lon": 2.201701, "tags": {"amenity": "bar", "name": "Susurro"}}, {"type": "node", "id": 6532297485, "lat": 41.4053616, "lon": 2.2003294, "tags": {"addr:housenumber": "98", "addr:street": "Carrer de Bilbao", "amenity": "cafe", "name": "Caffeine"}}, {"type": "node", "id": 6532297486, "lat": 41.4047113, "lon": 2.201252, "tags": {"addr:street": "Carrer de Bilbao", "amenity": "fast_food", "name": "Tuapetito"}}, {"type": "node", "id": 6532297585, "lat": 41.4051228, "lon": 2.2006251, "tags": {"addr:street": "Carrer de Bilbao", "amenity": "bar", "name": "Molika"}}, {"type": "node", "id": 6533458685, "lat": 41.4045048, "lon": 2.2010302, "tags": {"addr:street": "Carrer de Bilbao", "amenity": "bar", "name": "Curro"}}, {"type": "node", "id": 6535101685, "lat": 41.4000317, "lon": 2.1956346, "tags": {"amenity": "bar", "name": "Catalunya"}}, {"type": "node", "id": 6535101785, "lat": 41.4048149, "lon": 2.1995456, "tags": {"addr:street": "Carrer de Pere IV", "amenity": "cafe", "name": "Monsieur Bosc"}}, {"type": "node", "id": 6552264185, "lat": 41.402359, "lon": 2.1931161, "tags": {"addr:housenumber": "98", "addr:street": "Carrer de T\u00e0nger", "amenity": "restaurant", "email": "info22@casapepe.es", "name": "Casa Pepe", "opening_hours": "Mo-Fr 08:00-17:30", "phone": "+34 933569680"}}, {"type": "node", "id": 6638904861, "lat": 41.4026914, "lon": 2.1989384, "tags": {"amenity": "restaurant", "name": "L'origen"}}, {"type": "node", "id": 7556637988, "lat": 41.4041586, "lon": 2.1968775, "tags": {"amenity": "bar", "name": "Doncurado"}}, {"type": "node", "id": 7556637989, "lat": 41.4038732, "lon": 2.1971787, "tags": {"amenity": "bar", "name": "SiamoQu\u00e1"}}, {"type": "node", "id": 7556637992, "lat": 41.402687, "lon": 2.1988375, "tags": {"amenity": "bar", "name": "Mexico"}}, {"type": "node", "id": 7556637994, "lat": 41.4026574, "lon": 2.1989656, "tags": {"amenity": "bar", "name": "Vi Tapa"}}, {"type": "node", "id": 7556638085, "lat": 41.4044993, "lon": 2.1964618, "tags": {"name": "El Bon Peix", "shop": "seafood"}}, {"type": "node", "id": 7556638086, "lat": 41.4044202, "lon": 2.1965577, "tags": {"name": "Vinalium", "shop": "alcohol"}}, {"type": "node", "id": 7556638088, "lat": 41.4026167, "lon": 2.1989022, "tags": {"amenity": "restaurant", "name": "Giuletta"}}, {"type": "node", "id": 7556638089, "lat": 41.402487, "lon": 2.1991727, "tags": {"amenity": "restaurant", "name": "Aita Galicia"}}, {"type": "node", "id": 7556742392, "lat": 41.40441, "lon": 2.1947619, "tags": {"amenity": "bar", "name": "El Padrino"}}, {"type": "node", "id": 7556742598, "lat": 41.4033088, "lon": 2.1964188, "tags": {"amenity": "restaurant", "delivery": "only", "name": "Xoubas"}}, {"type": "node", "id": 7556742599, "lat": 41.4035243, "lon": 2.1962293, "tags": {"amenity": "bar", "name": "L'Enxaneta"}}, {"type": "node", "id": 7556742600, "lat": 41.4039082, "lon": 2.1954534, "tags": {"amenity": "bar", "name": "Honest Food"}}, {"type": "node", "id": 7556742601, "lat": 41.4046908, "lon": 2.194394, "tags": {"amenity": "bar", "name": "El Petit Daniel"}}, {"type": "node", "id": 7557045996, "lat": 41.4038544, "lon": 2.1973354, "tags": {"amenity": "cafe", "name": "the Cofee Market"}}, {"type": "node", "id": 7563864197, "lat": 41.4037568, "lon": 2.1986742, "tags": {"amenity": "bar", "name": "la Tanda"}}, {"type": "node", "id": 7563882234, "lat": 41.4025464, "lon": 2.1998488, "tags": {"name": "Mon pa", "shop": "bakery"}}, {"type": "node", "id": 7616019787, "lat": 41.3996205, "lon": 2.1959957, "tags": {"shop": "convenience"}}, {"type": "node", "id": 8035019187, "lat": 41.400417, "lon": 2.1955634, "tags": {"amenity": "restaurant", "name": "Die Spiegel"}}, {"type": "node", "id": 8046559285, "lat": 41.4023415, "lon": 2.1975419, "tags": {"amenity": "bar", "name": "little ferm"}}, {"type": "node", "id": 8046575685, "lat": 41.4026759, "lon": 2.1977843, "tags": {"amenity": "restaurant", "name": "Norman's"}}, {"type": "node", "id": 8049731601, "lat": 41.4032433, "lon": 2.2000071, "tags": {"amenity": "restaurant", "name": "Puerto Escondido"}}, {"type": "node", "id": 8049732292, "lat": 41.4029636, "lon": 2.2006718, "tags": {"amenity": "bar", "name": "Doroteo"}}, {"type": "node", "id": 8049732293, "lat": 41.4028707, "lon": 2.2003397, "tags": {"name": "L'hort fel Poblenou", "shop": "greengrocer"}}, {"type": "node", "id": 8049732298, "lat": 41.4043747, "lon": 2.1983111, "tags": {"amenity": "cafe", "name": "L'Artesana"}}, {"type": "node", "id": 8087316617, "lat": 41.4044578, "lon": 2.1992632, "tags": {"name": "Caprabo", "opening_hours": "Mo-Sa 08:00-22:30; Su 09:00-22:30", "shop": "supermarket"}}, {"type": "node", "id": 9376642417, "lat": 41.3988768, "lon": 2.1953173, "tags": {"addr:housenumber": "92", "addr:postcode": "08005", "addr:street": "Carrer de Badajoz", "amenity": "bar", "contact:facebook": "ravenpoblenou", "name": "Raven Poblenou", "opening_hours": "Fr-Sa 23:00-03:30"}}, {"type": "node", "id": 9467049252, "lat": 41.4032097, "lon": 2.1982348, "tags": {"name": "Primaprix", "shop": "supermarket"}}, {"type": "way", "id": 655182341, "nodes": [6138906835, 6138906836, 5522265621, 6138906566, 6138906896, 6138906883, 6138906835], "tags": {"amenity": "bar", "building": "industrial", "building:levels": "2", "name": "Comtu bar"}}]}