{"version": 0.6, "generator": "Overpass API 0.7.58.5 b0c4acbb", "osm3s": {"timestamp_osm_base": "2022-09-03T10:26:23Z", "copyright": "The data included in this document is from www.openstreetmap.org. The data is made available under ODbL."}, "elements": [{"type": "node", "id": 420068862, "lat": 41.4049693, "lon": 2.1894182}, {"type": "node", "id": 420068865, "lat": 41.4044103, "lon": 2.1904275}, {"type": "node", "id": 660100529, "lat": 41.404858, "lon": 2.1941868, "tags": {"amenity": "cafe", "name": "El Fornet d'en Rosend"}}, {"type": "node", "id": 660100530, "lat": 41.40537, "lon": 2.1934837, "tags": {"addr:housenumber": "142-144", "addr:postcode": "08018", "addr:street": "C Llacuna", "amenity": "restaurant", "contact:phone": "+34 933007849", "cuisine": "japanese", "name": "Restaurante UN-ZA", "opening_hours": "Mo-Su 13:00-16:00,20:00-23:30"}}, {"type": "node", "id": 1271879449, "lat": 41.4063985, "lon": 2.1959205, "tags": {"addr:city": "Barcelona", "addr:housenumber": "138", "addr:postcode": "08018", "addr:street": "Carrer de Bol\u00edvia", "amenity": "restaurant", "diet:vegan": "yes", "diet:vegetarian": "yes", "name": "Culleres", "phone": "+34 93 51 33 984", "smoking": "no", "website": "http://www.culleres.com/", "wheelchair": "no"}}, {"type": "node", "id": 1307297607, "lat": 41.4047275, "lon": 2.191709}, {"type": "node", "id": 1307297612, "lat": 41.4051187, "lon": 2.193249}, {"type": "node", "id": 1307297613, "lat": 41.4047988, "lon": 2.1919649}, {"type": "node", "id": 1307297614, "lat": 41.4056259, "lon": 2.1927972}, {"type": "node", "id": 1320935227, "lat": 41.4061799, "lon": 2.1901275, "tags": {"shop": "convenience", "toilets:wheelchair": "no", "wheelchair": "limited"}}, {"type": "node", "id": 2187259019, "lat": 41.404967, "lon": 2.1945963, "tags": {"addr:city": "Barcelona", "addr:housenumber": "173", "addr:street": "Avinguda Diagonal", "amenity": "restaurant", "cuisine": "japanese", "name": "Nanaya", "phone": "+34 933008401", "smoking": "no", "source": "http://nanaya.es/", "website": "http://nanaya.es/"}}, {"type": "node", "id": 2187270200, "lat": 41.4055941, "lon": 2.1932194, "tags": {"addr:city": "Barcelona", "addr:housenumber": "150", "addr:postcode": "08018", "addr:street": "Carrer de la Llacuna", "amenity": "restaurant", "cuisine": "italian", "name": "FRATELLI LA BUFALA", "opening_hours": "\"local cerrado\"", "website": "http://www.fratellilabufala.eu"}}, {"type": "node", "id": 2187275712, "lat": 41.4061323, "lon": 2.1909641}, {"type": "node", "id": 2188278126, "lat": 41.4065634, "lon": 2.1938272, "tags": {"addr:housenumber": "153", "addr:postcode": "08018", "addr:street": "Rambla del Poblenou", "amenity": "restaurant", "cuisine": "japanese", "name": "Restaurante Huang Qingfang", "name:ca": "Yoshinoya-8", "name:en": "Yoshinoya-8", "name:es": "Yoshinoya-8"}}, {"type": "node", "id": 2189959511, "lat": 41.4053062, "lon": 2.1939024, "tags": {"amenity": "restaurant", "name": "Frankfurt Diagonal", "wheelchair": "limited"}}, {"type": "node", "id": 2193095290, "lat": 41.4054932, "lon": 2.1943451, "tags": {"amenity": "fast_food", "cuisine": "kebab", "name": "El rinc\u00f3n de Glorias"}}, {"type": "node", "id": 2193095298, "lat": 41.4055556, "lon": 2.194455, "tags": {"amenity": "cafe", "cuisine": "spanish", "name": "El Duende"}}, {"type": "node", "id": 2193095358, "lat": 41.4055677, "lon": 2.1949217, "tags": {"shop": "kiosk"}}, {"type": "node", "id": 2193095381, "lat": 41.4058392, "lon": 2.1946428, "tags": {"name": "Keisy", "operator": "Keisy", "shop": "supermarket"}}, {"type": "node", "id": 2193421646, "lat": 41.405634, "lon": 2.1917031, "tags": {"brand": "Carrefour", "brand:wikidata": "Q217599", "brand:wikipedia": "fr:Carrefour (enseigne)", "name": "Carrefour", "shop": "supermarket", "toilets:wheelchair": "yes", "wheelchair": "yes"}}, {"type": "node", "id": 2193421652, "lat": 41.405107, "lon": 2.1919659, "tags": {"amenity": "fast_food", "brand": "Burger King", "brand:wikidata": "Q177054", "brand:wikipedia": "es:Burger King", "cuisine": "burger", "name": "Burger King", "opening_hours": "Su-Th 11:00-24:00; Fr,Sa 11:00-01:00", "takeaway": "yes", "toilets:wheelchair": "yes", "wheelchair": "yes"}}, {"type": "node", "id": 2555598408, "lat": 41.4058852, "lon": 2.1929942, "tags": {"amenity": "restaurant", "name": "Aliaga", "opening_hours": "Mo-Sa 13:00-16:00"}}, {"type": "node", "id": 2617962817, "lat": 41.4049285, "lon": 2.1919361, "tags": {"addr:city": "Barcelona", "addr:housenumber": "188", "addr:postcode": "08018", "addr:street": "Avinguda Diagonal", "amenity": "fast_food", "brand": "McDonald's", "brand:wikidata": "Q38076", "brand:wikipedia": "es:McDonald's", "cuisine": "burger", "name": "McDonald's", "opening_hours": "Su-Th 08:00-23:30; Fr,Sa 08:00-01:00"}}, {"type": "node", "id": 2684052224, "lat": 41.4052109, "lon": 2.1931117, "tags": {"addr:city": "Barcelona", "addr:housenumber": "208", "addr:postcode": "08018", "addr:street": "Avinguda Diagonal", "amenity": "restaurant", "cuisine": "japanese", "name": "Pai Mei", "opening_hours": "Mo-Su 12:30-16:30,19:00-23:00", "outdoor_seating": "no"}}, {"type": "node", "id": 2756677882, "lat": 41.4051928, "lon": 2.1932736}, {"type": "node", "id": 2923421005, "lat": 41.4043568, "lon": 2.1902175}, {"type": "node", "id": 2923421010, "lat": 41.4052501, "lon": 2.1932935}, {"type": "node", "id": 3046155434, "lat": 41.4089286, "lon": 2.1951206, "tags": {"amenity": "cafe", "name": "Forn de pa Gil", "shop": "bakery"}}, {"type": "node", "id": 3386550692, "lat": 41.4051386, "lon": 2.1928962, "tags": {"addr:street": "Barcelona Glorias", "amenity": "fast_food", "cuisine": "german", "name": "kurz & gut", "phone": "93486096", "toilets:wheelchair": "yes", "wheelchair": "yes"}}, {"type": "node", "id": 4142784489, "lat": 41.406689, "lon": 2.1923166, "tags": {"addr:housenumber": "183", "addr:street": "Llacuna", "amenity": "restaurant", "name": "L'Actiu", "opening_hours": "Mo-Fr 08:00-18:00", "website": "www.lactiu.cat"}}, {"type": "node", "id": 4534907393, "lat": 41.4058059, "lon": 2.1905307, "tags": {"addr:housenumber": "866-872", "addr:street": "Gran Via de les Corts Catalanes"}}, {"type": "node", "id": 4534954334, "lat": 41.4047773, "lon": 2.1918877}, {"type": "node", "id": 4563459833, "lat": 41.4048291, "lon": 2.1914585, "tags": {"amenity": "restaurant", "diet:vegan": "no", "diet:vegetarian": "no", "name": "El Mussol", "opening_hours": "Mo-Th 13:00-16:30,20:00-24:00, Fr-Su 13:00-16:30,20:00-01:00", "survey:date": "2022-01-19", "wheelchair": "yes"}}, {"type": "node", "id": 4582968963, "lat": 41.4050337, "lon": 2.1895054}, {"type": "node", "id": 4721278191, "lat": 41.4071597, "lon": 2.1930065, "tags": {"amenity": "restaurant", "name": "Els Tres Porquets", "name:es": "Els Tres Porquets"}}, {"type": "node", "id": 4734086768, "lat": 41.4061298, "lon": 2.1921339}, {"type": "node", "id": 4734086770, "lat": 41.4064808, "lon": 2.1914251}, {"type": "node", "id": 4734086771, "lat": 41.406482, "lon": 2.1916692}, {"type": "node", "id": 4906707987, "lat": 41.4060107, "lon": 2.1922947, "tags": {"addr:city": "Barcelona", "addr:country": "ES", "addr:housenumber": "151-156", "addr:street": "Carrer de la Llacuna", "barrier": "entrance"}}, {"type": "node", "id": 4906707988, "lat": 41.4059271, "lon": 2.1924039}, {"type": "node", "id": 4906707990, "lat": 41.4053169, "lon": 2.1932043}, {"type": "node", "id": 4906707996, "lat": 41.4061039, "lon": 2.192173}, {"type": "node", "id": 4942732021, "lat": 41.4064484, "lon": 2.193943, "tags": {"addr:housenumber": "147-153", "addr:street": "Rambla del Poblenou", "amenity": "restaurant", "name": "La dehesa", "name:es": "La dehesa"}}, {"type": "node", "id": 5103623221, "lat": 41.4058102, "lon": 2.197889, "tags": {"addr:housenumber": "145", "addr:street": "Avinguda Diagonal", "amenity": "restaurant", "cuisine": "chinese", "name": "Chang Feng", "name:es": "Chang Feng", "opening_hours": "Mo-Su 12:00-16:00, 20:00-00:00", "phone": "+34 932664857"}}, {"type": "node", "id": 5878496985, "lat": 41.4051569, "lon": 2.1921906, "tags": {"amenity": "restaurant", "cuisine": "japanese", "email": "glories@udon.es", "name": "UDON Gl\u00f2ries", "opening_hours": "Su-Th 13:00-00:00; Fr,Sa 13:00-01:00", "phone": "+34 93 486 13 14", "toilets:wheelchair": "yes", "website": "https://www.udon.es/es/restaurants/barcelona/udon-glories", "wheelchair": "yes"}}, {"type": "node", "id": 6036931539, "lat": 41.4050517, "lon": 2.1926832, "tags": {"amenity": "fast_food", "name": "Viena", "toilets:wheelchair": "yes", "wheelchair": "yes"}}, {"type": "node", "id": 6164141341, "lat": 41.4049918, "lon": 2.1923017, "tags": {"addr:city": "Barcelona", "addr:country": "ES", "addr:housenumber": "218", "addr:postcode": "08018", "addr:street": "Avinguda Diagonal", "addr:unit": "293-304", "amenity": "restaurant", "branch": "C.C. Les Glories", "contact:phone": "+34 932663601", "contact:website": "https://www.latagliatella.es/restaurantes/barcelona/cc-les-glories-barcelona", "cuisine": "pizza;italian", "name": "La Tagliatella", "opening_hours": "Su-Th 13:00-23:00; Fr-Sa 12:00-00:00", "payment:mastercard": "yes", "payment:visa": "yes", "toilets:wheelchair": "yes", "wheelchair": "yes"}}, {"type": "node", "id": 6164234382, "lat": 41.4052321, "lon": 2.1924708, "tags": {"addr:city": "Barcelona", "addr:country": "ES", "addr:housenumber": "208", "addr:postcode": "08018", "addr:street": "Avinguda Diagonal", "amenity": "restaurant", "branch": "C.C. Glories", "contact:website": "https://pokesi.es/", "cuisine": "poke", "delivery": "yes", "level": "-1", "name": "Pok\u00e9 S\u00ed", "opening_hours": "Mo-Su 12:00-23:00", "outdoor_seating": "no", "smoking": "no", "takeaway": "yes", "toilets:wheelchair": "yes", "wheelchair": "yes"}}, {"type": "node", "id": 6451346360, "lat": 41.4054304, "lon": 2.1930548, "tags": {"addr:city": "Barcelona", "addr:country": "ES", "addr:housenumber": "139-145", "addr:street": "Carrer de la Llacuna"}}, {"type": "node", "id": 6516563967, "lat": 41.404438, "lon": 2.1905395, "tags": {"addr:housenumber": "240-252", "addr:street": "Avinguda Diagonal", "entrance": "yes"}}, {"type": "node", "id": 6516563968, "lat": 41.4045252, "lon": 2.1908919, "tags": {"addr:housenumber": "230-238", "addr:street": "Avinguda Diagonal", "entrance": "yes"}}, {"type": "node", "id": 6516563969, "lat": 41.4046702, "lon": 2.1914774, "tags": {"addr:housenumber": "220-228", "addr:street": "Avinguda Diagonal", "entrance": "yes"}}, {"type": "node", "id": 6516563970, "lat": 41.4048436, "lon": 2.1921448, "tags": {"addr:housenumber": "210-218", "addr:street": "Avinguda Diagonal", "entrance": "yes"}}, {"type": "node", "id": 6516563971, "lat": 41.4049295, "lon": 2.1924896, "tags": {"addr:housenumber": "200-208", "addr:street": "Avinguda Diagonal", "entrance": "yes"}}, {"type": "node", "id": 6516563972, "lat": 41.4050723, "lon": 2.1930626, "tags": {"addr:housenumber": "188-198", "addr:street": "Avinguda Diagonal", "entrance": "yes"}}, {"type": "node", "id": 6516572963, "lat": 41.4051123, "lon": 2.1896098, "tags": {"addr:housenumber": "850-852", "addr:street": "Gran Via de les Corts Catalanes"}}, {"type": "node", "id": 6516572964, "lat": 41.4054001, "lon": 2.1899919, "tags": {"addr:housenumber": "854-864", "addr:street": "Gran Via de les Corts Catalanes"}}, {"type": "node", "id": 6516572965, "lat": 41.406337, "lon": 2.1912349, "tags": {"addr:housenumber": "874-888", "addr:street": "Gran Via de les Corts Catalanes"}}, {"type": "node", "id": 6579626985, "lat": 41.4065594, "lon": 2.190623, "tags": {"addr:housenumber": "855", "addr:street": "Gran Via de les Corts Catalanes", "amenity": "cafe", "internet_access": "wlan", "name": "Carlu"}}, {"type": "node", "id": 6579627085, "lat": 41.4056827, "lon": 2.1894676, "tags": {"addr:housenumber": "837", "addr:street": "Gran Via de les Corts Catalanes", "amenity": "restaurant", "name": "Bar Avenida"}}, {"type": "node", "id": 7044957955, "lat": 41.405803, "lon": 2.1905336}, {"type": "node", "id": 7526373965, "lat": 41.407577, "lon": 2.1937196, "tags": {"amenity": "restaurant", "cuisine": "spanish", "name": "Rostisseria G\u00f3mez", "takeaway": "only"}}, {"type": "node", "id": 7559103786, "lat": 41.4073907, "lon": 2.1934984, "tags": {"amenity": "bar", "name": "Pyramid"}}, {"type": "node", "id": 7559103985, "lat": 41.40753, "lon": 2.1936826, "tags": {"name": "Debby's", "shop": "confectionery"}}, {"type": "node", "id": 7559104085, "lat": 41.4075001, "lon": 2.1936287, "tags": {"amenity": "bar", "name": "Mechita Sour"}}, {"type": "node", "id": 7559151838, "lat": 41.4073121, "lon": 2.193362, "tags": {"shop": "convenience"}}, {"type": "node", "id": 7777999388, "lat": 41.4049345, "lon": 2.1913268, "tags": {"amenity": "cafe", "brand": "Starbucks", "brand:wikidata": "Q37158", "brand:wikipedia": "en:Starbucks", "cuisine": "coffee_shop", "name": "Starbucks", "name:en": "Starbucks", "official_name": "Starbucks Coffee", "survey:date": "2022-01-19", "takeaway": "yes"}}, {"type": "node", "id": 8049731695, "lat": 41.4058727, "lon": 2.1960983, "tags": {"amenity": "restaurant", "name": "Kyora"}}, {"type": "node", "id": 8049731800, "lat": 41.4066239, "lon": 2.1954143, "tags": {"amenity": "cafe", "name": "El rebost de la Lola"}}, {"type": "node", "id": 8049732299, "lat": 41.4068195, "lon": 2.1951581, "tags": {"amenity": "fast_food", "name": "nora"}}, {"type": "node", "id": 8090433517, "lat": 41.4058657, "lon": 2.1897073, "tags": {"name": "Condis", "shop": "supermarket"}}, {"type": "node", "id": 8489755907, "lat": 41.4053896, "lon": 2.1918005, "tags": {"level": "0", "name": "Buenas Migas", "shop": "pastry"}}, {"type": "node", "id": 8818975889, "lat": 41.4054744, "lon": 2.1919237, "tags": {"level": "0", "name": "Danone", "shop": "ice_cream"}}, {"type": "node", "id": 9197873390, "lat": 41.4061236, "lon": 2.1928075, "tags": {"addr:city": "Barcelona", "addr:country": "ES", "addr:housenumber": "162", "addr:postcode": "08018", "addr:street": "Carrer de la Llacuna", "contact:website": "https://incapto.com/", "name": "Incapto Coffee", "shop": "coffee"}}, {"type": "node", "id": 9431243821, "lat": 41.4050963, "lon": 2.190739, "tags": {"amenity": "fast_food", "cuisine": "coffee_shop", "level": "-1", "name": "Giovanni", "survey:date": "2022-01-19"}}, {"type": "node", "id": 9431244017, "lat": 41.4053897, "lon": 2.1913509, "tags": {"amenity": "fast_food", "cuisine": "coffee_shop", "name": "Secrets", "survey:date": "2022-01-19"}}, {"type": "node", "id": 9983395817, "lat": 41.4050171, "lon": 2.1925921, "tags": {"amenity": "cafe", "name:en": "Honest greens"}}, {"type": "way", "id": 499392314, "nodes": [4906707988, 1307297614]}, {"type": "way", "id": 499392316, "nodes": [4582968963, 6516572963, 6516572964, 7044957955, 4534907393, 2187275712]}, {"type": "way", "id": 499392317, "nodes": [4906707996, 4734086768]}, {"type": "way", "id": 499392318, "nodes": [1307297614, 6451346360, 4906707990]}, {"type": "way", "id": 499392319, "nodes": [4906707996, 4906707987, 4906707988], "tags": {"barrier": "wall"}}, {"type": "way", "id": 499392321, "nodes": [1307297607, 6516563969, 6516563968, 6516563967, 420068865]}, {"type": "way", "id": 499392323, "nodes": [420068865, 2923421005, 420068862, 4582968963]}, {"type": "way", "id": 499392324, "nodes": [1307297613, 4534954334, 1307297607], "tags": {"barrier": "gate"}}, {"type": "way", "id": 499392327, "nodes": [4906707990, 2923421010, 2756677882, 1307297612, 6516563972, 6516563971, 6516563970, 1307297613]}, {"type": "way", "id": 499392329, "nodes": [2187275712, 6516572965, 4734086770, 4734086771, 4734086768]}, {"type": "relation", "id": 7323157, "members": [{"type": "way", "ref": 499392323, "role": "outer"}, {"type": "way", "ref": 499392321, "role": "outer"}, {"type": "way", "ref": 499392324, "role": "outer"}, {"type": "way", "ref": 499392327, "role": "outer"}, {"type": "way", "ref": 499392318, "role": "outer"}, {"type": "way", "ref": 499392314, "role": "outer"}, {"type": "way", "ref": 499392319, "role": "outer"}, {"type": "way", "ref": 499392317, "role": "outer"}, {"type": "way", "ref": 499392329, "role": "outer"}, {"type": "way", "ref": 499392316, "role": "outer"}], "tags": {"addr:city": "Barcelona", "addr:housenumber": "208", "addr:postcode": "08018", "addr:street": "Avinguda Diagonal", "name": "Gl\u00f2ries", "name:ca": "Gl\u00f2ries", "opening_hours": "Mo-Sa 10:00-22:00", "shop": "mall", "type": "multipolygon", "website": "http://lesglories.com/", "wheelchair": "yes", "wikidata": "Q16571897", "wikipedia": "es:Gl\u00f2ries (centro comercial)"}}]}