{"version": 0.6, "generator": "Overpass API 0.7.58.5 b0c4acbb", "osm3s": {"timestamp_osm_base": "2022-09-04T20:28:22Z", "copyright": "The data included in this document is from www.openstreetmap.org. The data is made available under ODbL."}, "elements": [{"type": "node", "id": 6123979860, "lat": 41.3952146, "lon": 2.1978614, "tags": {"access": "private", "amenity": "parking_entrance"}}, {"type": "node", "id": 6123979862, "lat": 41.3949704, "lon": 2.198185, "tags": {"access": "private", "amenity": "parking_entrance"}}, {"type": "node", "id": 6124981655, "lat": 41.394403, "lon": 2.1968432, "tags": {"access": "private", "addr:housenumber": "40", "addr:postcode": "08005", "addr:street": "Carrer d'\u00c0laba", "amenity": "parking_entrance"}}, {"type": "node", "id": 6124981658, "lat": 41.3942433, "lon": 2.1974772, "tags": {"access": "customers", "addr:housenumber": "103-105", "addr:postcode": "08005", "addr:street": "Carrer del Doctor Trueta", "amenity": "parking_entrance"}}, {"type": "node", "id": 6124981659, "lat": 41.39428, "lon": 2.1975268, "tags": {"access": "customers", "amenity": "parking_entrance"}}, {"type": "node", "id": 6124981661, "lat": 41.394434, "lon": 2.1977339, "tags": {"access": "private", "amenity": "parking_entrance"}}, {"type": "node", "id": 6933373190, "lat": 41.39461, "lon": 2.19611, "tags": {"address": "C Ramon Turr\u00f3 88", "amenity": "bicycle_parking", "operator": "http://ajuntament.barcelona.cat/bicicleta/ca", "website": "http://ajuntament.barcelona.cat/bicicleta/ca"}}, {"type": "node", "id": 6933487466, "lat": 41.39413, "lon": 2.19686, "tags": {"address": "C \u00c0laba 31", "amenity": "bicycle_parking", "operator": "http://ajuntament.barcelona.cat/bicicleta/ca", "website": "http://ajuntament.barcelona.cat/bicicleta/ca"}}, {"type": "node", "id": 6933505037, "lat": 41.39441, "lon": 2.19798, "tags": {"address": "Ptge Carlota de Mena 1", "amenity": "bicycle_parking", "capacity": "8", "operator": "http://ajuntament.barcelona.cat/bicicleta/ca", "website": "http://ajuntament.barcelona.cat/bicicleta/ca"}}, {"type": "node", "id": 6933519491, "lat": 41.3954, "lon": 2.19706, "tags": {"address": "C Ramon Turr\u00f3 112", "amenity": "bicycle_parking", "operator": "http://ajuntament.barcelona.cat/bicicleta/ca", "website": "http://ajuntament.barcelona.cat/bicicleta/ca"}}]}