{"version": 0.6, "generator": "Overpass API 0.7.58.5 b0c4acbb", "osm3s": {"timestamp_osm_base": "2022-08-27T18:11:06Z", "copyright": "The data included in this document is from www.openstreetmap.org. The data is made available under ODbL."}, "elements": [{"type": "node", "id": 420068862, "lat": 41.4049693, "lon": 2.1894182}, {"type": "node", "id": 420068865, "lat": 41.4044103, "lon": 2.1904275}, {"type": "node", "id": 506202703, "lat": 41.3962323, "lon": 2.1890864, "tags": {"addr:street": "Carrer dels Almog\u00e0vers", "amenity": "cafe", "cuisine": "regional", "internet_access": "yes", "internet_access:fee": "no", "name": "Bar Almog\u00e1vares", "opening_hours": "Mo-Fr 07:00-17:00", "opening_hours:covid19": "open", "outdoor_seating": "yes"}}, {"type": "node", "id": 506202705, "lat": 41.3949813, "lon": 2.1916505, "tags": {"addr:housenumber": "36", "addr:street": "Pere IV", "amenity": "restaurant", "description": "Wifi", "name": "La Braser\u00eda", "phone": "+34 931876537", "website": "www.lawebdelabraseria.com"}}, {"type": "node", "id": 506236273, "lat": 41.3982628, "lon": 2.18314, "tags": {"addr:housenumber": "36", "addr:street": "Carrer de Ribes", "name": "Forn de Pa Laia", "opening_hours": "Mo-Fr 06:00-20:30; Sa-Su 07:00-14:00", "phone": "+34932472065", "postal_code": "08013", "shop": "bakery"}}, {"type": "node", "id": 660771772, "lat": 41.4035018, "lon": 2.1977649, "tags": {"amenity": "restaurant", "name": "Anormalfood"}}, {"type": "node", "id": 660778318, "lat": 41.403467, "lon": 2.1978397, "tags": {"name": "granel", "shop": "convenience"}}, {"type": "node", "id": 660778771, "lat": 41.402858, "lon": 2.1987158, "tags": {"addr:housenumber": "105", "amenity": "restaurant", "cuisine": "spanish", "name": "braseria xorus"}}, {"type": "node", "id": 660779414, "lat": 41.402675, "lon": 2.1989594, "tags": {"addr:housenumber": "99", "addr:street": "Ramble de Poblenou", "amenity": "bar", "name": "Bar Burgales"}}, {"type": "node", "id": 660784487, "lat": 41.4027269, "lon": 2.1989008, "tags": {"amenity": "restaurant", "name": "La broqueta"}}, {"type": "node", "id": 660784488, "lat": 41.4027071, "lon": 2.1989239, "tags": {"addr:housenumber": "101", "amenity": "restaurant", "cuisine": "indian", "name": "Sitar"}}, {"type": "node", "id": 660784489, "lat": 41.4023418, "lon": 2.1991561, "tags": {"brand": "Mercadona", "brand:wikidata": "Q377705", "brand:wikipedia": "es:Mercadona", "name": "Mercadona", "opening_hours:covid19": "open", "operator": "Mercadona", "shop": "supermarket", "website": "https://www.mercadona.es"}}, {"type": "node", "id": 830462039, "lat": 41.4043015, "lon": 2.1949428, "tags": {"amenity": "cafe", "name": "Cafe Tampa", "smoking": "outside"}}, {"type": "node", "id": 1307297607, "lat": 41.4047275, "lon": 2.191709}, {"type": "node", "id": 1307297612, "lat": 41.4051187, "lon": 2.193249}, {"type": "node", "id": 1307297613, "lat": 41.4047988, "lon": 2.1919649}, {"type": "node", "id": 1307297614, "lat": 41.4056259, "lon": 2.1927972}, {"type": "node", "id": 1312224402, "lat": 41.3948006, "lon": 2.1940578, "tags": {"amenity": "restaurant", "name": "Mann\u00e0"}}, {"type": "node", "id": 1357828862, "lat": 41.4037433, "lon": 2.1938343, "tags": {"amenity": "cafe", "name": "Cafeter\u00eda universitaria", "opening_hours": "Mo-Fr 09:00-19:00"}}, {"type": "node", "id": 1445598558, "lat": 41.3971799, "lon": 2.1817149, "tags": {"amenity": "bar", "name": "La Catrina", "phone": "+34935308087", "source": "Trabajo de campo"}}, {"type": "node", "id": 1445598560, "lat": 41.3970643, "lon": 2.1834626, "tags": {"amenity": "cafe", "name": "La estrella", "source": "Trabajo de campo"}}, {"type": "node", "id": 1658424921, "lat": 41.3972738, "lon": 2.1884132, "tags": {"amenity": "fast_food", "name": "Forastera"}}, {"type": "node", "id": 1658425572, "lat": 41.3967185, "lon": 2.1890325, "tags": {"addr:city": "Barcelona", "addr:postcode": "08018", "addr:street": "Carrer de Zamora", "amenity": "cafe", "cuisine": "regional", "internet_access": "yes", "internet_access:fee": "no", "name": "Rebeka", "opening_hours": "Mo-Fr 08:00-17:00", "opening_hours:covid19": "open", "outdoor_seating": "yes"}}, {"type": "node", "id": 1934456468, "lat": 41.4003905, "lon": 2.2039006, "tags": {"brand": "Bon Area", "brand:wikidata": "Q11924743", "brand:wikipedia": "ca:Grup Alimentari Guissona", "name": "Bon Area", "shop": "supermarket"}}, {"type": "node", "id": 1934456567, "lat": 41.4000539, "lon": 2.2028611, "tags": {"addr:city": "Barcelona", "addr:housenumber": "44", "addr:street": "Rambla del Poblenou", "amenity": "ice_cream", "name": "Horchateria El Tio Che", "outdoor_seating": "yes", "phone": "+34 933091872", "smoking": "outside", "website": "https://eltioche.es/"}}, {"type": "node", "id": 2065469522, "lat": 41.3997461, "lon": 2.2003004, "tags": {"addr:housenumber": "159", "addr:street": "Carrer de Llull", "amenity": "pub", "name": "Restaurant Pipa", "opening_hours": "Mo-Su 12:30-00:00"}}, {"type": "node", "id": 2075453725, "lat": 41.4012569, "lon": 2.1966826, "tags": {"addr:housenumber": "92", "addr:street": "Carrer Roc Boronat", "amenity": "restaurant", "cuisine": "spanish", "name": "La Mossegada del Poblenou", "smoking": "outside"}}, {"type": "node", "id": 2085656651, "lat": 41.4027075, "lon": 2.1977649, "tags": {"addr:city": "Barcelona", "addr:housenumber": "178", "addr:postcode": "08005", "addr:street": "Carrer de Pere IV", "amenity": "restaurant", "cuisine": "japanese", "name": "Arce", "phone": "+34 93 309 86 75"}}, {"type": "node", "id": 2158865607, "lat": 41.399043, "lon": 2.1884309, "tags": {"addr:housenumber": "22", "addr:street": "Carrer de T\u00e0nger", "amenity": "cafe", "contact:phone": "+34 933 09 33 75", "contact:website": "http://www.carrotcafe.es/", "name": "Carrot Caf\u00e9", "name:ca": "Carrot caf\u00e9", "name:en": "Carrot caf\u00e9", "name:es": "Carrot caf\u00e9"}}, {"type": "node", "id": 2187210264, "lat": 41.4023416, "lon": 2.1952788, "tags": {"addr:city": "Barcelona", "addr:housenumber": "114", "addr:postcode": "08018", "addr:street": "Carrer de Roc Boronat", "amenity": "restaurant", "cuisine": "mediterranean", "diet:vegan": "no", "diet:vegetarian": "only", "name": "Sopa", "organic": "only", "phone": "+34 933 09 56 76", "smoking": "outside", "takeaway": "yes", "website": "http://www.sopa.vg/"}}, {"type": "node", "id": 2187275712, "lat": 41.4061323, "lon": 2.1909641}, {"type": "node", "id": 2187282137, "lat": 41.4017897, "lon": 2.196068, "tags": {"addr:city": "Barcelona", "addr:housenumber": "211", "addr:postcode": "08018", "addr:street": "Carrer dels Almog\u00e0vers", "amenity": "restaurant", "cuisine": "spanish", "name": "El Catacroquet", "phone": "+34932809059", "website": "http://catacroquet.es/"}}, {"type": "node", "id": 2192226738, "lat": 41.4034935, "lon": 2.1960697, "tags": {"amenity": "restaurant", "cuisine": "pizza", "name": "L'Aldil\u00e0"}}, {"type": "node", "id": 2193095338, "lat": 41.40326, "lon": 2.1985353, "tags": {"addr:housenumber": "118", "addr:street": "Rambla de Poblenou", "amenity": "bar", "name": "Saint Pol"}}, {"type": "node", "id": 2193095391, "lat": 41.4036263, "lon": 2.1981913, "tags": {"amenity": "restaurant", "cuisine": "sandwich", "name": "Espress a T\u00e9"}}, {"type": "node", "id": 2193095414, "lat": 41.402733, "lon": 2.1969736, "tags": {"addr:city": "Barcelona", "addr:street": "Carrer de la Llacuna", "amenity": "restaurant", "cuisine": "spanish", "name": "Braseria Julian"}}, {"type": "node", "id": 2193095435, "lat": 41.4026626, "lon": 2.1971936, "tags": {"addr:city": "Barcelona", "amenity": "restaurant", "cuisine": "spanish", "name": "Llacuna"}}, {"type": "node", "id": 2193095440, "lat": 41.4027631, "lon": 2.1988499, "tags": {"addr:housenumber": "103", "addr:street": "Ramble de Poblenou", "amenity": "restaurant", "cuisine": "turkish", "name": "Hitit"}}, {"type": "node", "id": 2193389549, "lat": 41.4021933, "lon": 2.1993724, "tags": {"amenity": "restaurant", "name": "L'altre Romero"}}, {"type": "node", "id": 2193415475, "lat": 41.4035357, "lon": 2.1962709, "tags": {"amenity": "restaurant", "cuisine": "spanish"}}, {"type": "node", "id": 2197824500, "lat": 41.4016702, "lon": 2.2016399, "tags": {"amenity": "bar", "name": "Serrano"}}, {"type": "node", "id": 2197837743, "lat": 41.4018412, "lon": 2.2007225, "tags": {"name": "Cruixent", "shop": "bakery"}}, {"type": "node", "id": 2197837768, "lat": 41.4019136, "lon": 2.2008137, "tags": {"name": "El manduxot", "shop": "greengrocer"}}, {"type": "node", "id": 2292687549, "lat": 41.395911, "lon": 2.190529}, {"type": "node", "id": 2400689820, "lat": 41.4006365, "lon": 2.1961225, "tags": {"addr:city": "Barcelona", "addr:housenumber": "132", "addr:postcode": "08005", "addr:street": "Carrer de Pere IV", "amenity": "restaurant", "cuisine": "international", "name": "L\u00facuma", "phone": "+34 933569310", "smoking": "outside", "takeaway": "yes"}}, {"type": "node", "id": 2408482659, "lat": 41.402164, "lon": 2.193314, "tags": {"addr:city": "Barcelona", "addr:street": "Carrer Ciutat de Granada", "amenity": "restaurant", "cuisine": "spanish", "name": "Quinabarra", "opening_hours": "Mo-Fr 08:00-17:00", "smoking": "no"}}, {"type": "node", "id": 2491595166, "lat": 41.3932368, "lon": 2.1936985, "tags": {"addr:country": "ES", "name": "La Torrada", "shop": "bakery"}}, {"type": "node", "id": 2528521163, "lat": 41.4003612, "lon": 2.1959358, "tags": {"name": "Alimentacion", "shop": "convenience"}}, {"type": "node", "id": 2576974231, "lat": 41.4003824, "lon": 2.1841121, "tags": {"amenity": "bar", "name": "Seneca"}}, {"type": "node", "id": 2703829256, "lat": 41.4007421, "lon": 2.1991334, "tags": {"addr:city": "Barcelona", "addr:housenumber": "155", "addr:postcode": "08005", "addr:street": "Carrer de Pujades", "amenity": "cafe", "cuisine": "regional", "name": "Bon Gust"}}, {"type": "node", "id": 2756677882, "lat": 41.4051928, "lon": 2.1932736}, {"type": "node", "id": 2781788371, "lat": 41.3994356, "lon": 2.197621, "tags": {"addr:city": "Barcelona", "addr:housenumber": "127", "addr:street": "Carrer de Pujades", "building": "kiosk", "building:levels": "1", "shop": "kiosk"}}, {"type": "node", "id": 2891634433, "lat": 41.4032408, "lon": 2.2024557, "tags": {"addr:city": "Barcelona", "addr:housenumber": "207", "addr:postcode": "08005", "addr:street": "Carrer de Pujades", "amenity": "restaurant", "cuisine": "indian", "name": "Nice & Spice", "phone": "+34 933 08 95 48", "smoking": "outside", "website": "http://www.restaurantenicespice.com"}}, {"type": "node", "id": 2915567416, "lat": 41.4032667, "lon": 2.2025276, "tags": {"addr:city": "Barcelona", "addr:housenumber": "209", "addr:postcode": "08005", "addr:street": "Carrer de Pujades", "amenity": "restaurant", "cuisine": "italian", "name": "O Principe", "opening_hours": "Mo-Th 12:00-16:00,20:00-23:30; Fr-Su 12:00-16:00,20:00-00:00"}}, {"type": "node", "id": 2921806501, "lat": 41.4011887, "lon": 2.1998376, "tags": {"addr:city": "Barcelona", "addr:housenumber": "161", "addr:street": "Carrer de Pujades", "amenity": "restaurant", "name": "Spoon factory"}}, {"type": "node", "id": 2923421005, "lat": 41.4043568, "lon": 2.1902175}, {"type": "node", "id": 2923421010, "lat": 41.4052501, "lon": 2.1932935}, {"type": "node", "id": 2966340931, "lat": 41.4022886, "lon": 2.1998883, "tags": {"addr:housenumber": "100", "addr:street": "Rambla del Poblenou", "amenity": "bar", "name": "El Capritx", "name:ca": "El Capritx", "name:en": "El Capritx", "name:es": "El Capritx"}}, {"type": "node", "id": 2966341089, "lat": 41.4023159, "lon": 2.1998443, "tags": {"addr:housenumber": "100", "addr:street": "Rambla del Poblenou", "name": "rico", "shop": "supermarket"}}, {"type": "node", "id": 2975013896, "lat": 41.4008443, "lon": 2.2013842, "tags": {"amenity": "cafe", "name": "la buena vida"}}, {"type": "node", "id": 2975020209, "lat": 41.3991782, "lon": 2.2035839, "tags": {"name": "Fruites I Verdures", "operator": "Hui Yuan2", "shop": "supermarket"}}, {"type": "node", "id": 2975024521, "lat": 41.3992279, "lon": 2.203533, "tags": {"amenity": "restaurant", "cuisine": "pizza", "name": "Le Fabrik", "website": "http://www.lefabrik.es/"}}, {"type": "node", "id": 2975024874, "lat": 41.3992962, "lon": 2.2037652, "tags": {"amenity": "restaurant", "name": "la tertulia"}}, {"type": "node", "id": 2975030773, "lat": 41.3993411, "lon": 2.2037098, "tags": {"name": "Galaxia", "shop": "department_store"}}, {"type": "node", "id": 3005463983, "lat": 41.3972585, "lon": 2.1916091, "tags": {"addr:city": "Barcelona", "addr:housenumber": "88", "addr:postcode": "08018", "addr:street": "Carrer de Pamplona", "amenity": "pub", "name": "Ceferino", "smoking": "outside"}}, {"type": "node", "id": 3023964339, "lat": 41.4007199, "lon": 2.1997229, "tags": {"addr:city": "Barcelona", "addr:housenumber": "168", "addr:postcode": "08005", "addr:street": "Carrer de Pujades", "amenity": "fast_food", "branch": "Poblenou", "contact:phone": "+34933285188", "cuisine": "burger", "name": "Timesburg", "smoking": "outside", "website": "https://www.timesburg.com/"}}, {"type": "node", "id": 3048076134, "lat": 41.3997857, "lon": 2.2026204, "tags": {"shop": "kiosk"}}, {"type": "node", "id": 3048076438, "lat": 41.4004427, "lon": 2.2022947, "tags": {"addr:city": "Barcelona", "addr:housenumber": "58", "addr:postcode": "08005", "addr:street": "Rambla del Poblenou", "amenity": "bar", "contact:facebook": "https://m.facebook.com/el58poblenou", "cuisine": "tapas", "name": "le cinquante huit", "name:ca": "El 58", "smoking": "no"}}, {"type": "node", "id": 3048076940, "lat": 41.4009194, "lon": 2.2037905, "tags": {"addr:city": "Barcelona", "addr:housenumber": "99", "addr:street": "Carrer de Mari\u00e0 Aguil\u00f3", "amenity": "cafe", "name": "Ideal", "smoking": "no"}}, {"type": "node", "id": 3048077141, "lat": 41.3999148, "lon": 2.2025577, "tags": {"name": "El surtidor", "shop": "bakery"}}, {"type": "node", "id": 3048077142, "lat": 41.3997067, "lon": 2.2032276, "tags": {"addr:city": "Barcelona", "addr:housenumber": "42", "addr:street": "Rambla del Poblenou", "amenity": "restaurant", "name": "L'Alian\u00e7a del Poblenou", "name:ca": "L'Alian\u00e7a del Poblenou", "wikidata": "Q8195560", "wikipedia": "ca:Casino l'Alian\u00e7a del Poblenou"}}, {"type": "node", "id": 3048077144, "lat": 41.3989138, "lon": 2.2037682, "tags": {"shop": "kiosk"}}, {"type": "node", "id": 3048077641, "lat": 41.4010293, "lon": 2.2052715, "tags": {"brand": "Mercadona", "brand:wikidata": "Q377705", "brand:wikipedia": "es:Mercadona", "name": "Mercadona", "shop": "supermarket", "website": "https://www.mercadona.es"}}, {"type": "node", "id": 3048078236, "lat": 41.4013897, "lon": 2.2006002, "tags": {"shop": "kiosk"}}, {"type": "node", "id": 3048079634, "lat": 41.4024271, "lon": 2.199798, "tags": {"amenity": "restaurant", "name": "Recasens", "smoking": "no"}}, {"type": "node", "id": 3048083133, "lat": 41.3995954, "lon": 2.2028652, "tags": {"addr:city": "Barcelona", "addr:housenumber": "41", "addr:street": "Rambla del Poblenou", "name": "Triomf", "shop": "confectionery"}}, {"type": "node", "id": 3058138017, "lat": 41.3979154, "lon": 2.2006807, "tags": {"addr:city": "Barcelona", "addr:housenumber": "180", "addr:postcode": "08005", "addr:street": "Carrer de Ram\u00f3n Turr\u00f3", "amenity": "restaurant", "cuisine": "burger", "name": "Hoppinness", "wheelchair": "limited"}}, {"type": "node", "id": 3058169648, "lat": 41.3973403, "lon": 2.1997469, "tags": {"amenity": "restaurant", "name": "Ivan"}}, {"type": "node", "id": 3058169649, "lat": 41.397535, "lon": 2.199655, "tags": {"amenity": "cafe", "name": "Granja"}}, {"type": "node", "id": 3170567825, "lat": 41.3975779, "lon": 2.2023219, "tags": {"addr:city": "Barcelona", "addr:housenumber": "192", "addr:postcode": "08005", "addr:street": "Carrer del Doctor Trueta", "amenity": "cafe", "name": "Barcelona Culture World", "phone": "+34 647 756 384", "website": "http://bcw.es/"}}, {"type": "node", "id": 3316542524, "lat": 41.3954324, "lon": 2.186404, "tags": {"addr:city": "Barcelona", "addr:housenumber": "107", "addr:postcode": "08018", "addr:street": "Carrer de la Marina", "amenity": "cafe", "cuisine": "churreria", "internet_access": "no", "name": "Churrer\u00eda J. Argil\u00e9s", "opening_hours": "Sa-Su 00:00-24:00; Tu-Fr 08:30-21:30", "phone": "+34 932 32 43 07", "smoking": "yes", "takeaway": "only"}}, {"type": "node", "id": 3361212874, "lat": 41.3965202, "lon": 2.1918882, "tags": {"addr:housenumber": "120", "addr:street": "Carrer de Pallars", "amenity": "fast_food", "cuisine": "american"}}, {"type": "node", "id": 3362597637, "lat": 41.4027825, "lon": 2.2034307, "tags": {"brand": "Condis", "brand:wikidata": "Q57417581", "brand:wikipedia": "ca:Condis", "name": "Condis", "operator": "Condis", "shop": "supermarket"}}, {"type": "node", "id": 3923467388, "lat": 41.3986512, "lon": 2.1828666, "tags": {"addr:city": "Barcelona", "addr:housenumber": "151", "addr:postcode": "08013", "addr:street": "Carrer de Casp", "amenity": "restaurant", "contact:facebook": "https://www.facebook.com/ayresdelsurestaurante/", "cuisine": "mediterranean", "name": "Ayres del Sur", "opening_hours": "Mo-Su 01:00-04:00", "phone": "+34 932 46 99 88"}}, {"type": "node", "id": 3938788744, "lat": 41.3959987, "lon": 2.1990598, "tags": {"addr:city": "Barcelona", "addr:housenumber": "36", "addr:postcode": "08005", "addr:street": "Carrer de Badajoz", "amenity": "restaurant", "name": "Can Bigotis"}}, {"type": "node", "id": 3940580367, "lat": 41.3953485, "lon": 2.1994374, "tags": {"addr:city": "Barcelona", "addr:housenumber": "23", "addr:postcode": "08005", "addr:street": "Carrer de Badajoz", "amenity": "restaurant", "name": "Bar Restaurant SAVIGOVI"}}, {"type": "node", "id": 3940588323, "lat": 41.3974371, "lon": 2.1990673, "tags": {"addr:city": "Barcelona", "addr:housenumber": "33", "addr:postcode": "08005", "addr:street": "Carrer de la Ciutat de Granada", "amenity": "restaurant", "name": "Rac\u00f3 de la Vila"}}, {"type": "node", "id": 3955968257, "lat": 41.3986109, "lon": 2.1978895, "tags": {"addr:city": "Barcelona", "addr:housenumber": "54", "addr:postcode": "08005", "addr:street": "Carrer de la Ciutat de Granada", "amenity": "restaurant", "name": "El rac\u00f3 de les Gl\u00f2ries", "opening_hours": "Mo-Fr 06:30-23:00; Sa-Su 08:00-23:00"}}, {"type": "node", "id": 3957491156, "lat": 41.3955044, "lon": 2.1997211, "tags": {"addr:city": "Barcelona", "addr:housenumber": "28", "addr:postcode": "08005", "addr:street": "Carrer de Badajoz", "amenity": "restaurant", "name": "Restaurante Los Mart\u00ednez"}}, {"type": "node", "id": 3962556129, "lat": 41.3995952, "lon": 2.2029522, "tags": {"addr:city": "Barcelona", "addr:postcode": "08005", "addr:street": "Rambla del Poblenou", "amenity": "fast_food", "cuisine": "burger", "name": "El Pibe"}}, {"type": "node", "id": 3969186993, "lat": 41.3957571, "lon": 2.1990075, "tags": {"addr:city": "Barcelona", "addr:housenumber": "27", "addr:postcode": "08005", "addr:street": "Carrer de Badajoz", "name": "Forn Eduard", "shop": "bakery"}}, {"type": "node", "id": 4011458618, "lat": 41.3983385, "lon": 2.182871, "tags": {"addr:city": "Barcelona", "addr:housenumber": "192", "addr:postcode": "08013", "addr:street": "Carrer de Casp", "amenity": "bar", "contact:facebook": "https://www.facebook.com/elcafeblau/", "name": "El Caf\u00e8 Blau", "opening_hours": "Mo-Fr 10:30-22:30; Sa 12:00-24:00; Su off", "phone": "+34 932 47 16 59", "smoking": "outside"}}, {"type": "node", "id": 4042474702, "lat": 41.4034227, "lon": 2.19997, "tags": {"amenity": "restaurant", "name": "El Timbal"}}, {"type": "node", "id": 4060217594, "lat": 41.3993348, "lon": 2.1997769, "tags": {"addr:city": "Barcelona", "addr:housenumber": "147", "addr:postcode": "08005", "addr:street": "Carrer de Llull", "amenity": "restaurant", "name": "La Taverna del Poblenou"}}, {"type": "node", "id": 4138769013, "lat": 41.3970017, "lon": 2.1913538, "tags": {"addr:housenumber": "88", "addr:street": "Carrer de Pamplona", "amenity": "cafe", "name": "SKYE Coffee", "opening_hours": "Mo-Tu 09:00-13:30; We-Fr 09:00-17:00"}}, {"type": "node", "id": 4252690721, "lat": 41.403496, "lon": 2.1984562, "tags": {"shop": "convenience"}}, {"type": "node", "id": 4254685758, "lat": 41.3967509, "lon": 2.1929295, "tags": {"amenity": "cafe", "name": "Bread Bucket", "shop": "bakery"}}, {"type": "node", "id": 4254686706, "lat": 41.3970854, "lon": 2.1928808, "tags": {"amenity": "cafe"}}, {"type": "node", "id": 4254743609, "lat": 41.4013499, "lon": 2.2010764, "tags": {"addr:housenumber": "78", "addr:postcode": "08005", "addr:street": "Rambla del Poblenou", "amenity": "restaurant", "cuisine": "regional", "name": "Caliu del Poblenou"}}, {"type": "node", "id": 4277753900, "lat": 41.3978175, "lon": 2.184081, "tags": {"addr:city": "Barcelona", "addr:housenumber": "157", "addr:postcode": "08013", "addr:street": "Carrer d'Ausi\u00e0s Marc", "amenity": "restaurant", "name": "Piratas", "phone": "+34932457642"}}, {"type": "node", "id": 4289682653, "lat": 41.3978888, "lon": 2.189968, "tags": {"addr:city": "Barcelona", "addr:housenumber": "96", "addr:postcode": "08018", "addr:street": "Carrer de Pamplona", "amenity": "pub", "name": "Sonora Sport Tavern"}}, {"type": "node", "id": 4391593389, "lat": 41.4009367, "lon": 2.201263, "tags": {"amenity": "restaurant", "name": "Brisa sin prisa", "name:es": "Brisa sin prisa"}}, {"type": "node", "id": 4518693470, "lat": 41.4023358, "lon": 2.201295, "tags": {"addr:housenumber": "187", "addr:street": "Pujades", "amenity": "restaurant", "name": "Minyam"}}, {"type": "node", "id": 4533888598, "lat": 41.4017771, "lon": 2.2059149, "tags": {"amenity": "restaurant", "name": "Piazza grande"}}, {"type": "node", "id": 4533901401, "lat": 41.4017834, "lon": 2.2059153, "tags": {"addr:housenumber": "10", "addr:street": "Pla\u00e7a de Julio Gonz\u00e1lez", "amenity": "restaurant", "description": "Italian Restaurant", "name": "Restaurant Piazza Grande"}}, {"type": "node", "id": 4534907393, "lat": 41.4058059, "lon": 2.1905307, "tags": {"addr:housenumber": "866-872", "addr:street": "Gran Via de les Corts Catalanes"}}, {"type": "node", "id": 4534954334, "lat": 41.4047773, "lon": 2.1918877}, {"type": "node", "id": 4552992689, "lat": 41.400387, "lon": 2.2023554, "tags": {"addr:housenumber": "56", "addr:street": "Rambla del Poblenou", "amenity": "restaurant", "cuisine": "spanish", "name": "Colom", "name:en": "Colom", "name:es": "Colom"}}, {"type": "node", "id": 4553695195, "lat": 41.4023142, "lon": 2.2014938, "tags": {"addr:housenumber": "187", "addr:street": "Carrer de Pujades", "amenity": "restaurant", "name": "Minyam", "name:es": "Minyam"}}, {"type": "node", "id": 4563459833, "lat": 41.4048291, "lon": 2.1914585, "tags": {"amenity": "restaurant", "diet:vegan": "no", "diet:vegetarian": "no", "name": "El Mussol", "opening_hours": "Mo-Th 13:00-16:30,20:00-24:00, Fr-Su 13:00-16:30,20:00-01:00", "survey:date": "2022-01-19", "wheelchair": "yes"}}, {"type": "node", "id": 4582968963, "lat": 41.4050337, "lon": 2.1895054}, {"type": "node", "id": 4689020592, "lat": 41.4022025, "lon": 2.2016256, "tags": {"addr:housenumber": "196", "addr:postcode": "08005", "addr:street": "Carrer de Pujades", "amenity": "bar", "contact:facebook": "https://m.facebook.com/BaliusBar/", "cuisine": "tapas", "name": "Balius", "name:es": "Balius", "phone": "+34 933 15 86 50"}}, {"type": "node", "id": 4718616090, "lat": 41.3992398, "lon": 2.2018462, "tags": {"amenity": "restaurant", "cuisine": "pasta;pizza", "name": "Iaia Cristina"}}, {"type": "node", "id": 4719259890, "lat": 41.4054293, "lon": 2.1844074, "tags": {"amenity": "bar", "name": "Ribas D'o Sil", "name:es": "Ribas D'o Sil", "opening_hours": "Mo-Sa"}}, {"type": "node", "id": 4727951592, "lat": 41.4012533, "lon": 2.1849993, "tags": {"amenity": "fast_food", "cuisine": "churro", "name": "Xurrer\u00eda", "name:es": "Churrer\u00eda", "wheelchair": "yes"}}, {"type": "node", "id": 4727954094, "lat": 41.3981178, "lon": 2.18306, "tags": {"shop": "convenience"}}, {"type": "node", "id": 4727965494, "lat": 41.4018944, "lon": 2.1841775, "tags": {"amenity": "cafe", "name": "El portal dels encants", "name:ca": "El portal dels encants"}}, {"type": "node", "id": 4727965496, "lat": 41.3991977, "lon": 2.183373, "tags": {"amenity": "restaurant", "name": "Menta", "name:es": "Menta"}}, {"type": "node", "id": 4727974690, "lat": 41.3990208, "lon": 2.1833542, "tags": {"brand": "Condis", "brand:wikidata": "Q57417581", "name": "Condis", "operator": "Condis", "shop": "supermarket"}}, {"type": "node", "id": 4734086768, "lat": 41.4061298, "lon": 2.1921339}, {"type": "node", "id": 4734086770, "lat": 41.4064808, "lon": 2.1914251}, {"type": "node", "id": 4734086771, "lat": 41.406482, "lon": 2.1916692}, {"type": "node", "id": 4878130692, "lat": 41.4034739, "lon": 2.1887038, "tags": {"shop": "kiosk"}}, {"type": "node", "id": 4906707987, "lat": 41.4060107, "lon": 2.1922947, "tags": {"addr:city": "Barcelona", "addr:country": "ES", "addr:housenumber": "151-156", "addr:street": "Carrer de la Llacuna", "barrier": "entrance"}}, {"type": "node", "id": 4906707988, "lat": 41.4059271, "lon": 2.1924039}, {"type": "node", "id": 4906707990, "lat": 41.4053169, "lon": 2.1932043}, {"type": "node", "id": 4906707996, "lat": 41.4061039, "lon": 2.192173}, {"type": "node", "id": 4965677492, "lat": 41.4032881, "lon": 2.2001895, "tags": {"amenity": "bar", "name": "La tasqueta de Can Felipa"}}, {"type": "node", "id": 4967425632, "lat": 41.4025441, "lon": 2.2045819, "tags": {"addr:city": "Barcelona", "addr:housenumber": "230-234", "addr:postcode": "08005", "addr:street": "Carrer de Llull", "amenity": "restaurant", "cuisine": "international", "name": "Pronto"}}, {"type": "node", "id": 5010794821, "lat": 41.3979072, "lon": 2.1955319, "tags": {"addr:housenumber": "95", "addr:street": "Carrer de Pujades", "amenity": "cafe", "name": "N\u00f8mad Roaster's Home", "name:en": "N\u00f8mad Roaster's Home", "opening_hours": "Mo-Fr 09:00-17:00"}}, {"type": "node", "id": 5028979721, "lat": 41.3987513, "lon": 2.1950702, "tags": {"addr:housenumber": "95", "addr:street": "Carrer de Badajoz", "amenity": "cafe", "contact:facebook": "https://www.facebook.com/espaijoliu/", "name": "Espai Joliu", "opening_hours": "Mo-Fr 09:00-19:00; Sa 10:00-15:00", "website": "http://espaijoliu.tumblr.com/"}}, {"type": "node", "id": 5081403253, "lat": 41.3988611, "lon": 2.199136, "tags": {"addr:city": "Barcelona", "addr:housenumber": "141 bis", "addr:postcode": "08005", "addr:street": "Carrer de Llull", "diet:gluten_free": "yes", "diet:vegan": "only", "email": "calveganic@calveganic.com", "name": "Cal Veganic", "opening_hours": "Mo-Sa 10:00-20:30", "phone": "+34 656 38 57 73", "shop": "convenience", "website": "http://calveganic.com/"}}, {"type": "node", "id": 5106588429, "lat": 41.3982968, "lon": 2.1983407, "tags": {"addr:housenumber": "44", "addr:street": "Carrer de la Ciutat de Granada", "amenity": "restaurant", "name": "Can Dend\u00ea", "name:es": "Can Dend\u00ea"}}, {"type": "node", "id": 5210881005, "lat": 41.4009899, "lon": 2.2047175, "tags": {"amenity": "bar", "name": "Bitacora"}}, {"type": "node", "id": 5363506797, "lat": 41.4022944, "lon": 2.1881778, "tags": {"amenity": "cafe"}}, {"type": "node", "id": 5380241103, "lat": 41.4004924, "lon": 2.1903645, "tags": {"amenity": "restaurant", "name": "Diamantico"}}, {"type": "node", "id": 5380241629, "lat": 41.4004229, "lon": 2.1906076, "tags": {"amenity": "restaurant", "name": "el Jard\u00ed"}}, {"type": "node", "id": 5509139427, "lat": 41.4014133, "lon": 2.2052029, "tags": {"addr:city": "Barcelona", "addr:housenumber": "31", "addr:postcode": "08005", "addr:street": "Carrer de Bilbao", "amenity": "fast_food", "cuisine": "burger;regional;italian", "name": "SOCO Poblenou", "outdoor_seating": "yes"}}, {"type": "node", "id": 5509171592, "lat": 41.4005273, "lon": 2.2035587, "tags": {"brand": "Bonpreu", "brand:wikidata": "Q11924747", "brand:wikipedia": "ca:Grup Bon Preu", "name": "Bonpreu", "shop": "supermarket"}}, {"type": "node", "id": 5509171593, "lat": 41.4002367, "lon": 2.2031905, "tags": {"addr:city": "Barcelona", "addr:housenumber": "5", "addr:postcode": "08005", "addr:street": "Carrer del Joncar", "amenity": "restaurant", "cuisine": "regional;mediterranean", "name": "CALAMARGA"}}, {"type": "node", "id": 5522265621, "lat": 41.3990264, "lon": 2.194494}, {"type": "node", "id": 5531275475, "lat": 41.3980449, "lon": 2.1941948, "tags": {"brand": "Dia", "brand:wikidata": "Q925132", "brand:wikipedia": "es:DIA (supermercados)", "name": "Dia", "operator": "Distribuidora Internacional de Alimentaci\u00f3n, S.A.", "shop": "supermarket", "website": "https://www.dia.es"}}, {"type": "node", "id": 5545772622, "lat": 41.4024489, "lon": 2.2014463, "tags": {"name": "Baluard", "shop": "bakery"}}, {"type": "node", "id": 5617465886, "lat": 41.3967536, "lon": 2.1962847, "tags": {"amenity": "restaurant"}}, {"type": "node", "id": 5696409381, "lat": 41.4020828, "lon": 2.200141, "tags": {"addr:city": "Barcelona", "addr:housenumber": "92", "addr:postcode": "08005", "addr:street": "Rambla del Poblenou", "amenity": "restaurant", "cuisine": "lebanese", "name": "L'AUT\u00c8NTIC Restaurant Liban\u00e8s", "opening_hours": "Mo-Su 12:00-01:00", "outdoor_seating": "yes", "phone": "+34 934 08 86 74", "takeaway": "yes", "website": "https://lautentic-restaurant-libanes.business.site/"}}, {"type": "node", "id": 5881622778, "lat": 41.4013423, "lon": 2.1977952, "tags": {"name": "El Fornet", "shop": "bakery"}}, {"type": "node", "id": 5882992722, "lat": 41.4025772, "lon": 2.1834034, "tags": {"addr:street": "diagonal", "name": "24h Supermercat con pan", "shop": "supermarket"}}, {"type": "node", "id": 6093942019, "lat": 41.4056837, "lon": 2.1854527, "tags": {"amenity": "restaurant", "name": "Canario"}}, {"type": "node", "id": 6126749461, "lat": 41.3942111, "lon": 2.1902433, "tags": {"addr:housenumber": "27", "addr:postcode": "08018", "addr:street": "Carrer de Pujades", "amenity": "restaurant", "entrance": "yes", "name": "Cantero"}}, {"type": "node", "id": 6138906566, "lat": 41.3990235, "lon": 2.1944916, "tags": {"man_made": "surveillance", "surveillance:type": "camera"}}, {"type": "node", "id": 6138906835, "lat": 41.3989804, "lon": 2.1943079}, {"type": "node", "id": 6138906836, "lat": 41.3990757, "lon": 2.1943864}, {"type": "node", "id": 6138906883, "lat": 41.3989288, "lon": 2.1944148}, {"type": "node", "id": 6138906896, "lat": 41.3989667, "lon": 2.1944456, "tags": {"addr:housenumber": "101", "addr:postcode": "08018", "addr:street": "Carrer de Pere IV", "entrance": "yes"}}, {"type": "node", "id": 6139197908, "lat": 41.3961614, "lon": 2.1897405, "tags": {"addr:city": "Barcelona", "addr:housenumber": "90", "addr:postcode": "08018", "addr:street": "Carrer de Zamora", "entrance": "yes"}}, {"type": "node", "id": 6139197909, "lat": 41.395822, "lon": 2.1903811, "tags": {"entrance": "yes"}}, {"type": "node", "id": 6139197910, "lat": 41.395822, "lon": 2.1902597, "tags": {"entrance": "yes"}}, {"type": "node", "id": 6139197911, "lat": 41.3958219, "lon": 2.1902074, "tags": {"addr:city": "Barcelona", "addr:housenumber": "78", "addr:postcode": "08018", "addr:street": "Carrer de Zamora", "entrance": "yes"}}, {"type": "node", "id": 6139197953, "lat": 41.395822, "lon": 2.1902347}, {"type": "node", "id": 6139197977, "lat": 41.3962114, "lon": 2.1898118}, {"type": "node", "id": 6139197978, "lat": 41.3959821, "lon": 2.190376}, {"type": "node", "id": 6139197981, "lat": 41.3961507, "lon": 2.1897282}, {"type": "node", "id": 6139198732, "lat": 41.3958217, "lon": 2.1901653}, {"type": "node", "id": 6139198736, "lat": 41.3961572, "lon": 2.1897354}, {"type": "node", "id": 6139198749, "lat": 41.395822, "lon": 2.1904069}, {"type": "node", "id": 6164234383, "lat": 41.4018825, "lon": 2.2003717, "tags": {"addr:city": "Barcelona", "addr:country": "ES", "addr:housenumber": "88", "addr:postcode": "08005", "addr:street": "Rambla del Poblenou", "amenity": "restaurant", "contact:facebook": "https://www.facebook.com/pg/Isami-1581280252085171/", "contact:phone": "+34 993099482", "cuisine": "japanese", "delivery": "yes", "name": "Isami", "opening_hours": "Tu-Su 12:30-16:00, 20:00-00:00", "takeaway": "yes"}}, {"type": "node", "id": 6164235940, "lat": 41.401992, "lon": 2.1998344, "tags": {"addr:city": "Barcelona", "addr:housenumber": "85", "addr:postcode": "08005", "addr:street": "Rambla del Poblenou", "addr:unit": "9", "amenity": "restaurant", "contact:phone": "+34 934869348", "cuisine": "middle_eastern;libanese;mediterranean", "name": "Sundown", "opening_hours": "Mo-Th 09:00-23:30; Fr-Sa 09:00-01:30; Su 09:00-23:00", "outdoor_seating": "yes"}}, {"type": "node", "id": 6164235941, "lat": 41.4011411, "lon": 2.2009618, "tags": {"addr:city": "Barcelona", "addr:housenumber": "71", "addr:postcode": "08005", "addr:street": "Rambla del Poblenou", "amenity": "fast_food", "branch": "POBLE NOU (B)", "brand": "Telepizza", "brand:wikidata": "Q2699863", "brand:wikipedia": "es:Telepizza", "contact:phone": "+34 933092737", "contact:website": "https://www.telepizza.es", "cuisine": "pizza", "delivery": "yes", "drive_through": "no", "name": "Telepizza", "payment:mastercard": "yes", "payment:visa": "yes", "takeaway": "yes"}}, {"type": "node", "id": 6164236105, "lat": 41.4014971, "lon": 2.2008971, "tags": {"addr:city": "Barcelona", "addr:country": "ES", "addr:housenumber": "82", "addr:postcode": "08005", "addr:street": "Rambla del Poblenou", "contact:phone": "+34 993004394", "name": "Boheme", "shop": "bakery"}}, {"type": "node", "id": 6181434656, "lat": 41.4022354, "lon": 2.1835056, "tags": {"addr:city": "Barcelona", "addr:country": "ES", "shop": "convenience"}}, {"type": "node", "id": 6181435256, "lat": 41.4011237, "lon": 2.1846694, "tags": {"addr:city": "Barcelona", "addr:country": "ES", "shop": "convenience"}}, {"type": "node", "id": 6263376152, "lat": 41.401928, "lon": 2.1945021, "tags": {"addr:street": "Carrer de Sancho d'Avila", "amenity": "restaurant", "name": "MyKasa"}}, {"type": "node", "id": 6330262252, "lat": 41.4014849, "lon": 2.1895987, "tags": {"addr:housenumber": "160", "addr:street": "Carrer \u00c1vila", "amenity": "restaurant", "name": "Raco del Poble Nou", "opening_hours": "Mo-Su 07:00-22:00"}}, {"type": "node", "id": 6371980485, "lat": 41.397233, "lon": 2.183147, "tags": {"addr:postcode": "08013", "amenity": "cafe", "contact:instagram": "threemarkscoffee", "cuisine": "coffee_shop", "email": "account@threemarkscoffee.com", "indoor_seating": "yes", "internet_access": "wlan", "name": "Three Marks Coffee", "opening_hours": "Mo-Fr 08:30-17:30; Sa-Su 10:00-18:00", "outdoor_seating": "yes", "website": "https://www.threemarkscoffee.com/"}}, {"type": "node", "id": 6451346360, "lat": 41.4054304, "lon": 2.1930548, "tags": {"addr:city": "Barcelona", "addr:country": "ES", "addr:housenumber": "139-145", "addr:street": "Carrer de la Llacuna"}}, {"type": "node", "id": 6503344192, "lat": 41.403636, "lon": 2.1986181, "tags": {"addr:housenumber": "208", "addr:postcode": "08005", "addr:street": "Carrer de Pere IV", "amenity": "restaurant", "cuisine": "italian_pizza", "name": "Roma Bella", "opening_hours": "Mo-Su 13:00-23:00", "phone": "+34 938 287 895"}}, {"type": "node", "id": 6516563967, "lat": 41.404438, "lon": 2.1905395, "tags": {"addr:housenumber": "240-252", "addr:street": "Avinguda Diagonal", "entrance": "yes"}}, {"type": "node", "id": 6516563968, "lat": 41.4045252, "lon": 2.1908919, "tags": {"addr:housenumber": "230-238", "addr:street": "Avinguda Diagonal", "entrance": "yes"}}, {"type": "node", "id": 6516563969, "lat": 41.4046702, "lon": 2.1914774, "tags": {"addr:housenumber": "220-228", "addr:street": "Avinguda Diagonal", "entrance": "yes"}}, {"type": "node", "id": 6516563970, "lat": 41.4048436, "lon": 2.1921448, "tags": {"addr:housenumber": "210-218", "addr:street": "Avinguda Diagonal", "entrance": "yes"}}, {"type": "node", "id": 6516563971, "lat": 41.4049295, "lon": 2.1924896, "tags": {"addr:housenumber": "200-208", "addr:street": "Avinguda Diagonal", "entrance": "yes"}}, {"type": "node", "id": 6516563972, "lat": 41.4050723, "lon": 2.1930626, "tags": {"addr:housenumber": "188-198", "addr:street": "Avinguda Diagonal", "entrance": "yes"}}, {"type": "node", "id": 6516572963, "lat": 41.4051123, "lon": 2.1896098, "tags": {"addr:housenumber": "850-852", "addr:street": "Gran Via de les Corts Catalanes"}}, {"type": "node", "id": 6516572964, "lat": 41.4054001, "lon": 2.1899919, "tags": {"addr:housenumber": "854-864", "addr:street": "Gran Via de les Corts Catalanes"}}, {"type": "node", "id": 6516572965, "lat": 41.406337, "lon": 2.1912349, "tags": {"addr:housenumber": "874-888", "addr:street": "Gran Via de les Corts Catalanes"}}, {"type": "node", "id": 6532139285, "lat": 41.4021274, "lon": 2.2053325, "tags": {"addr:street": "Carrer de Bilbao", "amenity": "restaurant", "name": "Bilbao"}}, {"type": "node", "id": 6532206186, "lat": 41.4026728, "lon": 2.2041328, "tags": {"amenity": "restaurant", "name": "Bilbao34"}}, {"type": "node", "id": 6532214485, "lat": 41.4024969, "lon": 2.2047196, "tags": {"addr:street": "Carrer de Bilbao", "amenity": "restaurant", "name": "Sanaa"}}, {"type": "node", "id": 6532230691, "lat": 41.3991988, "lon": 2.1885302, "tags": {"addr:street": "Carrer de T\u00e0nger", "amenity": "restaurant", "name": "L'Estoneta"}}, {"type": "node", "id": 6532239885, "lat": 41.4001402, "lon": 2.1897924, "tags": {"addr:housenumber": "44", "addr:postcode": "08018", "addr:street": "Carrer de T\u00e0nger", "amenity": "restaurant", "entrance": "yes", "name": "Casa Mar\u00eda"}}, {"type": "node", "id": 6532239886, "lat": 41.4003823, "lon": 2.1901179, "tags": {"addr:housenumber": "50", "addr:street": "Carrer de T\u00e0nger", "amenity": "restaurant", "name": "T\u00e1nger"}}, {"type": "node", "id": 6532239887, "lat": 41.4003684, "lon": 2.1901005, "tags": {"addr:housenumber": "50", "addr:postcode": "08018", "addr:street": "Carrer de T\u00e0nger", "entrance": "yes", "name": "David", "shop": "convenience"}}, {"type": "node", "id": 6532311389, "lat": 41.400914, "lon": 2.2058924, "tags": {"addr:street": "Carrer de Bilbao", "amenity": "bar", "name": "Cal Cisteller"}}, {"type": "node", "id": 6532322487, "lat": 41.4021373, "lon": 2.2038758, "tags": {"addr:street": "Carrer de Llull", "brand": "Superverd", "brand:wikidata": "Q11950546", "brand:wikipedia": "ca:Superverd", "name": "Superverd", "shop": "supermarket"}}, {"type": "node", "id": 6532330793, "lat": 41.4016359, "lon": 2.2048002, "tags": {"amenity": "restaurant", "name": "La Xemeneia"}}, {"type": "node", "id": 6532331287, "lat": 41.4008137, "lon": 2.2047522, "tags": {"addr:housenumber": "25", "addr:street": "Carrer Castanys", "amenity": "restaurant", "name": "Cal Tony"}}, {"type": "node", "id": 6532331288, "lat": 41.4019577, "lon": 2.2032297, "tags": {"addr:street": "Carrer de Llull", "name": "El Teu Pa", "shop": "bakery"}}, {"type": "node", "id": 6532335586, "lat": 41.402179, "lon": 2.2039432, "tags": {"addr:street": "Carrer de Llull", "amenity": "fast_food", "name": "Hamburgueser\u00eda Jou's"}}, {"type": "node", "id": 6532342085, "lat": 41.4022005, "lon": 2.204014, "tags": {"amenity": "fast_food", "name": "Ali Baba d\u00f6ner Kebab"}}, {"type": "node", "id": 6533543186, "lat": 41.3954241, "lon": 2.1927662, "tags": {"amenity": "restaurant", "name": "La Terrassa"}}, {"type": "node", "id": 6533558585, "lat": 41.3992951, "lon": 2.2041516, "tags": {"addr:street": "Carrer Doctor Trueta", "name": "Sorli discau", "shop": "supermarket"}}, {"type": "node", "id": 6535101487, "lat": 41.3990612, "lon": 2.1968513, "tags": {"name": "Proxim", "shop": "supermarket"}}, {"type": "node", "id": 6535101586, "lat": 41.3962666, "lon": 2.1921849, "tags": {"addr:housenumber": ",78", "addr:street": "Carrer de Pamplona", "amenity": "restaurant", "name": "Xiscarexantar"}}, {"type": "node", "id": 6535101685, "lat": 41.4000317, "lon": 2.1956346, "tags": {"amenity": "bar", "name": "Catalunya"}}, {"type": "node", "id": 6535101686, "lat": 41.3992845, "lon": 2.1970974, "tags": {"amenity": "restaurant", "name": "Llacuna"}}, {"type": "node", "id": 6535101786, "lat": 41.3974655, "lon": 2.1967141, "tags": {"amenity": "restaurant", "name": "Leka"}}, {"type": "node", "id": 6552263885, "lat": 41.4021166, "lon": 2.1898084, "tags": {"addr:housenumber": "31", "addr:street": "Carrer de Bol\u00edvia", "amenity": "restaurant", "cuisine": "local", "internet_access": "wlan", "name": "Mare Meva", "opening_hours": "Mo-Fr 07:30-17:00"}}, {"type": "node", "id": 6552264185, "lat": 41.402359, "lon": 2.1931161, "tags": {"addr:housenumber": "98", "addr:street": "Carrer de T\u00e0nger", "amenity": "restaurant", "email": "info22@casapepe.es", "name": "Casa Pepe", "opening_hours": "Mo-Fr 08:00-17:30", "phone": "+34 933569680"}}, {"type": "node", "id": 6563307386, "lat": 41.4016002, "lon": 2.1889242, "tags": {"amenity": "bar", "name": "Eva-2"}}, {"type": "node", "id": 6563312285, "lat": 41.3971005, "lon": 2.187613, "tags": {"addr:housenumber": "7", "addr:street": "Carrer de Sancho de \u00c0vila", "amenity": "restaurant", "cuisine": "local", "name": "Sancho", "opening_hours": "Mo-Fr 07:00-22:00, Sa-Su 08:00-22:00"}}, {"type": "node", "id": 6576044985, "lat": 41.4010063, "lon": 2.1880935, "tags": {"addr:housenumber": "1-3", "addr:street": "Carrer de Bol\u00edvia", "amenity": "restaurant", "cuisine": "arab", "name": "Al Jaima - Els Encants", "name:es": "Al-Jaima - Els Encants", "opening_hours": "Mo-Sa 07:00-23:00", "phone": "034930178487"}}, {"type": "node", "id": 6576045085, "lat": 41.4010388, "lon": 2.1883527, "tags": {"addr:housenumber": "1", "addr:street": "Carrer de Bol\u00edvia", "name": "Alimentaci\u00f3 Escribano", "opening_hours": "Mo-Sa 07:45-15:00, 17:00-21:00", "shop": "convenience"}}, {"type": "node", "id": 6576045185, "lat": 41.4013195, "lon": 2.1887189, "tags": {"addr:housenumber": "11", "addr:street": "Carrer de Bol\u00edvia", "amenity": "restaurant", "name": "Tovar", "opening_hours": "Mo-Sa 06:00-17:00"}}, {"type": "node", "id": 6582515706, "lat": 41.4003043, "lon": 2.183255, "tags": {"addr:city": "Barcelona", "addr:housenumber": "798", "addr:postcode": "08013", "addr:street": "Gran Via de les Corts Catalanes", "brand": "Caprabo", "brand:wikidata": "Q1980781", "brand:wikipedia": "en:Caprabo", "name": "Caprabo", "opening_hours": "Mo-Su 08:00-23:00", "payment:cash": "yes", "payment:mastercard": "yes", "payment:visa": "yes", "shop": "supermarket"}}, {"type": "node", "id": 6588176585, "lat": 41.4013749, "lon": 2.1887841, "tags": {"addr:housenumber": "15,17", "addr:street": "Carrer de Bol\u00edvia", "amenity": "restaurant", "name": "La Fonda", "opening_hours": "Mo-Fr 07:00-20:00"}}, {"type": "node", "id": 6588191385, "lat": 41.4014243, "lon": 2.188848, "tags": {"addr:housenumber": "15,17", "addr:street": "Carrer de Bol\u00edvia", "amenity": "restaurant", "name": "Can Miguel\u00edn", "opening_hours": "Mo-Su 09:00-00:00"}}, {"type": "node", "id": 6638904861, "lat": 41.4026914, "lon": 2.1989384, "tags": {"amenity": "restaurant", "name": "L'origen"}}, {"type": "node", "id": 6766273106, "lat": 41.4032643, "lon": 2.184741, "tags": {"amenity": "cafe", "internet_access": "wlan", "name": "Kiosk Naturam"}}, {"type": "node", "id": 6771862785, "lat": 41.4057972, "lon": 2.1839697, "tags": {"addr:street": "Carrer del Dos de Maig", "amenity": "restaurant", "internet_access": "wlan", "name": "Las Ca\u00f1itas"}}, {"type": "node", "id": 6786005886, "lat": 41.4054282, "lon": 2.1844464, "tags": {"addr:housenumber": "192-194", "addr:street": "Carrer del Dos de Maig", "amenity": "cafe", "cuisine": "tapas", "name": "Pipa's Bar"}}, {"type": "node", "id": 6821381286, "lat": 41.4004111, "lon": 2.2012133, "tags": {"addr:housenumber": "169", "addr:street": "Carrer de Llull", "amenity": "restaurant", "name:en": "Italian District", "name:ru": "\u0437\u0430\u043a\u0440\u044b\u0442\u043e \u0441 16 \u0434\u043e 20", "opening_hours": "Mo-Sa 13:00-00:00"}}, {"type": "node", "id": 6873720963, "lat": 41.4003963, "lon": 2.2019551, "tags": {"brand": "Dia", "brand:wikidata": "Q925132", "brand:wikipedia": "es:DIA (supermercados)", "name": "Dia", "operator": "Distribuidora Internacional de Alimentaci\u00f3n, S.A.", "shop": "supermarket", "website": "https://www.dia.es"}}, {"type": "node", "id": 6873720965, "lat": 41.3980569, "lon": 2.203192, "tags": {"amenity": "restaurant", "outdoor_seating": "yes"}}, {"type": "node", "id": 6936466985, "lat": 41.4020809, "lon": 2.2010252, "tags": {"amenity": "bar", "name:en": "Madame George"}}, {"type": "node", "id": 6973926711, "lat": 41.3965047, "lon": 2.1941864, "tags": {"addr:housenumber": "100", "addr:street": "Carrer de Pujades", "amenity": "cafe", "name": "Syra Coffee", "name:en": "Itnig", "website": "https://syra.coffee/"}}, {"type": "node", "id": 7040898589, "lat": 41.3936528, "lon": 2.1925191, "tags": {"amenity": "cafe", "name": "almogavares 2"}}, {"type": "node", "id": 7040899089, "lat": 41.3946338, "lon": 2.1938209, "tags": {"amenity": "cafe", "name": "carme"}}, {"type": "node", "id": 7044957955, "lat": 41.405803, "lon": 2.1905336}, {"type": "node", "id": 7102242810, "lat": 41.4020593, "lon": 2.2020302, "tags": {"addr:city": "Barcelona", "addr:housenumber": "59", "addr:postcode": "08005", "addr:street": "Carrer de Mari\u00e0 Aguil\u00f3", "amenity": "restaurant", "name": "La picanteria de l'Escrib\u00e0", "phone": "+34 934 614 315", "website": "https://restaurantsescriba.com/lapicanteriaescriba/"}}, {"type": "node", "id": 7124857728, "lat": 41.3964797, "lon": 2.1851438, "tags": {"amenity": "bar", "name": "Cabo"}}, {"type": "node", "id": 7177457285, "lat": 41.3963002, "lon": 2.18433, "tags": {"amenity": "fast_food", "name:de": "D\u00f6ner Kebab", "name:en": "Doner Kebab"}}, {"type": "node", "id": 7234692489, "lat": 41.3942304, "lon": 2.1901096, "tags": {"amenity": "restaurant", "name": "Van van var"}}, {"type": "node", "id": 7556637989, "lat": 41.4038732, "lon": 2.1971787, "tags": {"amenity": "bar", "name": "SiamoQu\u00e1"}}, {"type": "node", "id": 7556637992, "lat": 41.402687, "lon": 2.1988375, "tags": {"amenity": "bar", "name": "Mexico"}}, {"type": "node", "id": 7556637994, "lat": 41.4026574, "lon": 2.1989656, "tags": {"amenity": "bar", "name": "Vi Tapa"}}, {"type": "node", "id": 7556638001, "lat": 41.4016626, "lon": 2.2002564, "tags": {"amenity": "bar", "name": "Dehesa Santa Maria"}}, {"type": "node", "id": 7556638088, "lat": 41.4026167, "lon": 2.1989022, "tags": {"amenity": "restaurant", "name": "Giuletta"}}, {"type": "node", "id": 7556638089, "lat": 41.402487, "lon": 2.1991727, "tags": {"amenity": "restaurant", "name": "Aita Galicia"}}, {"type": "node", "id": 7556638090, "lat": 41.4021276, "lon": 2.1996818, "tags": {"name": "J. Tena", "shop": "butcher"}}, {"type": "node", "id": 7556742392, "lat": 41.40441, "lon": 2.1947619, "tags": {"amenity": "bar", "name": "El Padrino"}}, {"type": "node", "id": 7556742485, "lat": 41.4007993, "lon": 2.2014337, "tags": {"amenity": "ice_cream", "name": "Dino"}}, {"type": "node", "id": 7556742585, "lat": 41.4008803, "lon": 2.2012965, "tags": {"shop": "convenience"}}, {"type": "node", "id": 7556742593, "lat": 41.4009756, "lon": 2.2000272, "tags": {"amenity": "bar", "name": "Menjador del Centre"}}, {"type": "node", "id": 7556742594, "lat": 41.4009157, "lon": 2.1999114, "tags": {"name": "Paka\u00f1a", "shop": "greengrocer"}}, {"type": "node", "id": 7556742595, "lat": 41.4008481, "lon": 2.1998121, "tags": {"amenity": "restaurant", "name": "La Taqueria"}}, {"type": "node", "id": 7556742598, "lat": 41.4033088, "lon": 2.1964188, "tags": {"amenity": "restaurant", "delivery": "only", "name": "Xoubas"}}, {"type": "node", "id": 7556742599, "lat": 41.4035243, "lon": 2.1962293, "tags": {"amenity": "bar", "name": "L'Enxaneta"}}, {"type": "node", "id": 7556742600, "lat": 41.4039082, "lon": 2.1954534, "tags": {"amenity": "bar", "name": "Honest Food"}}, {"type": "node", "id": 7557045996, "lat": 41.4038544, "lon": 2.1973354, "tags": {"amenity": "cafe", "name": "the Cofee Market"}}, {"type": "node", "id": 7563864197, "lat": 41.4037568, "lon": 2.1986742, "tags": {"amenity": "bar", "name": "la Tanda"}}, {"type": "node", "id": 7563882234, "lat": 41.4025464, "lon": 2.1998488, "tags": {"name": "Mon pa", "shop": "bakery"}}, {"type": "node", "id": 7563900752, "lat": 41.4022526, "lon": 2.1998855, "tags": {"name": "Forn de pa Santanach", "shop": "bakery"}}, {"type": "node", "id": 7563925131, "lat": 41.4019268, "lon": 2.2003212, "tags": {"amenity": "restaurant", "name": "Cantoni del Poble9"}}, {"type": "node", "id": 7563959547, "lat": 41.4012919, "lon": 2.2011431, "tags": {"amenity": "bar", "name": "100 montaditos"}}, {"type": "node", "id": 7563960699, "lat": 41.4013257, "lon": 2.2011044, "tags": {"amenity": "restaurant", "name": "La Bienal"}}, {"type": "node", "id": 7563962192, "lat": 41.4014488, "lon": 2.2009478, "tags": {"amenity": "bar", "name": "Passeig9"}}, {"type": "node", "id": 7563962810, "lat": 41.4014117, "lon": 2.2009875, "tags": {"name": "Chocolat-box", "shop": "chocolate"}}, {"type": "node", "id": 7563964446, "lat": 41.4012613, "lon": 2.2011848, "tags": {"amenity": "bar", "name": "Monopol"}}, {"type": "node", "id": 7563974638, "lat": 41.4010005, "lon": 2.2015347, "tags": {"name": "el Vinyet", "shop": "alcohol"}}, {"type": "node", "id": 7572644787, "lat": 41.3973555, "lon": 2.1856288, "tags": {"amenity": "bar", "name": "Cerveseria del Roser"}}, {"type": "node", "id": 7572650399, "lat": 41.3974365, "lon": 2.1856579, "tags": {"shop": "convenience"}}, {"type": "node", "id": 7615982501, "lat": 41.4003896, "lon": 2.1978586, "tags": {"amenity": "bar", "name": "La Tavernicola"}}, {"type": "node", "id": 7615987485, "lat": 41.3998352, "lon": 2.2025597, "tags": {"name": "365", "shop": "bakery"}}, {"type": "node", "id": 7615998886, "lat": 41.3995025, "lon": 2.2021992, "tags": {"name": "Bodega Mrndoza", "shop": "wine"}}, {"type": "node", "id": 7615998985, "lat": 41.3995862, "lon": 2.2023234, "tags": {"shop": "convenience"}}, {"type": "node", "id": 7616019787, "lat": 41.3996205, "lon": 2.1959957, "tags": {"shop": "convenience"}}, {"type": "node", "id": 7777999388, "lat": 41.4049345, "lon": 2.1913268, "tags": {"amenity": "cafe", "brand": "Starbucks", "brand:wikidata": "Q37158", "brand:wikipedia": "en:Starbucks", "cuisine": "coffee_shop", "name": "Starbucks", "name:en": "Starbucks", "official_name": "Starbucks Coffee", "survey:date": "2022-01-19", "takeaway": "yes"}}, {"type": "node", "id": 7818094386, "lat": 41.3964676, "lon": 2.1840993, "tags": {"addr:housenumber": "123", "addr:street": "Carrer d'Al\u00ed Bei", "amenity": "restaurant", "cuisine": "italian", "name": "Il Birrino"}}, {"type": "node", "id": 7973910185, "lat": 41.4020368, "lon": 2.2044271, "tags": {"addr:city": "Barcelona", "addr:housenumber": "41-43", "addr:street": "Carrer de Bilbao", "name": "Cal Fruit\u00f3s", "shop": "greengrocer", "website": "https://www.calfruitos.com/"}}, {"type": "node", "id": 7995069726, "lat": 41.3965693, "lon": 2.1887208, "tags": {"addr:city": "Barcelona", "addr:street": "Carrer de Zamora", "amenity": "cafe", "cuisine": "regional", "internet_access": "yes", "internet_access:fee": "no", "name": "Eurest  Catalunya S.L.", "opening_hours": "Mo-Su 08:00-21:00", "opening_hours:covid19": "open", "outdoor_seating": "yes"}}, {"type": "node", "id": 8034967286, "lat": 41.3959993, "lon": 2.1997847, "tags": {"amenity": "cafe", "name": "Puro Cafe"}}, {"type": "node", "id": 8034975586, "lat": 41.3971067, "lon": 2.1998865, "tags": {"name": "Needle", "shop": "convenience"}}, {"type": "node", "id": 8034975686, "lat": 41.3963902, "lon": 2.20027, "tags": {"name": "Needle", "shop": "convenience"}}, {"type": "node", "id": 8034999885, "lat": 41.3970406, "lon": 2.1999855, "tags": {"amenity": "cafe", "name": "La mare del tano"}}, {"type": "node", "id": 8034999886, "lat": 41.3980284, "lon": 2.1986941, "tags": {"amenity": "restaurant", "name": "Costa Dorada"}}, {"type": "node", "id": 8035019187, "lat": 41.400417, "lon": 2.1955634, "tags": {"amenity": "restaurant", "name": "Die Spiegel"}}, {"type": "node", "id": 8046554489, "lat": 41.4001224, "lon": 2.2000188, "tags": {"amenity": "restaurant", "name": "Sport"}}, {"type": "node", "id": 8046559285, "lat": 41.4023415, "lon": 2.1975419, "tags": {"amenity": "bar", "name": "little ferm"}}, {"type": "node", "id": 8046575685, "lat": 41.4026759, "lon": 2.1977843, "tags": {"amenity": "restaurant", "name": "Norman's"}}, {"type": "node", "id": 8049731592, "lat": 41.4010308, "lon": 2.2036251, "tags": {"brand": "Covir\u00e1n", "brand:website": "https://www.coviran.es", "brand:wikidata": "Q61070539", "brand:wikipedia": "es:Covir\u00e1n", "name": "Covir\u00e1n", "shop": "supermarket"}}, {"type": "node", "id": 8049731594, "lat": 41.4013788, "lon": 2.203079, "tags": {"amenity": "fast_food", "name": "La Bodega"}}, {"type": "node", "id": 8049731595, "lat": 41.4018684, "lon": 2.2023424, "tags": {"amenity": "bar", "name": "Echegaray"}}, {"type": "node", "id": 8049731597, "lat": 41.4025485, "lon": 2.2010666, "tags": {"amenity": "bar", "name": "Nina"}}, {"type": "node", "id": 8049731601, "lat": 41.4032433, "lon": 2.2000071, "tags": {"amenity": "restaurant", "name": "Puerto Escondido"}}, {"type": "node", "id": 8049731686, "lat": 41.4000592, "lon": 2.2050938, "tags": {"name": "M\u00e9s de vi", "shop": "wine"}}, {"type": "node", "id": 8049731690, "lat": 41.4008761, "lon": 2.2038406, "tags": {"amenity": "fast_food", "name": "Amigo D\u00f6ner Kebab"}}, {"type": "node", "id": 8049731790, "lat": 41.4002469, "lon": 2.204811, "tags": {"amenity": "fast_food", "name": "Cocino"}}, {"type": "node", "id": 8049731792, "lat": 41.400844, "lon": 2.2039023, "tags": {"name": "Corbeera", "shop": "convenience"}}, {"type": "node", "id": 8049731794, "lat": 41.4010623, "lon": 2.2035874, "tags": {"name": "Carns Pont", "shop": "butcher"}}, {"type": "node", "id": 8049731795, "lat": 41.4018263, "lon": 2.202405, "tags": {"amenity": "fast_food", "name": "Furnos"}}, {"type": "node", "id": 8049732285, "lat": 41.4005075, "lon": 2.2044279, "tags": {"amenity": "fast_food", "name": "La caseta azul"}}, {"type": "node", "id": 8049732288, "lat": 41.4014412, "lon": 2.2029904, "tags": {"name": "Estel de Mar", "shop": "seafood"}}, {"type": "node", "id": 8049732291, "lat": 41.4019311, "lon": 2.20227, "tags": {"amenity": "restaurant", "name": "Nabibi"}}, {"type": "node", "id": 8049732292, "lat": 41.4029636, "lon": 2.2006718, "tags": {"amenity": "bar", "name": "Doroteo"}}, {"type": "node", "id": 8049732293, "lat": 41.4028707, "lon": 2.2003397, "tags": {"name": "L'hort fel Poblenou", "shop": "greengrocer"}}, {"type": "node", "id": 8062015292, "lat": 41.4022269, "lon": 2.2012078, "tags": {"shop": "convenience"}}, {"type": "node", "id": 8062015293, "lat": 41.4021984, "lon": 2.2011676, "tags": {"name": "Macxipa", "shop": "bakery"}}, {"type": "node", "id": 8062015491, "lat": 41.4003933, "lon": 2.2011622, "tags": {"amenity": "bar", "name": "Salitre"}}, {"type": "node", "id": 8062016195, "lat": 41.4021002, "lon": 2.2014634, "tags": {"amenity": "cafe", "name": "artemisia"}}, {"type": "node", "id": 8062017285, "lat": 41.4009407, "lon": 2.2017249, "tags": {"name": "Ametller origen", "shop": "supermarket"}}, {"type": "node", "id": 8064866887, "lat": 41.3956408, "lon": 2.1975165, "tags": {"amenity": "restaurant", "name": "Carme"}}, {"type": "node", "id": 8064871086, "lat": 41.3956935, "lon": 2.1975182, "tags": {"amenity": "cafe"}}, {"type": "node", "id": 8064873685, "lat": 41.3942603, "lon": 2.1987222, "tags": {"amenity": "restaurant", "name": "Cuina d'Amics"}}, {"type": "node", "id": 8064873686, "lat": 41.3977404, "lon": 2.1934117, "tags": {"amenity": "restaurant", "name": "La Cantonada del Xenia"}}, {"type": "node", "id": 8064873785, "lat": 41.3945117, "lon": 2.1983335, "tags": {"amenity": "restaurant", "name": "Portal del Mar"}}, {"type": "node", "id": 8064873885, "lat": 41.3954631, "lon": 2.1981354, "tags": {"amenity": "cafe", "name": "Skye cofee"}}, {"type": "node", "id": 8064873887, "lat": 41.396904, "lon": 2.1931193, "tags": {"amenity": "restaurant", "name": "Cala Joana"}}, {"type": "node", "id": 8064873985, "lat": 41.3957712, "lon": 2.1953013, "tags": {"amenity": "restaurant", "name": "Saramar"}}, {"type": "node", "id": 8064873986, "lat": 41.3974759, "lon": 2.1931865, "tags": {"amenity": "restaurant", "name": "Xenia"}}, {"type": "node", "id": 8064873987, "lat": 41.3993018, "lon": 2.1920928, "tags": {"amenity": "cafe", "name": "Oasis"}}, {"type": "node", "id": 8064874185, "lat": 41.396382, "lon": 2.1935012, "tags": {"amenity": "cafe", "name": "El primer caf\u00e9"}}, {"type": "node", "id": 8077127718, "lat": 41.4001955, "lon": 2.2047217, "tags": {"name": "Vinoteca", "shop": "wine"}}, {"type": "node", "id": 8077127920, "lat": 41.4007644, "lon": 2.2037886, "tags": {"amenity": "restaurant", "name": "La Escuineta"}}, {"type": "node", "id": 8077127926, "lat": 41.4000585, "lon": 2.2049299, "tags": {"shop": "convenience"}}, {"type": "node", "id": 8077128019, "lat": 41.4006552, "lon": 2.2036971, "tags": {"amenity": "restaurant", "name": "la Picanteria"}}, {"type": "node", "id": 8077128317, "lat": 41.4006032, "lon": 2.2040922, "tags": {"name": "Veritas", "shop": "supermarket"}}, {"type": "node", "id": 8077128418, "lat": 41.4012027, "lon": 2.2031869, "tags": {"name": "Trigo", "shop": "bakery"}}, {"type": "node", "id": 8077128419, "lat": 41.4012598, "lon": 2.2031023, "tags": {"amenity": "restaurant", "name": "La Fusta"}}, {"type": "node", "id": 8077128420, "lat": 41.4013922, "lon": 2.2028846, "tags": {"amenity": "fast_food", "name": "Tio Bigotes"}}, {"type": "node", "id": 8077128421, "lat": 41.401134, "lon": 2.2025453, "tags": {"name": "Bonpreu", "shop": "supermarket"}}, {"type": "node", "id": 8077128423, "lat": 41.4019007, "lon": 2.2020706, "tags": {"name": "Vida meva", "shop": "convenience"}}, {"type": "node", "id": 8087274919, "lat": 41.403051, "lon": 2.2030518, "tags": {"name": "Cal Fruit\u00f3s", "shop": "greengrocer"}}, {"type": "node", "id": 8308353217, "lat": 41.3962639, "lon": 2.1987094, "tags": {"addr:housenumber": "44", "addr:street": "Carrer de Badajoz", "amenity": "restaurant", "name": "Antonio's"}}, {"type": "node", "id": 8433008019, "lat": 41.4005516, "lon": 2.20242, "tags": {"amenity": "restaurant", "cuisine": "tapas", "name": "El 58"}}, {"type": "node", "id": 8615341218, "lat": 41.4004914, "lon": 2.203517, "tags": {"addr:city": "Barcelona", "addr:housenumber": "201", "addr:postcode": "08005", "addr:street": "Ramon Turro", "name": "Vida Meva- Queviures Ecol\u00f2gics de proximitat", "opening_hours": "Mo 17:00-20:30 Tu-Fr 09:00-20:30; Sa 09:30-14:30", "opening_hours:covid19": "same", "payment:cash": "yes", "payment:credit_cards": "yes", "phone": "+34 93 127 23 19", "shop": "supermarket", "website": "https://vidameva.com"}}, {"type": "node", "id": 8615439453, "lat": 41.4018083, "lon": 2.2010138, "tags": {"addr:city": "Barcelona", "addr:housenumber": "188", "addr:postcode": "08005", "addr:street": "Carrer de Pujades", "contact:facebook": "https://www.facebook.com/lagraneriadelpoblenou/", "name": "La Graneria del Poblenou", "opening_hours": "Mo-Sa 010:00-14:00,17:00-20:30", "opening_hours:covid19": "same", "payment:cash": "yes", "payment:credit_cards": "yes", "phone": "+34 93 250 02 68", "shop": "supermarket"}}, {"type": "node", "id": 8615529623, "lat": 41.3968677, "lon": 2.1825421, "tags": {"addr:city": "Barcelona", "addr:housenumber": "24", "addr:postcode": "08013", "addr:street": "Carrer de Ribes", "contact:facebook": "https://www.facebook.com/granariumbcn/", "name": "Granarium", "opening_hours": "Mo-Fr 09:30-14:00,16:30-20:30; Sa 10:00-14:00", "opening_hours:covid19": "same", "payment:cash": "yes", "payment:credit_cards": "yes", "phone": "+34 623 46 38 57", "shop": "supermarket"}}, {"type": "node", "id": 8760560770, "lat": 41.3994943, "lon": 2.2003731, "tags": {"amenity": "cafe", "name": "That's l-fe"}}, {"type": "node", "id": 8760560772, "lat": 41.3988649, "lon": 2.2008097, "tags": {"amenity": "cafe"}}, {"type": "node", "id": 8778868418, "lat": 41.4008548, "lon": 2.2013241, "tags": {"name": "T\u00edo Bigotes empanadas", "shop": "bakery"}}, {"type": "node", "id": 9007983085, "lat": 41.3994523, "lon": 2.204418, "tags": {"addr:housenumber": "225", "addr:street": "Carrer del Doctor Trueta", "amenity": "restaurant", "name": "El 9 Porr\u00f3"}}, {"type": "node", "id": 9023362418, "lat": 41.3955052, "lon": 2.1923565, "tags": {"amenity": "fast_food", "cuisine": "kebab", "name": "J\u00e9rusalem", "name:ca": "Jerusalem", "name:en": "Jerusalem"}}, {"type": "node", "id": 9124922432, "lat": 41.3968342, "lon": 2.1888871, "tags": {"addr:housenumber": "96", "addr:street": "Carrer de Zamora", "amenity": "cafe", "cuisine": "coffee_shop", "name": "Caf\u00e9 de Finca", "opening_hours:covid19": "open", "outdoor_seating": "no"}}, {"type": "node", "id": 9233572532, "lat": 41.4005247, "lon": 2.1842529, "tags": {"amenity": "cafe", "name": "Caf\u00e9 del Teatre", "outdoor_seating": "yes"}}, {"type": "node", "id": 9376342919, "lat": 41.3966728, "lon": 2.1919552, "tags": {"addr:housenumber": "122", "addr:postcode": "08018", "addr:street": "Carrer de Pallars", "air_conditioning": "no", "amenity": "bar", "email": "hijoscain@hotmail.com", "indoor_seating": "yes", "name": "Hijos de cain Bar", "opening_hours": "Fr-Sa 22:30-03:00", "operator": "PH Fr,Sa 23:00-03:00", "outdoor_seating": "no", "payment:credit_cards": "yes", "payment:debit_cards": "yes", "smoking": "no", "website": "http://www.hijosdecain.es/", "wheelchair": "no"}}, {"type": "node", "id": 9376343220, "lat": 41.3963512, "lon": 2.1922632, "tags": {"addr:housenumber": "61", "addr:postcode": "08018", "addr:street": "Carrer de Pere IV", "amenity": "bar", "contact:facebook": "airbarpoblenou", "email": "airbarpoblenou@hotmail.com", "name:en": "Airbar"}}, {"type": "node", "id": 9376372117, "lat": 41.3967903, "lon": 2.1921194, "tags": {"addr:housenumber": "122", "addr:postcode": "08018", "addr:street": "Carrer de Pallars", "air_conditioning": "no", "amenity": "bar", "contact:facebook": "D9bar", "contact:instagram": "d9poblenou", "email": "ramon@denou.bar", "indoor_seating": "yes", "name": "D9", "opening_hours": "Mo-Su 18:00-01:00", "outdoor_seating": "yes", "payment:credit_cards": "yes", "payment:debit_cards": "yes", "phone": "+34 933 099 202;+34 687 955 816", "smoking": "outside", "website": "https://denou.bar/", "wheelchair": "no"}}, {"type": "node", "id": 9376642417, "lat": 41.3988768, "lon": 2.1953173, "tags": {"addr:housenumber": "92", "addr:postcode": "08005", "addr:street": "Carrer de Badajoz", "amenity": "bar", "contact:facebook": "ravenpoblenou", "name": "Raven Poblenou", "opening_hours": "Fr-Sa 23:00-03:30"}}, {"type": "node", "id": 9377066517, "lat": 41.3983197, "lon": 2.1942274, "tags": {"addr:housenumber": "100", "addr:postcode": "08006", "addr:street": "Carrer de Pere IV", "amenity": "restaurant", "name": "El rey del kebab", "opening_hours": "Mo-Fr 11:30-23:00; Sa-Su 14:00-23:00"}}, {"type": "node", "id": 9467049252, "lat": 41.4032097, "lon": 2.1982348, "tags": {"name": "Primaprix", "shop": "supermarket"}}, {"type": "node", "id": 9476185118, "lat": 41.3988285, "lon": 2.2008609, "tags": {"amenity": "cafe", "name": "La Marmiteria"}}, {"type": "node", "id": 9810799117, "lat": 41.3995409, "lon": 2.2000183, "tags": {"addr:housenumber": "155", "addr:street": "Carrer de Llull", "amenity": "restaurant", "cuisine": "japanese", "name:en": "Kibuka", "opening_hours": "Mo-Su 13:00-23:30"}}, {"type": "node", "id": 9810799317, "lat": 41.400448, "lon": 2.2012449, "tags": {"addr:housenumber": "169", "addr:street": "Carrer de Llull", "amenity": "restaurant", "email": "infofabrikbcn@gmail.com", "name:en": "Fabrik", "phone": "+34 931179888"}}, {"type": "node", "id": 9812455817, "lat": 41.3996622, "lon": 2.1978459, "tags": {"name:en": "Vains", "shop": "supermarket"}}, {"type": "node", "id": 9812455818, "lat": 41.4001622, "lon": 2.1984615, "tags": {"shop": "supermarket"}}, {"type": "node", "id": 9914088717, "lat": 41.4052516, "lon": 2.1882236, "tags": {"amenity": "cafe", "name": "Els Titons de Las Palmeras"}}, {"type": "way", "id": 499392314, "nodes": [4906707988, 1307297614]}, {"type": "way", "id": 499392316, "nodes": [4582968963, 6516572963, 6516572964, 7044957955, 4534907393, 2187275712]}, {"type": "way", "id": 499392317, "nodes": [4906707996, 4734086768]}, {"type": "way", "id": 499392318, "nodes": [1307297614, 6451346360, 4906707990]}, {"type": "way", "id": 499392319, "nodes": [4906707996, 4906707987, 4906707988], "tags": {"barrier": "wall"}}, {"type": "way", "id": 499392321, "nodes": [1307297607, 6516563969, 6516563968, 6516563967, 420068865]}, {"type": "way", "id": 499392323, "nodes": [420068865, 2923421005, 420068862, 4582968963]}, {"type": "way", "id": 499392324, "nodes": [1307297613, 4534954334, 1307297607], "tags": {"barrier": "gate"}}, {"type": "way", "id": 499392327, "nodes": [4906707990, 2923421010, 2756677882, 1307297612, 6516563972, 6516563971, 6516563970, 1307297613]}, {"type": "way", "id": 499392329, "nodes": [2187275712, 6516572965, 4734086770, 4734086771, 4734086768]}, {"type": "way", "id": 655182341, "nodes": [6138906835, 6138906836, 5522265621, 6138906566, 6138906896, 6138906883, 6138906835], "tags": {"amenity": "bar", "building": "industrial", "building:levels": "2", "name": "Comtu bar"}}, {"type": "way", "id": 655221168, "nodes": [6139197977, 6139197978, 2292687549, 6139198749, 6139197909, 6139197910, 6139197953, 6139197911, 6139198732, 6139197981, 6139198736, 6139197908, 6139197977], "tags": {"amenity": "bar", "building": "industrial", "building:levels": "2", "building:levels:underground": "1", "name": "L'ovella negra Marina"}}, {"type": "relation", "id": 7323157, "members": [{"type": "way", "ref": 499392323, "role": "outer"}, {"type": "way", "ref": 499392321, "role": "outer"}, {"type": "way", "ref": 499392324, "role": "outer"}, {"type": "way", "ref": 499392327, "role": "outer"}, {"type": "way", "ref": 499392318, "role": "outer"}, {"type": "way", "ref": 499392314, "role": "outer"}, {"type": "way", "ref": 499392319, "role": "outer"}, {"type": "way", "ref": 499392317, "role": "outer"}, {"type": "way", "ref": 499392329, "role": "outer"}, {"type": "way", "ref": 499392316, "role": "outer"}], "tags": {"addr:city": "Barcelona", "addr:housenumber": "208", "addr:postcode": "08018", "addr:street": "Avinguda Diagonal", "name": "Gl\u00f2ries", "name:ca": "Gl\u00f2ries", "opening_hours": "Mo-Sa 10:00-22:00", "shop": "mall", "type": "multipolygon", "website": "http://lesglories.com/", "wheelchair": "yes", "wikidata": "Q16571897", "wikipedia": "es:Gl\u00f2ries (centro comercial)"}}]}